     3.02           OBSERVATION DATA    G                   RINEX VERSION / TYPE
G = GPS  R = GLONASS  E = GALILEO  S = GEO  M = MIXED       COMMENT             
GNSS-SDR            UNKNOWN USER        20210328 184519 UTC PGM / RUN BY / DATE 
GPS OBSERVATION DATA FILE GENERATED BY GNSS-SDR             COMMENT             
GNSS-SDR VERSION 0.0.11                                     COMMENT             
See https://gnss-sdr.org                                    COMMENT             
DEFAULT MARKER NAME                                         MARKER NAME         
UNKNOWN USER        CTTC                                    OBSERVER / AGENCY   
GNSS-SDR            Software Receiver   0.0.11              REC # / TYPE / VERS 
Antenna number      Antenna type                            ANT # / TYPE        
        0.0000        0.0000        0.0000                  APPROX POSITION XYZ 
        0.0000        0.0000        0.0000                  ANTENNA: DELTA H/E/N
G    4 C1C L1C D1C S1C                                      SYS / # / OBS TYPES 
DBHZ                                                        SIGNAL STRENGTH UNIT
  2020    02    06    15    06   48.3000000     GPS         TIME OF FIRST OBS   
    18    18   137     7                                    LEAP SECONDS        
                                                            END OF HEADER       
> 2020 02 06 15 06 48.3000000  0  9                                             
G01  21037412.896 8    -18647.791 8       473.632 8        53.832               
G03  23067175.639 8   -102906.810 8      2813.387 8        49.000               
G08  25666574.225 7    105183.054 7     -2746.413 7        42.588               
G10  24041725.133 7    107805.096 7     -2820.246 7        46.351               
G11  22012500.641 8     85566.826 8     -2246.833 8        50.354               
G14  21020086.876 9     53492.985 9     -1402.696 9        54.791               
G18  20678952.218 9     56073.533 9     -1476.750 9        55.471               
G23  25071027.905 7   -103677.325 7      2708.188 7        45.620               
G25  24694000.115 7    -41059.973 7      1076.364 7        46.806               
> 2020 02 06 15 06 48.4000000  0  9                                             
G01  21037403.651 8    -18695.412 8       474.744 8        53.959               
G03  23067122.311 8   -103188.270 8      2815.461 8        49.078               
G08  25666625.164 7    105457.517 7     -2743.901 7        42.592               
G10  24041778.484 7    108086.760 7     -2816.967 7        46.075               
G11  22012542.377 8     85791.223 8     -2246.118 8        50.400               
G14  21020113.424 9     53633.035 9     -1402.830 9        54.630               
G18  20678979.516 9     56221.051 9     -1476.624 9        55.426               
G23  25070976.847 7   -103948.102 7      2707.744 7        45.711               
G25  24693978.398 7    -41167.820 7      1075.534 7        46.727               
> 2020 02 06 15 06 48.5000000  0  9                                             
G01  21037394.135 9    -18742.905 9       473.955 9        54.081               
G03  23067068.731 8   -103469.609 8      2812.068 8        49.095               
G08  25666676.706 7    105732.091 7     -2749.980 7        42.586               
G10  24041832.117 7    108368.547 7     -2821.963 7        45.921               
G11  22012584.967 8     86015.743 8     -2247.183 8        50.597               
G14  21020139.485 9     53773.205 9     -1402.511 9        54.598               
G18  20679008.240 9     56368.692 9     -1476.861 9        55.346               
G23  25070925.786 7   -104218.759 7      2705.024 7        45.732               
G25  24693957.322 7    -41275.550 7      1077.611 7        46.626               
> 2020 02 06 15 06 48.6000000  0  9                                             
G01  21037383.408 9    -18791.038 9       474.890 9        54.035               
G03  23067014.510 8   -103751.593 8      2813.157 8        49.136               
G08  25666724.893 7    106006.055 7     -2749.161 7        42.620               
G10  24041885.218 7    108649.689 7     -2820.107 7        45.868               
G11  22012626.953 8     86239.627 8     -2246.039 8        50.599               
G14  21020165.371 9     53912.736 9     -1402.389 9        54.617               
G18  20679034.537 9     56515.708 9     -1477.301 9        55.220               
G23  25070873.638 7   -104490.058 7      2704.832 7        45.779               
G25  24693936.284 7    -41383.906 7      1072.684 7        46.619               
> 2020 02 06 15 06 48.7000000  0  9                                             
G01  21037374.114 9    -18838.094 9       473.246 9        54.158               
G03  23066961.258 8   -104032.507 8      2815.654 8        49.229               
G08  25666778.623 7    106281.051 7     -2743.303 7        42.723               
G10  24041939.323 7    108931.899 7     -2820.480 7        45.869               
G11  22012670.140 8     86464.583 8     -2245.582 8        50.399               
G14  21020193.155 9     54053.335 9     -1401.638 9        54.565               
G18  20679063.715 9     56663.785 9     -1477.529 9        55.078               
G23  25070823.048 7   -104760.296 7      2702.236 7        45.885               
G25  24693916.053 7    -41491.200 7      1076.538 7        46.411               
> 2020 02 06 15 06 48.8000000  0  9                                             
G01  21037364.450 9    -18885.782 9       474.472 9        54.307               
G03  23066907.851 8   -104314.059 8      2812.402 8        49.378               
G08  25666827.409 7    106555.426 7     -2746.676 7        42.642               
G10  24041992.290 7    109213.475 7     -2817.151 7        45.864               
G11  22012712.922 8     86688.901 8     -2247.144 8        50.261               
G14  21020219.444 9     54193.303 9     -1403.283 9        54.423               
G18  20679091.415 9     56811.236 9     -1477.247 9        54.965               
G23  25070770.785 7   -105031.165 7      2702.580 7        45.816               
G25  24693896.062 7    -41599.116 7      1078.217 7        46.339               
> 2020 02 06 15 06 48.9000000  0  9                                             
G01  21037356.415 9    -18932.432 9       474.145 9        54.439               
G03  23066854.642 8   -104594.579 8      2813.005 8        49.450               
G08  25666881.772 7    106830.812 7     -2748.068 7        42.660               
G10  24042046.367 7    109496.082 7     -2818.842 7        45.834               
G11  22012756.153 8     86914.260 8     -2246.943 8        50.103               
G14  21020246.736 9     54334.301 9     -1403.034 9        54.290               
G18  20679120.565 9     56959.726 9     -1477.675 9        54.839               
G23  25070719.667 7   -105301.004 7      2706.721 7        45.772               
G25  24693876.554 7    -41706.002 7      1076.138 7        46.197               
> 2020 02 06 15 06 49.0000000  0  9                                             
G01  21037347.496 9    -18980.501 9       474.137 9        54.516               
G03  23066800.783 8   -104876.520 8      2813.771 8        49.493               
G08  25666934.591 7    107104.785 7     -2747.676 7        42.708               
G10  24042099.633 7    109777.270 7     -2812.420 7        45.947               
G11  22012798.447 8     87138.201 8     -2245.595 8        49.895               
G14  21020272.036 9     54473.877 9     -1400.885 9        54.233               
G18  20679148.064 9     57106.792 9     -1476.859 9        54.611               
G23  25070664.700 7   -105572.261 7      2701.603 7        45.851               
G25  24693854.234 7    -41814.310 7      1077.894 7        46.127               
> 2020 02 06 15 06 49.1000000  0  9                                             
G01  21037339.087 9    -19027.613 9       474.226 9        54.546               
G03  23066747.344 8   -105157.515 8      2811.804 8        49.571               
G08  25666988.187 7    107379.701 7     -2747.761 7        42.698               
G10  24042153.855 7    110059.408 7     -2819.281 7        45.957               
G11  22012841.662 8     87363.093 8     -2248.303 8        49.762               
G14  21020299.723 9     54614.408 9     -1402.797 9        54.305               
G18  20679176.751 9     57254.823 9     -1477.812 9        54.483               
G23  25070613.674 7   -105842.573 7      2705.866 7        45.828               
G25  24693834.371 7    -41921.664 7      1076.955 7        46.038               
> 2020 02 06 15 06 49.2000000  0  9                                             
G01  21037330.573 9    -19074.492 9       473.111 9        54.531               
G03  23066694.729 8   -105438.282 8      2814.758 8        49.488               
G08  25667042.894 7    107654.834 7     -2747.457 7        42.946               
G10  24042207.364 7    110341.771 7     -2820.479 7        45.963               
G11  22012883.913 8     87588.216 8     -2245.560 8        49.566               
G14  21020327.018 9     54755.166 9     -1402.703 9        54.456               
G18  20679205.404 9     57403.076 9     -1477.685 9        54.366               
G23  25070564.418 7   -106112.660 7      2708.016 7        45.821               
G25  24693813.634 7    -42028.783 7      1077.211 7        45.923               
> 2020 02 06 15 06 49.3000000  0  9                                             
G01  21037321.277 9    -19122.046 9       473.120 9        54.471               
G03  23066640.975 8   -105719.732 8      2812.769 8        49.448               
G08  25667095.925 7    107929.298 7     -2745.693 7        43.029               
G10  24042261.217 7    110623.451 7     -2816.781 7        46.083               
G11  22012926.491 8     87812.660 8     -2247.458 8        49.334               
G14  21020353.621 9     54895.242 9     -1402.496 9        54.627               
G18  20679233.526 9     57550.658 9     -1478.033 9        54.245               
G23  25070514.184 7   -106383.429 7      2706.966 7        45.801               
G25  24693793.956 7    -42136.581 7      1084.272 7        45.743               
> 2020 02 06 15 06 49.4000000  0  9                                             
G01  21037312.138 9    -19169.633 9       473.713 9        54.496               
G03  23066587.092 8   -106001.212 8      2811.985 8        49.522               
G08  25667148.291 7    108203.723 7     -2747.437 7        43.138               
G10  24042314.566 7    110905.107 7     -2818.931 7        46.015               
G11  22012969.136 8     88037.075 8     -2247.030 8        49.247               
G14  21020379.273 9     55035.289 9     -1403.334 9        54.867               
G18  20679261.215 9     57698.213 9     -1478.944 9        54.146               
G23  25070461.981 7   -106654.223 7      2704.939 7        45.833               
G25  24693774.382 7    -42244.408 7      1076.402 7        45.458               
> 2020 02 06 15 06 49.5000000  0  9                                             
G01  21037304.168 9    -19216.782 9       474.033 9        54.519               
G03  23066533.574 8   -106282.272 8      2811.157 8        49.498               
G08  25667200.807 7    108478.576 7     -2751.600 7        43.135               
G10  24042368.744 7    111187.178 7     -2815.527 7        45.961               
G11  22013011.771 8     88261.918 8     -2246.231 8        49.182               
G14  21020406.880 9     55175.763 9     -1402.375 9        55.091               
G18  20679288.965 9     57846.195 9     -1478.392 9        54.061               
G23  25070410.732 7   -106924.597 7      2705.484 7        45.746               
G25  24693753.260 7    -42351.800 7      1078.304 7        45.350               
> 2020 02 06 15 06 49.6000000  0  9                                             
G01  21037295.994 9    -19263.877 9       473.344 9        54.461               
G03  23066480.280 8   -106563.273 8      2811.541 8        49.399               
G08  25667252.656 7    108753.465 7     -2747.389 7        43.128               
G10  24042422.487 7    111469.311 7     -2816.225 7        45.947               
G11  22013055.971 8     88486.821 8     -2245.958 8        49.117               
G14  21020434.087 9     55316.294 9     -1402.385 9        55.186               
G18  20679318.226 8     57994.244 8     -1477.597 8        53.980               
G23  25070357.903 7   -107194.919 7      2706.223 7        45.659               
G25  24693731.791 7    -42459.142 7      1074.310 7        45.392               
> 2020 02 06 15 06 49.7000000  0  9                                             
G01  21037287.293 9    -19311.040 9       472.912 9        54.388               
G03  23066426.961 8   -106844.353 8      2811.366 8        49.382               
G08  25667304.030 7    109028.275 7     -2749.597 7        43.092               
G10  24042476.006 7    111751.368 7     -2816.984 7        45.859               
G11  22013098.608 8     88711.650 8     -2246.338 8        49.294               
G14  21020461.052 9     55456.745 9     -1402.566 9        55.183               
G18  20679346.032 8     58142.215 8     -1477.508 8        53.935               
G23  25070307.907 7   -107465.318 7      2705.546 7        45.560               
G25  24693712.083 7    -42566.555 7      1078.812 7        45.485               
> 2020 02 06 15 06 49.8000000  0  9                                             
G01  21037277.150 9    -19358.454 9       472.310 9        54.194               
G03  23066373.521 8   -107125.688 8      2812.106 8        49.416               
G08  25667354.231 7    109302.838 7     -2749.281 7        42.928               
G10  24042529.351 7    112033.171 7     -2818.442 7        46.023               
G11  22013140.839 8     88936.234 8     -2245.068 8        49.425               
G14  21020487.148 9     55596.948 9     -1403.693 9        55.116               
G18  20679374.414 8     58289.941 8     -1477.923 8        53.904               
G23  25070257.684 7   -107735.965 7      2706.296 7        45.349               
G25  24693692.791 7    -42674.213 7      1078.063 7        45.568               
> 2020 02 06 15 06 49.9000000  0  9                                             
G01  21037267.410 9    -19406.100 9       473.790 9        54.016               
G03  23066319.270 8   -107407.266 8      2813.602 8        49.391               
G08  25667404.638 7    109577.162 7     -2751.613 7        43.020               
G10  24042583.154 7    112314.737 7     -2820.254 7        46.195               
G11  22013184.063 8     89160.576 8     -2245.542 8        49.559               
G14  21020513.414 9     55736.910 9     -1403.407 9        55.036               
G18  20679402.414 8     58437.432 8     -1478.636 8        53.922               
G23  25070204.487 7   -108006.860 7      2706.959 7        45.222               
G25  24693672.562 7    -42782.114 7      1078.127 7        45.550               
> 2020 02 06 15 06 50.0000000  0  9                                             
G01  21037257.640 8    -19453.322 8       474.532 8        53.948               
G03  23066265.721 8   -107688.415 8      2809.769 8        49.480               
G08  25667458.393 7    109851.891 7     -2741.301 7        42.860               
G10  24042637.194 7    112596.723 7     -2819.220 7        46.221               
G11  22013226.185 8     89385.346 8     -2247.660 8        49.851               
G14  21020540.454 9     55877.296 9     -1401.414 9        54.951               
G18  20679430.795 8     58585.348 8     -1478.641 8        53.923               
G23  25070153.529 7   -108277.319 7      2708.524 7        45.062               
G25  24693652.286 7    -42889.582 7      1075.445 7        45.692               
> 2020 02 06 15 06 50.1000000  0  9                                             
G01  21037247.566 8    -19501.216 8       473.543 8        53.719               
G03  23066211.868 8   -107970.256 8      2810.674 8        49.479               
G08  25667508.573 7    110125.944 7     -2749.753 7        42.684               
G10  24042690.538 7    112878.019 7     -2818.212 7        46.318               
G11  22013268.021 8     89609.433 8     -2246.771 8        50.063               
G14  21020566.529 9     56017.000 9     -1402.968 9        54.838               
G18  20679457.835 8     58732.583 8     -1478.225 8        53.804               
G23  25070102.195 7   -108548.470 7      2703.846 7        44.947               
G25  24693630.061 7    -42997.734 7      1075.801 7        45.685               
> 2020 02 06 15 06 50.2000000  0  9                                             
G01  21037239.729 8    -19547.794 8       472.607 8        53.435               
G03  23066158.679 8   -108250.780 8      2813.436 8        49.524               
G08  25667568.692 7    110401.305 7     -2746.329 7        42.837               
G10  24042744.599 7    113160.643 7     -2815.064 7        46.470               
G11  22013312.683 8     89834.844 8     -2246.436 8        50.367               
G14  21020593.769 9     56158.024 9     -1403.273 9        54.708               
G18  20679488.255 8     58881.148 8     -1478.119 8        53.761               
G23  25070050.240 7   -108818.315 7      2705.060 7        44.800               
G25  24693610.877 7    -43104.571 7      1078.153 7        45.644               
> 2020 02 06 15 06 50.3000000  0  9                                             
G01  21037230.875 8    -19595.525 8       473.937 8        53.165               
G03  23066105.474 8   -108532.459 8      2813.455 8        49.570               
G08  25667621.433 7    110675.501 7     -2746.135 7        42.861               
G10  24042797.465 7    113442.102 7     -2822.699 7        46.464               
G11  22013353.863 8     90059.094 8     -2246.404 8        50.692               
G14  21020619.707 9     56297.885 9     -1403.681 9        54.555               
G18  20679514.729 8     59028.551 8     -1478.316 8        53.792               
G23  25069997.428 7   -109089.315 7      2705.086 7        44.668               
G25  24693589.694 7    -43212.548 7      1073.575 7        45.615               
> 2020 02 06 15 06 50.4000000  0  9                                             
G01  21037221.869 8    -19643.112 8       474.063 8        52.910               
G03  23066051.242 8   -108814.000 8      2809.457 8        49.499               
G08  25667674.379 7    110949.847 7     -2749.019 7        42.817               
G10  24042851.894 7    113723.705 7     -2820.126 7        46.560               
G11  22013396.605 8     90283.488 8     -2246.970 8        50.924               
G14  21020646.546 9     56437.892 9     -1402.454 9        54.567               
G18  20679542.747 8     59176.102 8     -1477.524 8        53.999               
G23  25069945.465 7   -109360.159 7      2708.356 7        44.529               
G25  24693568.376 7    -43320.397 7      1074.581 7        45.634               
> 2020 02 06 15 06 50.5000000  0  9                                             
G01  21037212.817 8    -19690.591 8       472.668 8        52.790               
G03  23065997.642 8   -109095.451 8      2812.508 8        49.603               
G08  25667725.867 7    111224.267 7     -2745.574 7        42.932               
G10  24042905.276 7    114005.403 7     -2820.224 7        46.506               
G11  22013439.266 8     90507.990 8     -2247.217 8        51.152               
G14  21020672.946 9     56577.996 9     -1403.189 9        54.660               
G18  20679570.380 9     59323.759 9     -1478.874 9        54.258               
G23  25069894.117 7   -109630.918 7      2703.676 7        44.299               
G25  24693548.584 7    -43428.137 7      1075.675 7        45.513               
> 2020 02 06 15 06 50.6000000  0  9                                             
G01  21037204.340 8    -19737.407 8       471.833 8        52.693               
G03  23065944.546 8   -109376.234 8      2814.250 8        49.611               
G08  25667776.482 7    111499.371 7     -2743.329 7        43.072               
G10  24042958.840 7    114287.762 7     -2818.447 7        46.493               
G11  22013482.376 8     90733.151 8     -2246.088 8        51.189               
G14  21020700.403 9     56718.764 9     -1403.516 9        54.735               
G18  20679598.623 9     59472.079 9     -1477.767 9        54.286               
G23  25069843.683 7   -109901.015 7      2706.451 7        44.075               
G25  24693527.831 7    -43535.209 7      1071.897 7        45.355               
> 2020 02 06 15 06 50.7000000  0  9                                             
G01  21037194.306 8    -19785.622 8       473.201 8        52.551               
G03  23065890.304 8   -109658.421 8      2812.268 8        49.524               
G08  25667827.900 7    111773.055 7     -2742.085 7        43.031               
G10  24043011.473 7    114568.726 7     -2820.275 7        46.426               
G11  22013524.324 8     90956.913 8     -2245.190 8        51.095               
G14  21020725.285 9     56858.127 9     -1402.371 9        54.776               
G18  20679624.524 9     59619.002 9     -1478.067 9        54.300               
G23  25069791.907 7   -110172.518 7      2704.181 7        43.915               
G25  24693505.878 7    -43643.685 7      1070.007 7        45.207               
> 2020 02 06 15 06 50.8000000  0  9                                             
G01  21037187.545 8    -19831.543 8       472.367 8        52.505               
G03  23065838.156 8   -109938.323 8      2811.481 8        49.506               
G08  25667881.358 7    112049.011 7     -2743.726 7        43.050               
G10  24043066.628 7    114851.965 7     -2823.989 7        46.312               
G11  22013567.882 8     91182.970 8     -2247.553 8        50.910               
G14  21020754.584 9     56999.784 9     -1403.060 9        54.810               
G18  20679656.111 9     59768.219 9     -1479.104 9        54.602               
G23  25069742.743 7   -110441.725 7      2707.622 7        43.842               
G25  24693487.163 7    -43749.869 7      1075.049 7        45.127               
> 2020 02 06 15 06 50.9000000  0  9                                             
G01  21037179.122 8    -19878.724 8       473.286 8        52.391               
G03  23065785.060 8   -110219.492 8      2814.995 8        49.596               
G08  25667931.849 7    112323.719 7     -2743.783 7        43.185               
G10  24043119.638 7    115133.942 7     -2818.620 7        46.240               
G11  22013610.903 8     91407.759 8     -2246.542 8        50.747               
G14  21020781.362 9     57140.172 9     -1403.615 9        54.749               
G18  20679683.747 9     59916.172 9     -1478.959 9        54.988               
G23  25069691.523 7   -110712.211 7      2706.480 7        43.868               
G25  24693467.000 7    -43857.316 7      1075.390 7        45.221               
> 2020 02 06 15 06 51.0000000  0  9                                             
G01  21037170.389 8    -19925.916 8       472.072 8        52.291               
G03  23065731.315 8   -110500.682 8      2811.924 8        49.605               
G08  25667980.726 7    112598.394 7     -2746.476 7        43.341               
G10  24043173.018 7    115415.912 7     -2814.942 7        46.209               
G11  22013654.473 8     91632.539 8     -2246.054 8        50.621               
G14  21020808.046 9     57280.544 9     -1403.052 9        54.588               
G18  20679711.413 9     60064.112 9     -1478.785 9        55.193               
G23  25069640.727 7   -110982.726 7      2703.955 7        43.930               
G25  24693447.313 7    -43964.775 7      1074.717 7        45.441               
> 2020 02 06 15 06 51.1000000  0  9                                             
G01  21037160.265 8    -19973.346 8       473.524 8        52.351               
G03  23065677.930 8   -110782.107 8      2812.019 8        49.585               
G08  25668038.540 7    112872.834 7     -2747.940 7        43.318               
G10  24043225.650 7    115697.637 7     -2817.613 7        46.286               
G11  22013696.723 8     91857.078 8     -2247.727 8        50.550               
G14  21020833.678 9     57420.680 9     -1403.883 9        54.420               
G18  20679738.868 9     60211.822 9     -1479.155 9        55.419               
G23  25069588.235 7   -111253.448 7      2703.722 7        44.015               
G25  24693426.575 7    -44072.476 7      1076.330 7        45.542               
> 2020 02 06 15 06 51.2000000  0  9                                             
G01  21037150.705 8    -20020.201 8       471.861 8        52.320               
G03  23065624.967 8   -111062.969 8      2815.795 8        49.540               
G08  25668090.235 7    113147.830 7     -2750.652 7        43.301               
G10  24043279.669 7    115979.926 7     -2818.768 7        46.442               
G11  22013740.199 8     92082.188 8     -2246.092 8        50.525               
G14  21020861.179 9     57561.380 9     -1401.561 9        54.315               
G18  20679769.228 9     60360.100 9     -1478.716 9        55.677               
G23  25069537.291 7   -111523.625 7      2707.746 7        44.025               
G25  24693405.597 7    -44179.602 7      1074.347 7        45.542               
> 2020 02 06 15 06 51.3000000  0  9                                             
G01  21037139.845 8    -20068.143 8       470.797 8        52.227               
G03  23065570.381 8   -111344.914 8      2809.376 8        49.460               
G08  25668139.540 7    113421.734 7     -2747.616 7        43.299               
G10  24043333.065 7    116261.126 7     -2818.544 7        46.575               
G11  22013782.249 8     92306.218 8     -2246.912 8        50.715               
G14  21020887.379 9     57700.998 9     -1403.592 9        54.223               
G18  20679795.124 9     60507.298 9     -1478.392 9        55.751               
G23  25069484.563 7   -111794.879 7      2706.007 7        44.099               
G25  24693384.194 7    -44287.810 7      1075.157 7        45.424               
> 2020 02 06 15 06 51.4000000  0  9                                             
G01  21037130.920 8    -20115.383 8       472.143 8        52.151               
G03  23065516.962 8   -111626.176 8      2813.251 8        49.243               
G08  25668191.780 7    113696.340 7     -2747.285 7        43.287               
G10  24043387.182 7    116543.024 7     -2815.656 7        46.860               
G11  22013824.483 8     92530.940 8     -2247.064 8        51.086               
G14  21020914.156 9     57841.308 9     -1403.899 9        54.218               
G18  20679823.938 9     60655.196 9     -1478.446 9        55.694               
G23  25069432.270 7   -112065.445 7      2700.999 7        44.117               
G25  24693364.029 7    -44395.324 7      1072.590 7        45.299               
> 2020 02 06 15 06 51.5000000  0  9                                             
G01  21037122.134 8    -20162.588 8       470.514 8        52.092               
G03  23065462.664 8   -111907.402 8      2813.398 8        49.207               
G08  25668245.090 7    113970.966 7     -2743.419 7        43.370               
G10  24043441.438 7    116824.949 7     -2819.546 7        46.936               
G11  22013867.750 8     92755.697 8     -2247.420 8        51.352               
G14  21020940.769 9     57981.650 9     -1403.523 9        54.181               
G18  20679852.034 9     60803.121 9     -1478.990 9        55.610               
G23  25069381.153 7   -112335.989 7      2708.808 7        44.229               
G25  24693343.951 7    -44502.806 7      1075.807 7        45.268               
> 2020 02 06 15 06 51.6000000  0  9                                             
G01  21037114.348 8    -20209.367 8       471.057 8        51.968               
G03  23065410.401 8   -112188.210 8      2812.270 8        49.298               
G08  25668298.862 7    114246.006 7     -2741.216 7        43.454               
G10  24043494.728 7    117107.293 7     -2820.523 7        47.088               
G11  22013910.568 8     92980.878 8     -2247.273 8        51.587               
G14  21020967.684 9     58122.408 9     -1402.925 9        54.186               
G18  20679881.594 9     60951.470 9     -1479.181 9        55.691               
G23  25069329.784 7   -112606.112 7      2701.392 7        44.269               
G25  24693324.835 7    -44609.863 7      1073.188 7        45.224               
> 2020 02 06 15 06 51.7000000  0  9                                             
G01  21037105.923 8    -20256.275 8       472.372 8        51.802               
G03  23065356.965 8   -112469.157 8      2811.394 8        49.352               
G08  25668351.210 7    114520.923 7     -2746.085 7        43.632               
G10  24043548.613 7    117389.513 7     -2818.818 7        47.301               
G11  22013953.517 8     93205.929 8     -2248.475 8        51.737               
G14  21020995.248 9     58263.044 9     -1403.708 9        54.150               
G18  20679909.461 9     61099.703 9     -1478.835 9        55.705               
G23  25069278.849 7   -112876.357 7      2704.009 7        44.146               
G25  24693304.510 7    -44717.045 7      1072.904 7        45.133               
> 2020 02 06 15 06 51.8000000  0  9                                             
G01  21037096.330 8    -20304.107 8       472.948 8        51.691               
G03  23065303.325 8   -112751.029 8      2813.072 8        49.446               
G08  25668402.533 7    114794.891 7     -2742.333 7        43.899               
G10  24043601.937 7    117670.798 7     -2818.233 7        47.562               
G11  22013996.316 8     93430.055 8     -2248.838 8        52.028               
G14  21021021.179 9     58402.747 9     -1403.037 9        54.033               
G18  20679937.751 9     61247.010 9     -1479.483 9        55.882               
G23  25069227.586 7   -113147.533 7      2704.291 7        43.939               
G25  24693282.641 7    -44825.155 7      1076.427 7        45.113               
> 2020 02 06 15 06 51.9000000  0  9                                             
G01  21037087.113 8    -20351.484 8       471.412 8        51.696               
G03  23065249.203 8   -113032.447 8      2810.831 8        49.410               
G08  25668452.926 7    115069.314 7     -2749.188 7        44.059               
G10  24043655.744 7    117952.537 7     -2818.857 7        47.666               
G11  22014038.222 8     93654.634 8     -2247.753 8        52.286               
G14  21021047.628 8     58542.902 8     -1402.395 8        53.910               
G18  20679964.432 9     61394.764 9     -1478.981 9        56.152               
G23  25069175.608 7   -113418.269 7      2706.072 7        43.780               
G25  24693261.755 7    -44932.810 7      1076.537 7        45.179               
> 2020 02 06 15 06 52.0000000  0  9                                             
G01  21037078.411 8    -20398.900 8       471.991 8        51.747               
G03  23065195.792 8   -113313.916 8      2812.703 8        49.449               
G08  25668505.622 7    115343.689 7     -2746.652 7        44.128               
G10  24043708.904 7    118234.227 7     -2817.023 7        47.845               
G11  22014080.894 8     93879.172 8     -2247.052 8        52.353               
G14  21021073.377 8     58683.013 8     -1404.012 8        53.699               
G18  20679992.541 9     61542.481 9     -1479.715 9        56.472               
G23  25069123.806 7   -113689.041 7      2706.860 7        43.679               
G25  24693241.260 7    -45040.508 7      1074.780 7        45.292               
> 2020 02 06 15 06 52.1000000  0  9                                             
G01  21037070.420 8    -20446.031 8       472.009 8        51.771               
G03  23065141.896 8   -113595.105 8      2812.346 8        49.480               
G08  25668557.439 7    115618.349 7     -2746.742 7        44.346               
G10  24043763.401 7    118516.200 7     -2818.343 7        47.815               
G11  22014124.044 8     94103.995 8     -2248.129 8        52.345               
G14  21021100.821 8     58823.407 8     -1404.070 8        53.540               
G18  20680020.752 9     61690.490 9     -1479.562 9        56.696               
G23  25069072.250 7   -113959.535 7      2704.737 7        43.563               
G25  24693221.815 7    -45147.917 7      1072.843 7        45.445               
> 2020 02 06 15 06 52.2000000  0  9                                             
G01  21037062.562 8    -20492.565 8       472.038 8        51.821               
G03  23065089.830 8   -113875.699 8      2812.887 8        49.360               
G08  25668609.227 7    115893.591 7     -2745.343 7        44.592               
G10  24043817.227 7    118798.770 7     -2819.726 7        47.697               
G11  22014166.844 8     94329.412 8     -2247.672 8        52.435               
G14  21021128.307 8     58964.393 8     -1404.097 8        53.463               
G18  20680051.366 9     61839.094 9     -1479.745 9        56.795               
G23  25069022.382 7   -114229.442 7      2706.188 7        43.514               
G25  24693202.270 7    -45254.740 7      1077.219 7        45.413               
> 2020 02 06 15 06 52.3000000  0  9                                             
G01  21037052.834 8    -20540.143 8       470.716 8        51.763               
G03  23065035.304 8   -114157.347 8      2811.629 8        49.221               
G08  25668660.630 7    116167.770 7     -2747.210 7        44.657               
G10  24043870.631 7    119080.283 7     -2821.917 7        47.631               
G11  22014209.634 8     94553.778 8     -2248.320 8        52.606               
G14  21021154.354 8     59104.327 8     -1402.132 8        53.462               
G18  20680077.698 9     61986.644 9     -1479.043 9        56.873               
G23  25068969.983 7   -114500.396 7      2704.466 7        43.553               
G25  24693179.963 7    -45362.600 7      1073.425 7        45.224               
> 2020 02 06 15 06 52.4000000  0  9                                             
G01  21037041.854 8    -20588.040 8       472.361 8        51.759               
G03  23064981.081 8   -114439.316 8      2811.414 8        49.045               
G08  25668711.494 7    116441.645 7     -2743.977 7        44.659               
G10  24043923.693 7    119361.477 7     -2817.728 7        47.657               
G11  22014250.849 8     94777.832 8     -2249.105 8        52.744               
G14  21021179.683 8     59243.949 8     -1404.128 8        53.554               
G18  20680103.921 9     62133.889 9     -1479.148 9        56.815               
G23  25068919.137 7   -114771.660 7      2705.077 7        43.634               
G25  24693158.154 7    -45470.782 7      1074.089 7        45.043               
> 2020 02 06 15 06 52.5000000  0  9                                             
G01  21037032.508 8    -20635.243 8       471.286 8        51.716               
G03  23064927.330 8   -114720.606 8      2815.441 8        48.844               
G08  25668764.904 7    116716.189 7     -2744.271 7        44.738               
G10  24043977.210 7    119643.355 7     -2817.215 7        47.647               
G11  22014294.038 8     95002.579 8     -2249.014 8        52.668               
G14  21021206.593 8     59384.252 8     -1403.440 8        53.743               
G18  20680131.600 9     62281.820 9     -1480.272 9        56.689               
G23  25068867.119 7   -115042.268 7      2705.586 7        43.781               
G25  24693138.390 7    -45578.273 7      1073.473 7        44.945               
> 2020 02 06 15 06 52.6000000  0  9                                             
G01  21037023.372 8    -20681.858 8       471.756 8        51.697               
G03  23064874.379 8   -115001.311 8      2809.644 8        48.659               
G08  25668820.079 7    116991.324 7     -2745.006 7        44.827               
G10  24044031.473 7    119925.820 7     -2820.598 7        47.637               
G11  22014338.294 8     95227.899 8     -2248.492 8        52.564               
G14  21021234.232 8     59525.138 8     -1403.443 8        53.969               
G18  20680162.883 9     62430.334 9     -1480.472 9        56.561               
G23  25068815.187 7   -115312.276 7      2706.466 7        44.036               
G25  24693118.800 7    -45685.188 7      1078.035 7        44.894               
> 2020 02 06 15 06 52.7000000  0  9                                             
G01  21037013.948 8    -20729.487 8       471.314 8        51.698               
G03  23064820.766 8   -115283.033 8      2814.395 8        48.468               
G08  25668871.266 7    117265.409 7     -2745.801 7        44.783               
G10  24044084.859 7    120207.268 7     -2817.629 7        47.664               
G11  22014380.083 8     95452.213 8     -2247.249 8        52.541               
G14  21021260.403 9     59665.006 9     -1403.820 9        54.187               
G18  20680190.127 9     62577.838 9     -1479.664 9        56.388               
G23  25068761.037 7   -115583.304 7      2707.357 7        44.176               
G25  24693098.602 7    -45793.108 7      1076.156 7        44.750               
> 2020 02 06 15 06 52.8000000  0  9                                             
G01  21037005.427 8    -20776.568 8       472.781 8        51.704               
G03  23064767.161 8   -115564.205 8      2813.336 8        48.327               
G08  25668923.536 7    117540.052 7     -2743.196 7        44.801               
G10  24044138.254 7    120489.259 7     -2823.866 7        47.546               
G11  22014423.186 8     95677.074 8     -2247.957 8        52.528               
G14  21021286.709 9     59805.427 9     -1403.844 9        54.343               
G18  20680218.023 9     62725.893 9     -1478.616 9        56.136               
G23  25068708.451 7   -115853.786 7      2704.274 7        44.361               
G25  24693077.948 7    -45900.471 7      1070.315 7        44.777               
> 2020 02 06 15 06 52.9000000  0  9                                             
G01  21036995.819 8    -20824.368 8       471.512 8        51.890               
G03  23064713.327 8   -115846.113 8      2814.048 8        48.220               
G08  25668974.665 7    117813.976 7     -2747.124 7        44.772               
G10  24044191.062 7    120770.525 7     -2819.488 7        47.395               
G11  22014465.398 8     95901.213 8     -2248.629 8        52.537               
G14  21021312.463 9     59945.117 9     -1403.820 9        54.354               
G18  20680244.403 9     62873.230 9     -1479.563 9        56.002               
G23  25068657.548 7   -116124.993 7      2710.427 7        44.501               
G25  24693055.688 7    -46008.569 7      1079.177 7        44.833               
> 2020 02 06 15 06 53.0000000  0  9                                             
G01  21036987.467 8    -20871.021 8       470.232 8        52.154               
G03  23064659.838 8   -116126.881 8      2813.126 8        48.287               
G08  25669026.763 7    118089.029 7     -2745.830 7        44.938               
G10  24044245.913 7    121052.927 7     -2818.126 7        47.220               
G11  22014507.901 8     96126.496 8     -2248.636 8        52.501               
G14  21021340.492 9     60085.952 9     -1402.972 9        54.388               
G18  20680273.325 9     63021.713 9     -1480.235 9        55.971               
G23  25068607.042 7   -116395.064 7      2705.692 7        44.601               
G25  24693035.900 7    -46115.515 7      1073.925 7        44.677               
> 2020 02 06 15 06 53.1000000  0  9                                             
G01  21036978.466 8    -20918.016 8       470.254 8        52.338               
G03  23064606.808 8   -116407.990 8      2814.450 8        48.319               
G08  25669079.589 7    118363.747 7     -2744.674 7        44.924               
G10  24044299.186 7    121334.986 7     -2817.668 7        47.061               
G11  22014551.292 8     96351.433 8     -2247.465 8        52.436               
G14  21021367.462 9     60226.442 9     -1404.460 9        54.433               
G18  20680302.118 9     63169.850 9     -1480.670 9        55.940               
G23  25068554.137 7   -116665.482 7      2703.678 7        44.849               
G25  24693015.910 7    -46222.811 7      1075.649 7        44.606               
> 2020 02 06 15 06 53.2000000  0  9                                             
G01  21036969.851 8    -20964.979 8       471.822 8        52.459               
G03  23064553.073 8   -116689.077 8      2813.230 8        48.329               
G08  25669131.032 7    118638.465 7     -2746.094 7        45.101               
G10  24044353.327 7    121617.076 7     -2820.614 7        46.941               
G11  22014594.301 8     96576.403 8     -2247.582 8        52.268               
G14  21021394.317 9     60366.957 9     -1403.670 9        54.370               
G18  20680330.724 9     63318.017 9     -1481.262 9        55.887               
G23  25068502.512 7   -116935.867 7      2701.623 7        45.020               
G25  24692996.341 7    -46330.072 7      1076.546 7        44.580               
> 2020 02 06 15 06 53.3000000  0  9                                             
G01  21036961.829 8    -21011.843 8       471.401 8        52.443               
G03  23064499.700 8   -116970.069 8      2812.376 8        48.264               
G08  25669184.390 7    118913.300 7     -2749.336 7        45.206               
G10  24044406.917 7    121899.252 7     -2823.697 7        46.937               
G11  22014636.866 8     96801.468 8     -2247.599 8        52.252               
G14  21021420.728 9     60507.568 9     -1404.566 9        54.400               
G18  20680358.743 9     63466.282 9     -1480.731 9        55.783               
G23  25068452.855 7   -117206.170 7      2705.235 7        45.110               
G25  24692976.829 7    -46437.238 7      1075.285 7        44.554               
> 2020 02 06 15 06 53.4000000  0  9                                             
G01  21036954.719 8    -21058.165 8       470.874 8        52.392               
G03  23064446.649 8   -117250.523 8      2812.549 8        48.405               
G08  25669237.803 7    119188.646 7     -2741.839 7        45.152               
G10  24044461.312 7    122181.974 7     -2825.412 7        47.048               
G11  22014680.772 8     97027.079 8     -2248.782 8        52.400               
G14  21021448.981 9     60648.719 9     -1403.677 9        54.411               
G18  20680388.140 9     63615.098 9     -1480.616 9        55.664               
G23  25068405.182 7   -117475.922 7      2707.354 7        45.229               
G25  24692956.174 7    -46543.859 7      1073.646 7        44.666               
> 2020 02 06 15 06 53.5000000  0  9                                             
G01  21036946.220 8    -21105.086 8       470.587 8        52.497               
G03  23064393.817 8   -117531.583 8      2812.555 8        48.590               
G08  25669290.309 7    119463.389 7     -2746.108 7        44.984               
G10  24044514.819 7    122464.088 7     -2817.185 7        47.147               
G11  22014723.360 8     97252.085 8     -2248.818 8        52.403               
G14  21021475.756 9     60789.267 9     -1403.794 9        54.522               
G18  20680417.130 9     63763.311 9     -1480.098 9        55.617               
G23  25068353.440 7   -117746.292 7      2704.355 7        45.228               
G25  24692934.971 7    -46651.081 7      1070.640 7        44.653               
> 2020 02 06 15 06 53.6000000  0  9                                             
G01  21036937.414 8    -21151.914 8       470.997 8        52.543               
G03  23064340.249 8   -117812.557 8      2812.994 8        48.665               
G08  25669341.847 7    119738.222 7     -2745.598 7        44.899               
G10  24044568.751 7    122746.288 7     -2818.623 7        47.281               
G11  22014766.017 8     97477.182 8     -2247.226 8        52.329               
G14  21021502.867 9     60929.903 9     -1403.290 9        54.827               
G18  20680445.188 9     63911.618 9     -1480.354 9        55.605               
G23  25068302.857 7   -118016.569 7      2702.646 7        45.239               
G25  24692914.782 7    -46758.217 7      1071.535 7        44.625               
> 2020 02 06 15 06 53.7000000  0  9                                             
G01  21036926.928 8    -21199.440 8       469.340 8        52.557               
G03  23064286.287 8   -118094.237 8      2812.377 8        48.986               
G08  25669391.758 7    120012.350 7     -2746.824 7        44.885               
G10  24044621.343 7    123027.794 7     -2821.614 7        47.497               
G11  22014808.960 8     97701.584 8     -2250.450 8        52.233               
G14  21021528.387 9     61069.840 9     -1404.035 9        54.999               
G18  20680472.138 9     64059.227 9     -1480.006 9        55.476               
G23  25068251.218 7   -118287.537 7      2702.943 7        45.088               
G25  24692894.021 7    -46866.051 7      1075.565 7        44.712               
> 2020 02 06 15 06 53.8000000  0  9                                             
G01  21036915.951 8    -21247.297 8       470.845 8        52.404               
G03  23064231.889 8   -118376.247 8      2810.896 8        49.271               
G08  25669444.037 7    120286.137 7     -2745.246 7        44.905               
G10  24044674.640 7    123308.958 7     -2817.181 7        47.634               
G11  22014850.232 8     97925.648 8     -2249.014 8        52.134               
G14  21021554.613 9     61209.442 9     -1403.751 9        55.063               
G18  20680497.596 9     64206.505 9     -1480.690 9        55.381               
G23  25068198.195 7   -118558.867 7      2709.338 7        45.019               
G25  24692873.788 7    -46974.204 7      1068.460 7        44.813               
> 2020 02 06 15 06 53.9000000  0  9                                             
G01  21036905.642 8    -21294.880 8       470.969 8        52.323               
G03  23064177.980 8   -118657.997 8      2812.681 8        49.192               
G08  25669496.181 7    120560.182 7     -2748.964 7        45.000               
G10  24044727.481 7    123590.390 7     -2820.400 7        47.829               
G11  22014892.833 8     98149.986 8     -2248.543 8        52.088               
G14  21021580.882 9     61349.309 9     -1403.808 9        55.183               
G18  20680524.044 9     64354.052 9     -1480.902 9        55.254               
G23  25068145.626 7   -118829.900 7      2705.016 7        44.993               
G25  24692853.062 7    -47082.104 7      1075.841 7        44.746               
> 2020 02 06 15 06 54.0000000  0  9                                             
G01  21036896.321 8    -21342.231 8       471.029 8        52.378               
G03  23064124.718 8   -118939.517 8      2811.273 8        49.113               
G08  25669548.721 7    120834.451 7     -2743.400 7        45.037               
G10  24044780.951 7    123872.048 7     -2820.709 7        47.942               
G11  22014935.367 8     98374.552 8     -2249.374 8        51.999               
G14  21021607.209 9     61489.405 9     -1404.591 9        55.305               
G18  20680552.765 9     64501.832 9     -1481.724 9        55.095               
G23  25068093.508 7   -119100.728 7      2703.568 7        45.036               
G25  24692831.214 7    -47189.767 7      1076.945 7        44.566               
> 2020 02 06 15 06 54.1000000  0  9                                             
G01  21036888.918 8    -21388.257 8       471.237 8        52.529               
G03  23064072.196 8   -119219.719 8      2813.758 8        49.037               
G08  25669603.807 7    121110.052 7     -2750.474 7        45.118               
G10  24044835.715 8    124155.027 8     -2819.365 8        48.065               
G11  22014979.374 8     98600.443 8     -2247.840 8        51.995               
G14  21021634.812 9     61630.825 9     -1403.835 9        55.367               
G18  20680585.103 9     64650.939 9     -1481.995 9        54.906               
G23  25068042.077 7   -119370.230 7      2703.891 7        45.107               
G25  24692811.160 7    -47296.102 7      1069.314 7        44.465               
> 2020 02 06 15 06 54.2000000  0  9                                             
G01  21036880.734 8    -21435.004 8       470.910 8        52.764               
G03  23064019.053 8   -119500.642 8      2812.363 8        48.896               
G08  25669658.772 7    121384.926 7     -2747.435 7        45.048               
G10  24044889.751 8    124437.286 8     -2822.506 8        48.442               
G11  22015023.153 8     98825.613 8     -2248.880 8        51.897               
G14  21021661.616 9     61771.519 9     -1403.491 9        55.462               
G18  20680615.409 9     64799.325 9     -1480.775 9        54.924               
G23  25067991.310 7   -119640.465 7      2704.206 7        45.082               
G25  24692791.468 7    -47403.162 7      1077.047 7        44.363               
> 2020 02 06 15 06 54.3000000  0  9                                             
G01  21036873.384 8    -21481.118 8       470.029 8        52.929               
G03  23063966.209 8   -119780.949 8      2811.670 8        48.759               
G08  25669711.784 7    121660.406 7     -2748.828 7        45.000               
G10  24044944.514 8    124720.165 8     -2817.990 8        48.800               
G11  22015066.641 8     99051.411 8     -2248.564 8        51.806               
G14  21021689.933 9     61912.841 9     -1404.266 9        55.548               
G18  20680645.763 9     64948.340 9     -1479.931 9        54.937               
G23  25067941.218 7   -119910.064 7      2706.209 7        45.289               
G25  24692772.397 7    -47509.592 7      1076.603 7        44.272               
> 2020 02 06 15 06 54.4000000  0  9                                             
G01  21036863.919 8    -21528.474 8       470.097 8        52.962               
G03  23063912.572 8   -120062.499 8      2811.701 8        48.637               
G08  25669761.501 7    121934.646 7     -2746.292 7        44.825               
G10  24044997.733 8    125001.801 8     -2820.044 8        48.810               
G11  22015108.888 8     99275.966 8     -2247.514 8        51.815               
G14  21021716.223 9     62052.918 9     -1403.409 9        55.655               
G18  20680672.911 9     65096.117 9     -1481.093 9        55.045               
G23  25067889.117 7   -120180.917 7      2704.701 7        45.322               
G25  24692752.371 7    -47617.267 7      1070.971 7        44.179               
> 2020 02 06 15 06 54.5000000  0  9                                             
G01  21036854.674 8    -21576.044 8       469.919 8        53.008               
G03  23063857.904 8   -120344.266 8      2811.211 8        48.428               
G08  25669812.832 7    122208.655 7     -2747.901 7        44.779               
G10  24045051.226 8    125283.221 8     -2820.013 8        48.702               
G11  22015151.768 8     99500.309 8     -2248.853 8        51.986               
G14  21021742.252 9     62192.779 9     -1404.119 9        55.713               
G18  20680698.976 9     65243.682 9     -1481.215 9        55.127               
G23  25067836.487 7   -120451.981 7      2707.076 7        45.254               
G25  24692731.332 7    -47725.152 7      1076.141 7        44.353               
> 2020 02 06 15 06 54.6000000  0  9                                             
G01  21036845.880 8    -21623.708 8       469.403 8        53.146               
G03  23063804.151 8   -120626.134 8      2809.340 8        48.509               
G08  25669862.469 7    122482.564 7     -2746.462 7        44.669               
G10  24045103.454 8    125564.546 8     -2818.658 8        48.659               
G11  22015193.310 8     99724.553 8     -2249.324 8        52.158               
G14  21021767.551 9     62332.540 9     -1404.416 9        55.761               
G18  20680723.757 9     65391.151 9     -1481.007 9        55.313               
G23  25067784.074 7   -120723.149 7      2704.507 7        45.135               
G25  24692709.690 7    -47833.134 7      1074.413 7        44.545               
> 2020 02 06 15 06 54.7000000  0  9                                             
G01  21036837.854 8    -21670.692 8       470.004 8        53.291               
G03  23063749.933 8   -120907.330 8      2810.965 8        48.493               
G08  25669914.787 7    122757.157 7     -2747.935 7        44.626               
G10  24045158.095 8    125846.538 8     -2820.128 8        48.678               
G11  22015236.765 8     99949.475 8     -2248.602 8        52.154               
G14  21021795.192 9     62472.978 9     -1404.035 9        55.854               
G18  20680751.630 9     65539.303 9     -1481.613 9        55.541               
G23  25067730.732 7   -120993.636 7      2704.535 7        45.153               
G25  24692689.352 7    -47940.444 7      1076.055 7        44.617               
> 2020 02 06 15 06 54.8000000  0  9                                             
G01  21036828.126 8    -21718.283 8       469.553 8        53.409               
G03  23063696.301 8   -121189.137 8      2813.977 8        48.535               
G08  25669965.760 7    123031.123 7     -2747.261 7        44.623               
G10  24045210.623 8    126127.914 8     -2818.231 8        48.734               
G11  22015278.911 8    100173.789 8     -2249.171 8        52.003               
G14  21021821.149 9     62612.801 9     -1404.367 9        55.975               
G18  20680777.676 9     65686.842 9     -1482.117 9        55.709               
G23  25067679.816 7   -121264.752 7      2706.746 7        45.093               
G25  24692668.546 7    -48048.350 7      1073.618 7        44.808               
> 2020 02 06 15 06 54.9000000  0  9                                             
G01  21036817.749 8    -21765.649 8       469.795 8        53.465               
G03  23063642.450 8   -121470.724 8      2812.827 8        48.579               
G08  25670017.836 7    123305.312 7     -2745.838 7        44.480               
G10  24045264.915 8    126409.516 8     -2819.905 8        48.779               
G11  22015320.390 8    100398.324 8     -2252.214 8        51.792               
G14  21021847.475 9     62752.848 9     -1404.108 9        55.964               
G18  20680806.361 9     65834.606 9     -1481.841 9        55.686               
G23  25067629.127 7   -121535.638 7      2705.542 7        45.282               
G25  24692648.180 7    -48156.040 7      1073.014 7        45.085               
> 2020 02 06 15 06 55.0000000  0  9                                             
G01  21036808.559 8    -21812.005 8       470.612 8        53.529               
G03  23063589.462 8   -121751.307 8      2813.616 8        48.610               
G08  25670072.009 7    123580.501 7     -2745.898 7        44.363               
G10  24045317.658 8    126692.118 8     -2817.978 8        48.742               
G11  22015364.717 8    100623.869 8     -2248.474 8        51.549               
G14  21021874.344 9     62893.903 9     -1403.488 9        55.925               
G18  20680835.160 9     65983.385 9     -1481.381 9        55.706               
G23  25067577.533 7   -121805.513 7      2701.136 7        45.375               
G25  24692629.144 7    -48262.721 7      1074.126 7        45.214               
> 2020 02 06 15 06 55.1000000  0  9                                             
G01  21036800.539 8    -21857.867 8       469.782 8        53.510               
G03  23063536.769 8   -122031.400 8      2812.712 8        48.512               
G08  25670126.155 7    123856.182 7     -2746.415 7        44.384               
G10  24045372.537 8    126975.220 8     -2821.314 8        48.527               
G11  22015408.106 8    100849.908 8     -2248.868 8        51.265               
G14  21021902.955 9     63035.448 9     -1404.515 9        55.851               
G18  20680866.058 9     66132.655 9     -1482.330 9        55.526               
G23  25067528.897 7   -122074.912 7      2706.534 7        45.298               
G25  24692608.669 7    -48368.912 7      1073.562 7        45.290               
> 2020 02 06 15 06 55.2000000  0  9                                             
G01  21036790.529 8    -21905.341 8       469.236 8        53.453               
G03  23063482.587 8   -122313.120 8      2815.875 8        48.490               
G08  25670177.936 7    124130.234 7     -2746.707 7        44.303               
G10  24045426.427 8    127256.699 8     -2819.849 8        48.319               
G11  22015450.113 8    101074.332 8     -2248.440 8        51.133               
G14  21021929.148 9     63175.376 9     -1403.907 9        55.812               
G18  20680893.538 9     66280.311 9     -1480.890 9        55.337               
G23  25067477.520 7   -122345.921 7      2703.871 7        45.165               
G25  24692587.044 7    -48476.716 7      1075.882 7        45.486               
> 2020 02 06 15 06 55.3000000  0  9                                             
G01  21036780.743 8    -21953.069 8       468.959 8        53.371               
G03  23063428.469 8   -122595.091 8      2813.002 8        48.446               
G08  25670230.424 7    124404.024 7     -2746.162 7        44.161               
G10  24045480.541 8    127537.921 8     -2818.605 8        48.239               
G11  22015492.559 8    101298.503 8     -2249.627 8        51.025               
G14  21021954.976 9     63315.046 9     -1404.962 9        55.867               
G18  20680922.314 9     66427.715 9     -1482.415 9        55.218               
G23  25067425.921 7   -122617.194 7      2701.514 7        45.129               
G25  24692565.662 7    -48584.767 7      1076.013 7        45.610               
> 2020 02 06 15 06 55.4000000  0  9                                             
G01  21036771.707 8    -22000.267 8       469.841 8        53.248               
G03  23063375.314 8   -122876.543 8      2812.432 8        48.417               
G08  25670281.017 7    124678.339 7     -2744.674 7        44.053               
G10  24045533.581 8    127819.667 8     -2819.532 8        48.268               
G11  22015534.556 8    101523.199 8     -2250.141 8        50.931               
G14  21021980.820 9     63455.241 9     -1404.868 9        55.858               
G18  20680950.231 9     66575.646 9     -1481.719 9        55.133               
G23  25067373.553 7   -122887.935 7      2705.314 7        45.099               
G25  24692545.672 7    -48692.301 7      1072.043 7        45.635               
> 2020 02 06 15 06 55.5000000  0  9                                             
G01  21036763.734 8    -22046.630 8       469.983 8        53.342               
G03  23063323.186 8   -123157.164 8      2813.348 8        48.451               
G08  25670333.995 7    124953.461 7     -2744.482 7        44.016               
G10  24045587.078 8    128102.241 8     -2819.190 8        48.293               
G11  22015578.010 8    101748.727 8     -2248.731 8        50.962               
G14  21022008.299 9     63596.267 9     -1403.849 9        55.751               
G18  20680980.658 9     66724.414 9     -1481.880 9        55.104               
G23  25067321.872 7   -123157.858 7      2709.808 7        45.119               
G25  24692526.245 7    -48798.993 7      1073.678 7        45.669               
> 2020 02 06 15 06 55.6000000  0  9                                             
G01  21036754.549 8    -22093.730 8       469.861 8        53.534               
G03  23063269.275 8   -123438.525 8      2810.759 8        48.448               
G08  25670386.243 7    125227.858 7     -2746.653 7        44.037               
G10  24045640.863 8    128384.076 8     -2824.861 8        48.233               
G11  22015621.038 8    101973.517 8     -2248.908 8        50.933               
G14  21022034.995 9     63736.551 9     -1403.952 9        55.417               
G18  20681008.551 9     66872.443 9     -1481.891 9        55.175               
G23  25067269.533 7   -123428.519 7      2708.116 7        45.021               
G25  24692505.034 7    -48906.425 7      1071.832 7        45.769               
> 2020 02 06 15 06 55.7000000  0  9                                             
G01  21036746.330 8    -22139.911 8       469.484 8        53.656               
G03  23063216.580 8   -123718.981 8      2811.920 8        48.405               
G08  25670438.422 7    125503.171 7     -2745.221 7        44.137               
G10  24045695.239 8    128666.822 8     -2818.425 8        48.139               
G11  22015664.300 8    102199.223 8     -2247.908 8        50.892               
G14  21022063.122 9     63877.753 9     -1405.547 9        55.253               
G18  20681038.840 9     67021.393 9     -1481.894 9        55.239               
G23  25067218.839 7   -123698.262 7      2705.099 7        44.857               
G25  24692485.021 7    -49012.940 7      1071.931 7        45.841               
> 2020 02 06 15 06 55.8000000  0  9                                             
G01  21036737.961 8    -22186.913 8       470.141 8        53.691               
G03  23063162.735 8   -124000.257 8      2811.548 8        48.476               
G08  25670490.129 7    125777.651 7     -2744.910 7        44.157               
G10  24045748.965 8    128948.740 8     -2818.274 8        48.093               
G11  22015707.287 8    102424.109 8     -2249.545 8        50.998               
G14  21022089.490 9     64018.127 9     -1404.032 9        55.226               
G18  20681066.656 9     67169.519 9     -1481.596 9        55.332               
G23  25067166.924 7   -123968.832 7      2709.117 7        44.836               
G25  24692464.448 7    -49120.289 7      1072.568 7        45.923               
> 2020 02 06 15 06 55.9000000  0  9                                             
G01  21036730.357 8    -22233.479 8       468.648 8        53.796               
G03  23063109.761 8   -124281.103 8      2813.179 8        48.553               
G08  25670544.065 7    126052.553 7     -2744.460 7        44.141               
G10  24045802.902 7    129231.102 7     -2817.674 7        47.976               
G11  22015750.556 8    102649.432 8     -2250.164 8        51.082               
G14  21022116.158 9     64158.937 9     -1404.814 9        55.313               
G18  20681096.541 9     67318.086 9     -1481.399 9        55.397               
G23  25067116.452 7   -124238.978 7      2707.987 7        44.765               
G25  24692444.496 7    -49227.189 7      1071.178 7        46.014               
> 2020 02 06 15 06 56.0000000  0  9                                             
G01  21036722.527 8    -22280.153 8       468.660 8        53.972               
G03  23063056.222 8   -124562.067 8      2814.101 8        48.545               
G08  25670596.418 7    126327.346 7     -2745.725 7        44.136               
G10  24045857.167 7    129513.342 7     -2820.425 7        47.863               
G11  22015793.474 8    102874.640 8     -2248.709 8        51.072               
G14  21022143.852 9     64299.633 9     -1404.032 9        55.406               
G18  20681124.556 9     67466.545 9     -1481.725 9        55.473               
G23  25067065.718 7   -124509.236 7      2703.840 7        44.808               
G25  24692424.962 7    -49334.199 7      1073.764 7        46.085               
> 2020 02 06 15 06 56.1000000  0  9                                             
G01  21036714.352 9    -22326.542 9       469.331 9        54.040               
G03  23063003.357 8   -124842.744 8      2810.373 8        48.376               
G08  25670649.195 7    126602.402 7     -2743.960 7        44.013               
G10  24045910.748 7    129795.868 7     -2823.002 7        47.654               
G11  22015837.673 8    103100.139 8     -2251.599 8        51.122               
G14  21022171.148 9     64440.614 9     -1405.278 9        55.508               
G18  20681154.407 9     67615.290 9     -1482.003 9        55.421               
G23  25067015.248 7   -124779.208 7      2705.287 7        44.772               
G25  24692406.298 7    -49440.926 7      1075.340 7        46.147               
> 2020 02 06 15 06 56.2000000  0  9                                             
G01  21036705.224 9    -22373.181 9       469.337 9        54.051               
G03  23062949.502 8   -125123.684 8      2812.366 8        48.327               
G08  25670702.179 7    126877.224 7     -2753.300 7        43.879               
G10  24045965.000 7    130078.133 7     -2822.710 7        47.506               
G11  22015879.882 8    103325.377 8     -2249.279 8        51.102               
G14  21022198.347 9     64581.336 9     -1404.086 9        55.610               
G18  20681182.160 9     67763.780 9     -1482.059 9        55.442               
G23  25066963.323 7   -125049.441 7      2707.019 7        44.756               
G25  24692386.144 7    -49547.911 7      1071.969 7        46.283               
> 2020 02 06 15 06 56.3000000  0  9                                             
G01  21036694.926 9    -22420.387 9       469.884 9        54.115               
G03  23062896.086 8   -125405.191 8      2809.544 8        48.372               
G08  25670754.190 7    127151.442 7     -2745.329 7        43.649               
G10  24046017.762 7    130359.824 7     -2819.583 7        47.299               
G11  22015922.620 8    103550.051 8     -2250.725 8        51.137               
G14  21022223.947 9     64721.487 9     -1404.384 9        55.667               
G18  20681210.405 9     67911.703 9     -1482.869 9        55.502               
G23  25066911.854 7   -125320.241 7      2704.009 7        44.892               
G25  24692364.893 7    -49655.459 7      1073.469 7        46.329               
> 2020 02 06 15 06 56.4000000  0  9                                             
G01  21036684.886 9    -22467.549 9       469.677 9        54.140               
G03  23062841.750 8   -125686.666 8      2812.877 8        48.273               
G08  25670805.477 7    127425.709 7     -2744.260 7        43.572               
G10  24046071.354 7    130641.551 7     -2816.832 7        47.104               
G11  22015965.651 8    103774.761 8     -2248.026 8        51.161               
G14  21022250.915 9     64861.677 9     -1405.060 9        55.642               
G18  20681237.033 9     68059.669 9     -1483.027 9        55.509               
G23  25066859.287 7   -125591.015 7      2704.011 7        45.023               
G25  24692343.667 7    -49762.972 7      1070.439 7        46.320               
> 2020 02 06 15 06 56.5000000  0  9                                             
G01  21036675.454 9    -22514.272 9       468.176 9        54.167               
G03  23062789.021 8   -125967.706 8      2812.201 8        48.172               
G08  25670858.694 7    127700.406 7     -2746.583 7        43.469               
G10  24046124.857 7    130923.717 7     -2822.807 7        47.038               
G11  22016007.914 8    103999.913 8     -2250.962 8        51.057               
G14  21022277.900 9     65002.305 9     -1404.677 9        55.520               
G18  20681266.216 9     68208.075 9     -1481.935 9        55.525               
G23  25066808.238 7   -125861.351 7      2709.570 7        45.199               
G25  24692323.496 7    -49870.039 7      1074.908 7        46.405               
> 2020 02 06 15 06 56.6000000  0  9                                             
G01  21036666.331 9    -22561.451 9       468.638 9        54.410               
G03  23062735.010 8   -126249.204 8      2811.592 8        48.074               
G08  25670909.968 7    127974.647 7     -2743.565 7        43.366               
G10  24046178.489 7    131205.422 7     -2815.676 7        46.922               
G11  22016050.718 8    104224.609 8     -2249.786 8        51.008               
G14  21022304.425 9     65142.474 9     -1403.789 9        55.412               
G18  20681293.492 9     68356.029 9     -1482.320 9        55.529               
G23  25066756.068 7   -126132.137 7      2706.239 7        45.210               
G25  24692303.347 7    -49977.565 7      1071.293 7        46.610               
> 2020 02 06 15 06 56.7000000  0  9                                             
G01  21036658.081 9    -22607.995 9       468.904 9        54.670               
G03  23062681.570 7   -126530.076 7      2809.324 7        47.955               
G08  25670963.563 7    128249.504 7     -2743.006 7        43.207               
G10  24046232.370 7    131487.754 7     -2816.997 7        46.727               
G11  22016094.253 8    104449.939 8     -2250.803 8        51.035               
G14  21022330.966 9     65283.273 9     -1404.964 9        55.392               
G18  20681322.856 9     68504.616 9     -1482.568 9        55.545               
G23  25066705.201 7   -126402.303 7      2703.362 7        45.166               
G25  24692283.626 7    -50084.458 7      1072.799 7        46.839               
> 2020 02 06 15 06 56.8000000  0  9                                             
G01  21036649.492 9    -22655.114 9       469.809 9        54.816               
G03  23062628.094 7   -126811.533 7      2813.693 7        47.799               
G08  25671014.424 7    128523.777 7     -2744.713 7        43.094               
G10  24046285.680 7    131769.516 7     -2816.881 7        46.633               
G11  22016136.322 8    104674.689 8     -2249.724 8        51.068               
G14  21022357.561 9     65423.492 9     -1404.993 9        55.404               
G18  20681349.684 9     68652.626 9     -1483.631 9        55.475               
G23  25066653.583 7   -126673.048 7      2705.808 7        45.053               
G25  24692262.671 7    -50191.926 7      1071.331 7        46.912               
> 2020 02 06 15 06 56.9000000  0  9                                             
G01  21036641.389 9    -22701.579 9       469.189 9        54.863               
G03  23062574.818 7   -127092.333 7      2813.471 7        47.749               
G08  25671067.952 7    128798.708 7     -2741.818 7        42.878               
G10  24046339.833 7    132051.922 7     -2821.196 7        46.681               
G11  22016180.219 8    104900.090 8     -2251.656 8        51.027               
G14  21022385.107 9     65564.360 9     -1404.197 9        55.327               
G18  20681379.249 9     68801.289 9     -1482.023 9        55.577               
G23  25066602.737 7   -126943.147 7      2704.134 7        45.064               
G25  24692242.025 7    -50298.750 7      1073.740 7        46.876               
> 2020 02 06 15 06 57.0000000  0  9                                             
G01  21036632.228 9    -22748.713 9       468.488 9        54.870               
G03  23062521.414 7   -127373.818 7      2808.797 7        47.710               
G08  25671118.920 7    129072.937 7     -2739.522 7        42.700               
G10  24046393.267 7    132333.657 7     -2822.031 7        46.810               
G11  22016222.199 8    105124.821 8     -2251.735 8        50.981               
G14  21022411.524 9     65704.556 9     -1405.528 9        55.259               
G18  20681406.898 9     68949.282 9     -1482.942 9        55.636               
G23  25066551.209 7   -127213.914 7      2702.723 7        45.067               
G25  24692221.481 7    -50406.236 7      1068.904 7        46.870               
> 2020 02 06 15 06 57.1000000  0  9                                             
G01  21036623.940 9    -22795.129 9       468.358 9        54.834               
G03  23062468.041 7   -127654.591 7      2816.274 7        47.622               
G08  25671171.725 7    129347.911 7     -2746.229 7        42.569               
G10  24046447.466 7    132616.100 7     -2822.526 7        46.957               
G11  22016265.570 8    105350.271 8     -2251.142 8        50.858               
G14  21022438.526 9     65845.466 9     -1404.359 9        55.300               
G18  20681436.510 9     69097.998 9     -1482.276 9        55.507               
G23  25066500.517 7   -127483.975 7      2707.113 7        45.074               
G25  24692201.863 7    -50513.008 7      1072.424 7        47.021               
> 2020 02 06 15 06 57.2000000  0  9                                             
G01  21036614.984 9    -22842.529 9       467.607 9        54.676               
G03  23062414.146 7   -127936.342 7      2808.532 7        47.562               
G08  25671222.256 7    129621.857 7     -2744.760 7        42.505               
G10  24046500.606 7    132897.559 7     -2819.055 7        47.069               
G11  22016308.291 8    105574.736 8     -2250.793 8        50.611               
G14  21022464.237 9     65985.390 9     -1405.054 9        55.411               
G18  20681463.668 9     69245.732 9     -1483.608 9        55.345               
G23  25066447.318 7   -127755.026 7      2705.155 7        45.084               
G25  24692181.400 7    -50620.765 7      1071.915 7        47.091               
> 2020 02 06 15 06 57.3000000  0  9                                             
G01  21036607.372 9    -22888.799 9       468.008 9        54.565               
G03  23062361.253 7   -128216.976 7      2812.792 7        47.469               
G08  25671276.113 7    129896.962 7     -2747.691 7        42.480               
G10  24046555.142 7    133180.138 7     -2819.981 7        47.114               
G11  22016350.855 8    105800.328 8     -2251.136 8        50.341               
G14  21022492.237 9     66126.439 9     -1404.721 9        55.379               
G18  20681493.044 9     69394.591 9     -1482.094 9        55.200               
G23  25066395.909 7   -128024.944 7      2703.833 7        44.948               
G25  24692161.959 7    -50727.388 7      1068.929 7        47.054               
> 2020 02 06 15 06 57.4000000  0  9                                             
G01  21036597.911 9    -22936.249 9       467.908 9        54.559               
G03  23062307.316 7   -128498.794 7      2812.699 7        47.510               
G08  25671327.514 7    130170.843 7     -2742.902 7        42.405               
G10  24046607.972 7    133461.539 7     -2819.051 7        47.019               
G11  22016393.429 8    106024.737 8     -2251.674 8        50.221               
G14  21022518.139 9     66266.306 9     -1405.319 9        55.432               
G18  20681519.357 9     69542.273 9     -1482.677 9        55.067               
G23  25066345.171 7   -128296.059 7      2706.011 7        44.820               
G25  24692139.865 7    -50835.202 7      1074.432 7        47.099               
> 2020 02 06 15 06 57.5000000  0  9                                             
G01  21036588.608 9    -22982.961 9       467.656 9        54.601               
G03  23062253.413 7   -128779.883 7      2810.423 7        47.560               
G08  25671380.825 7    130445.483 7     -2747.297 7        42.435               
G10  24046661.730 7    133743.665 7     -2819.662 7        47.023               
G11  22016436.358 8    106249.882 8     -2250.475 8        50.133               
G14  21022545.093 9     66406.903 9     -1404.602 9        55.461               
G18  20681546.918 9     69690.691 9     -1483.208 9        55.087               
G23  25066293.965 7   -128566.437 7      2709.826 7        44.733               
G25  24692119.179 7    -50942.274 7      1069.774 7        47.056               
> 2020 02 06 15 06 57.6000000  0  9                                             
G01  21036577.297 9    -23030.855 9       468.193 9        54.591               
G03  23062199.109 7   -129062.158 7      2812.825 7        47.640               
G08  25671430.429 7    130718.907 7     -2745.621 7        42.414               
G10  24046714.122 7    134024.611 7     -2818.961 7        46.890               
G11  22016477.582 8    106473.846 8     -2251.613 8        50.244               
G14  21022569.842 9     66546.319 9     -1405.536 9        55.391               
G18  20681572.292 9     69837.931 9     -1483.933 9        54.983               
G23  25066241.466 7   -128837.995 7      2702.916 7        44.736               
G25  24692097.522 7    -51050.530 7      1074.097 7        47.248               
> 2020 02 06 15 06 57.7000000  0  9                                             
G01  21036567.757 9    -23077.529 9       467.938 9        54.645               
G03  23062145.396 7   -129343.215 7      2811.458 7        47.724               
G08  25671483.323 7    130993.568 7     -2745.848 7        42.464               
G10  24046768.017 7    134306.766 7     -2821.059 7        46.979               
G11  22016521.041 8    106699.023 8     -2248.805 8        50.375               
G14  21022597.398 9     66686.947 9     -1403.594 9        55.262               
G18  20681600.581 9     69986.387 9     -1483.548 9        54.861               
G23  25066189.219 7   -129108.345 7      2706.596 7        44.698               
G25  24692077.511 7    -51157.569 7      1070.737 7        47.528               
> 2020 02 06 15 06 57.8000000  0  9                                             
G01  21036557.928 9    -23124.603 9       467.920 9        54.772               
G03  23062091.717 7   -129624.684 7      2812.482 7        47.983               
G08  25671533.570 7    131267.804 7     -2747.779 7        42.413               
G10  24046821.247 7    134588.524 7     -2819.859 7        46.939               
G11  22016563.282 8    106923.802 8     -2250.175 8        50.412               
G14  21022623.771 9     66827.174 9     -1405.711 9        55.103               
G18  20681627.759 9     70134.444 9     -1483.321 9        54.859               
G23  25066137.791 7   -129379.106 7      2707.424 7        44.738               
G25  24692057.568 7    -51265.002 7      1067.595 7        47.562               
> 2020 02 06 15 06 57.9000000  0  9                                             
G01  21036549.791 9    -23171.017 9       468.383 9        54.763               
G03  23062038.299 8   -129905.495 8      2812.057 8        48.180               
G08  25671589.118 7    131542.694 7     -2746.969 7        42.460               
G10  24046875.330 7    134870.933 7     -2818.385 7        46.892               
G11  22016606.643 8    107149.241 8     -2249.766 8        50.477               
G14  21022651.175 9     66968.055 9     -1405.131 9        55.059               
G18  20681656.521 9     70283.160 9     -1483.920 9        54.911               
G23  25066086.553 7   -129649.199 7      2705.845 7        44.696               
G25  24692037.333 7    -51371.791 7      1073.081 7        47.309               
> 2020 02 06 15 06 58.0000000  0  9                                             
G01  21036541.026 9    -23218.112 9       468.005 9        54.774               
G03  23061984.576 8   -130186.992 8      2809.704 8        48.438               
G08  25671639.231 7    131816.894 7     -2747.798 7        42.490               
G10  24046928.659 7    135152.655 7     -2818.074 7        46.901               
G11  22016649.359 8    107373.993 8     -2251.896 8        50.502               
G14  21022676.844 9     67108.250 9     -1404.579 9        55.163               
G18  20681684.441 9     70431.189 9     -1483.069 9        54.930               
G23  25066034.509 7   -129919.991 7      2706.145 7        44.704               
G25  24692015.524 7    -51479.254 7      1070.071 7        46.965               
> 2020 02 06 15 06 58.1000000  0  9                                             
G01  21036532.804 9    -23264.748 9       469.021 9        54.875               
G03  23061931.431 8   -130468.044 8      2813.138 8        48.479               
G08  25671692.568 7    132091.551 7     -2740.795 7        42.466               
G10  24046982.568 7    135434.833 7     -2820.606 7        46.969               
G11  22016691.778 8    107599.205 8     -2252.408 8        50.498               
G14  21022704.038 9     67248.902 9     -1405.320 9        55.324               
G18  20681712.868 9     70579.680 9     -1483.323 9        55.005               
G23  25065984.402 7   -130190.325 7      2703.597 7        44.763               
G25  24691995.401 7    -51586.254 7      1067.861 7        46.535               
> 2020 02 06 15 06 58.2000000  0  9                                             
G01  21036524.259 9    -23311.333 9       468.020 9        54.806               
G03  23061877.838 8   -130749.042 8      2813.164 8        48.453               
G08  25671745.046 7    132366.239 7     -2748.878 7        42.403               
G10  24047036.708 7    135717.053 7     -2815.336 7        47.058               
G11  22016735.178 8    107824.465 8     -2250.489 8        50.491               
G14  21022731.321 9     67389.600 9     -1404.474 9        55.582               
G18  20681741.705 9     70728.222 9     -1484.182 9        55.082               
G23  25065932.847 7   -130460.617 7      2707.229 7        44.710               
G25  24691975.616 7    -51693.215 7      1073.107 7        46.207               
> 2020 02 06 15 06 58.3000000  0  9                                             
G01  21036514.827 9    -23358.473 9       468.810 9        54.713               
G03  23061824.359 8   -131030.603 8      2810.148 8        48.743               
G08  25671796.226 7    132640.376 7     -2744.085 7        42.380               
G10  24047089.907 7    135998.717 7     -2820.334 7        47.006               
G11  22016777.709 8    108049.167 8     -2249.221 8        50.475               
G14  21022757.645 9     67529.739 9     -1405.519 9        55.635               
G18  20681769.405 9     70876.206 9     -1483.837 9        55.353               
G23  25065879.654 7   -130731.469 7      2707.636 7        44.690               
G25  24691955.410 7    -51800.731 7      1069.864 7        46.004               
> 2020 02 06 15 06 58.4000000  0  9                                             
G01  21036506.076 9    -23405.336 9       468.397 9        54.634               
G03  23061770.364 8   -131311.898 8      2811.612 8        48.794               
G08  25671848.801 7    132914.780 7     -2747.435 7        42.434               
G10  24047143.626 7    136280.651 7     -2817.354 7        47.007               
G11  22016820.350 8    108274.148 8     -2249.875 8        50.370               
G14  21022783.971 9     67670.152 9     -1405.800 9        55.874               
G18  20681796.786 9     71024.469 9     -1484.002 9        55.509               
G23  25065828.392 7   -131002.036 7      2707.424 7        44.601               
G25  24691935.526 7    -51907.966 7      1071.231 7        45.957               
> 2020 02 06 15 06 58.5000000  0  9                                             
G01  21036497.332 9    -23452.604 9       467.679 9        54.572               
G03  23061716.430 8   -131593.601 8      2812.720 8        48.738               
G08  25671900.491 7    133188.760 7     -2745.872 7        42.538               
G10  24047196.459 7    136562.179 7     -2819.777 7        47.050               
G11  22016862.747 8    108498.717 8     -2250.761 8        50.355               
G14  21022809.804 9     67810.153 9     -1404.054 9        56.163               
G18  20681822.672 9     71172.329 9     -1484.010 9        55.566               
G23  25065777.031 7   -131273.039 7      2707.312 7        44.533               
G25  24691913.792 7    -52015.613 7      1072.659 7        45.992               
> 2020 02 06 15 06 58.6000000  0  9                                             
G01  21036489.286 9    -23499.208 9       467.961 9        54.550               
G03  23061662.638 8   -131874.647 8      2812.213 8        48.781               
G08  25671952.573 7    133463.403 7     -2741.747 7        42.683               
G10  24047250.561 7    136844.359 7     -2818.663 7        47.094               
G11  22016905.502 8    108723.953 8     -2252.489 8        50.375               
G14  21022837.299 9     67950.817 9     -1405.895 9        56.221               
G18  20681849.917 9     71320.851 9     -1483.845 9        55.650               
G23  25065725.205 7   -131543.358 7      2700.467 7        44.429               
G25  24691893.237 7    -52122.595 7      1067.700 7        45.977               
> 2020 02 06 15 06 58.7000000  0  9                                             
G01  21036479.615 9    -23546.670 9       466.413 9        54.496               
G03  23061608.849 8   -132156.554 8      2809.303 8        48.830               
G08  25672003.711 7    133737.191 7     -2749.363 7        42.806               
G10  24047303.039 7    137125.685 7     -2823.200 7        47.233               
G11  22016947.437 8    108948.327 8     -2251.786 8        50.382               
G14  21022863.062 9     68090.618 9     -1405.683 9        56.148               
G18  20681875.484 9     71468.519 9     -1482.634 9        55.672               
G23  25065673.185 7   -131814.558 7      2707.012 7        44.351               
G25  24691871.969 7    -52230.433 7      1068.405 7        45.877               
> 2020 02 06 15 06 58.8000000  0  9                                             
G01  21036470.377 9    -23593.123 9       467.367 9        54.483               
G03  23061555.207 8   -132437.461 8      2812.889 8        48.921               
G08  25672057.033 7    134011.961 7     -2747.224 7        42.823               
G10  24047357.379 7    137408.004 7     -2820.643 7        47.373               
G11  22016991.038 8    109173.707 8     -2251.769 8        50.441               
G14  21022890.170 9     68231.425 9     -1404.857 9        56.100               
G18  20681905.343 9     71617.202 9     -1483.167 9        55.739               
G23  25065623.117 7   -132084.750 7      2705.308 7        44.354               
G25  24691851.849 7    -52337.271 7      1074.325 7        45.962               
> 2020 02 06 15 06 58.9000000  0  9                                             
G01  21036460.646 9    -23639.564 9       467.026 9        54.504               
G03  23061502.643 8   -132718.359 8      2812.224 8        48.942               
G08  25672109.199 7    134286.744 7     -2746.355 7        42.749               
G10  24047410.939 7    137690.342 7     -2821.032 7        47.491               
G11  22017033.484 8    109399.102 8     -2251.658 8        50.601               
G14  21022916.605 9     68372.241 9     -1405.431 9        56.105               
G18  20681935.924 9     71765.893 9     -1484.445 9        55.766               
G23  25065571.357 7   -132354.933 7      2705.551 7        44.438               
G25  24691832.397 7    -52444.092 7      1071.825 7        46.127               
> 2020 02 06 15 06 59.0000000  0  9                                             
G01  21036452.264 9    -23685.257 9       466.851 9        54.490               
G03  23061449.928 8   -132998.513 8      2811.876 8        48.890               
G08  25672163.716 7    134562.276 7     -2741.950 7        42.669               
G10  24047466.135 7    137973.417 7     -2820.242 7        47.674               
G11  22017077.941 8    109625.241 8     -2250.876 8        50.789               
G14  21022945.212 9     68513.801 9     -1405.613 9        56.074               
G18  20681968.623 9     71915.327 9     -1483.742 9        55.751               
G23  25065520.589 7   -132624.369 7      2705.996 7        44.594               
G25  24691813.150 7    -52550.165 7      1071.928 7        46.299               
> 2020 02 06 15 06 59.1000000  0  9                                             
G01  21036443.268 9    -23731.545 9       466.717 9        54.531               
G03  23061397.296 8   -133279.271 8      2811.416 8        48.951               
G08  25672215.653 7    134837.181 7     -2741.936 7        42.675               
G10  24047519.913 7    138255.897 7     -2818.733 7        47.783               
G11  22017121.515 8    109850.781 8     -2250.880 8        51.203               
G14  21022972.454 9     68654.760 9     -1406.152 9        55.836               
G18  20681999.350 9     72064.164 9     -1485.207 9        55.865               
G23  25065469.583 7   -132894.415 7      2705.614 7        44.757               
G25  24691792.557 7    -52656.840 7      1070.943 7        46.510               
> 2020 02 06 15 06 59.2000000  0  9                                             
G01  21036435.302 9    -23777.667 9       467.553 9        54.435               
G03  23061344.247 8   -133559.869 8      2814.046 8        49.027               
G08  25672268.496 7    135112.256 7     -2746.083 7        42.735               
G10  24047574.400 7    138538.533 7     -2819.783 7        47.646               
G11  22017164.477 8    110076.485 8     -2250.680 8        51.546               
G14  21023000.049 9     68795.881 9     -1405.088 9        55.633               
G18  20682029.214 9     72213.165 9     -1484.637 9        55.936               
G23  25065418.911 7   -133164.298 7      2704.815 7        44.905               
G25  24691772.566 7    -52763.351 7      1070.932 7        46.616               
> 2020 02 06 15 06 59.3000000  0  9                                             
G01  21036426.070 9    -23825.006 9       467.642 9        54.408               
G03  23061290.039 8   -133841.689 8      2809.596 8        49.030               
G08  25672319.322 7    135386.116 7     -2742.367 7        42.921               
G10  24047627.192 7    138819.944 7     -2823.352 7        47.526               
G11  22017207.012 8    110300.971 8     -2251.418 8        51.803               
G14  21023025.429 9     68935.781 9     -1404.903 9        55.473               
G18  20682055.201 9     72360.948 9     -1484.948 9        55.932               
G23  25065366.222 7   -133435.400 7      2707.282 7        45.032               
G25  24691751.362 7    -52871.075 7      1070.755 7        46.642               
> 2020 02 06 15 06 59.4000000  0  9                                             
G01  21036417.130 9    -23872.184 9       467.376 9        54.292               
G03  23061235.997 8   -134123.359 8      2812.264 8        48.936               
G08  25672370.279 7    135660.116 7     -2744.276 7        43.169               
G10  24047680.489 7    139101.513 7     -2821.584 7        47.448               
G11  22017248.980 8    110525.618 8     -2251.528 8        51.991               
G14  21023052.012 9     69075.839 9     -1406.284 9        55.396               
G18  20682080.784 9     72508.893 9     -1484.906 9        55.940               
G23  25065314.735 7   -133706.352 7      2705.355 7        45.149               
G25  24691731.128 7    -52978.647 7      1073.459 7        46.643               
> 2020 02 06 15 06 59.5000000  0  9                                             
G01  21036407.618 9    -23919.609 9       467.262 9        54.101               
G03  23061181.473 8   -134405.275 8      2813.494 8        48.836               
G08  25672423.219 7    135933.858 7     -2743.691 7        43.195               
G10  24047733.144 7    139382.830 7     -2820.259 7        47.303               
G11  22017290.878 8    110750.015 8     -2250.884 8        52.191               
G14  21023078.096 9     69215.645 9     -1405.314 9        55.415               
G18  20682104.580 9     72656.598 9     -1484.034 9        55.877               
G23  25065263.232 7   -133977.554 7      2705.107 7        45.117               
G25  24691710.663 7    -53086.462 7      1072.045 7        46.608               
> 2020 02 06 15 06 59.6000000  0  9                                             
G01  21036398.383 9    -23966.560 9       466.415 9        54.017               
G03  23061127.797 8   -134686.723 8      2809.905 8        48.842               
G08  25672474.309 7    136208.071 7     -2741.771 7        43.176               
G10  24047786.610 7    139664.623 7     -2817.562 7        47.200               
G11  22017333.855 8    110974.885 8     -2250.766 8        52.381               
G14  21023104.544 9     69355.924 9     -1405.515 9        55.442               
G18  20682132.583 9     72804.783 9     -1484.665 9        55.827               
G23  25065210.288 7   -134248.285 7      2707.745 7        45.161               
G25  24691689.812 7    -53193.798 7      1068.969 7        46.488               
> 2020 02 06 15 06 59.7000000  0  9                                             
G01  21036390.455 9    -24012.680 9       466.788 9        54.228               
G03  23061074.714 8   -134967.348 8      2813.046 8        48.930               
G08  25672527.101 7    136483.117 7     -2740.990 7        43.122               
G10  24047840.563 7    139947.244 7     -2820.482 7        47.127               
G11  22017376.943 8    111200.588 8     -2250.508 8        52.430               
G14  21023131.551 9     69497.031 9     -1405.325 9        55.543               
G18  20682161.913 9     72953.794 9     -1484.274 9        55.851               
G23  25065159.225 7   -134518.185 7      2703.770 7        45.221               
G25  24691669.537 7    -53300.311 7      1072.152 7        46.204               
> 2020 02 06 15 06 59.8000000  0  9                                             
G01  21036382.926 9    -24058.786 9       466.192 9        54.610               
G03  23061022.137 8   -135247.962 8      2810.843 8        49.108               
G08  25672579.415 7    136758.167 7     -2744.549 7        43.117               
G10  24047895.254 7    140229.872 7     -2820.383 7        47.250               
G11  22017420.591 8    111426.299 8     -2250.234 8        52.435               
G14  21023158.776 9     69638.145 9     -1405.365 9        55.652               
G18  20682194.106 9     73102.815 9     -1484.811 9        55.957               
G23  25065108.702 7   -134788.082 7      2703.329 7        45.162               
G25  24691649.285 7    -53406.817 7      1072.862 7        46.014               
> 2020 02 06 15 06 59.9000000  0  9                                             
G01  21036375.529 9    -24104.761 9       466.705 9        54.897               
G03  23060969.121 8   -135528.455 8      2814.539 8        49.132               
G08  25672632.505 7    137033.332 7     -2744.761 7        43.329               
G10  24047949.881 7    140512.619 7     -2822.513 7        47.283               
G11  22017464.371 8    111652.140 8     -2251.892 8        52.455               
G14  21023186.796 9     69779.388 9     -1405.351 9        55.682               
G18  20682224.378 9     73251.963 9     -1484.530 9        56.059               
G23  25065058.849 7   -135057.861 7      2704.783 7        45.258               
G25  24691629.363 7    -53513.183 7      1067.735 7        45.892               
> 2020 02 06 15 07 00.0000000  0  9                                             
G01  21036366.627 9    -24151.566 9       466.392 9        55.047               
G03  23060915.636 8   -135809.783 8      2808.868 8        49.020               
G08  25672685.912 7    137307.648 7     -2739.755 7        43.368               
G10  24048003.449 7    140794.529 7     -2820.623 7        47.436               
G11  22017506.664 8    111877.148 8     -2252.568 8        52.441               
G14  21023213.329 9     69919.793 9     -1405.934 9        55.559               
G18  20682252.179 9     73400.280 9     -1485.204 9        56.217               
G23  25065006.561 7   -135328.469 7      2703.192 7        45.420               
G25  24691609.543 7    -53620.387 7      1069.944 7        45.830               
> 2020 02 06 15 07 00.1000000  0  9                                             
G01  21036355.019 9    -24199.898 9       465.988 9        55.228               
G03  23060859.784 8   -136092.643 8      2810.143 8        48.849               
G08  25672735.738 7    137580.449 7     -2744.083 7        43.399               
G10  24048056.187 7    141074.919 7     -2820.247 7        47.443               
G11  22017548.217 8    112100.630 8     -2250.386 8        52.491               
G14  21023238.120 9     70058.669 9     -1405.957 9        55.279               
G18  20682275.094 9     73547.074 9     -1484.069 9        56.308               
G23  25064951.710 7   -135600.614 7      2703.252 7        45.468               
G25  24691587.410 7    -53729.118 7      1069.931 7        45.833               
> 2020 02 06 15 07 00.2000000  0  9                                             
G01  21036343.894 9    -24247.416 9       465.705 9        55.417               
G03  23060805.952 8   -136374.694 8      2811.203 8        48.753               
G08  25672787.154 7    137854.042 7     -2744.378 7        43.293               
G10  24048108.461 7    141356.107 7     -2825.245 7        47.363               
G11  22017590.073 8    112324.918 8     -2252.042 8        52.647               
G14  21023263.090 9     70198.357 9     -1405.026 9        54.995               
G18  20682301.582 9     73694.685 9     -1485.298 9        56.335               
G23  25064900.147 7   -135871.935 7      2702.894 7        45.454               
G25  24691565.366 7    -53837.042 7      1072.246 7        45.879               
> 2020 02 06 15 07 00.3000000  0  9                                             
G01  21036335.200 9    -24293.209 9       466.218 9        55.589               
G03  23060753.015 8   -136655.025 8      2811.346 8        48.675               
G08  25672838.608 7    138129.366 7     -2748.224 7        43.221               
G10  24048162.917 7    141639.025 7     -2819.864 7        47.562               
G11  22017633.753 8    112550.938 8     -2252.234 8        52.819               
G14  21023291.511 9     70339.766 9     -1405.503 9        54.776               
G18  20682331.808 9     73844.024 9     -1484.114 9        56.334               
G23  25064848.175 7   -136141.557 7      2705.448 7        45.418               
G25  24691545.576 7    -53943.231 7      1071.227 7        45.829               
> 2020 02 06 15 07 00.4000000  0  9                                             
G01  21036327.224 9    -24338.811 9       466.439 9        55.732               
G03  23060701.170 8   -136935.173 8      2811.466 8        48.508               
G08  25672893.405 7    138404.858 7     -2750.279 7        43.170               
G10  24048217.231 7    141922.118 7     -2820.674 7        47.750               
G11  22017678.151 8    112777.140 8     -2251.930 8        52.848               
G14  21023319.379 9     70481.361 9     -1407.936 9        54.502               
G18  20682365.144 9     73993.547 9     -1485.536 9        56.423               
G23  25064798.438 7   -136410.986 7      2707.537 7        45.384               
G25  24691527.039 7    -54049.240 7      1070.049 7        45.867               
> 2020 02 06 15 07 00.5000000  0  9                                             
G01  21036319.122 9    -24385.141 9       466.662 9        55.736               
G03  23060647.592 8   -137216.055 8      2812.117 8        48.467               
G08  25672946.041 7    138679.620 7     -2744.219 7        43.098               
G10  24048271.636 7    142204.486 7     -2819.161 7        47.752               
G11  22017720.690 8    113002.617 8     -2250.186 8        52.617               
G14  21023346.676 9     70622.223 9     -1405.012 9        54.211               
G18  20682393.585 9     74142.341 9     -1485.294 9        56.566               
G23  25064748.005 7   -136681.145 7      2707.997 7        45.447               
G25  24691507.412 7    -54155.975 7      1068.145 7        45.985               
> 2020 02 06 15 07 00.6000000  0  9                                             
G01  21036309.966 9    -24432.167 9       466.199 9        55.679               
G03  23060594.299 8   -137497.636 8      2813.353 8        48.425               
G08  25672998.640 7    138953.680 7     -2748.043 7        43.108               
G10  24048323.860 7    142486.156 7     -2818.117 7        47.628               
G11  22017763.390 8    113227.394 8     -2253.065 8        52.364               
G14  21023372.275 9     70762.388 9     -1406.036 9        54.011               
G18  20682420.381 9     74290.441 9     -1486.114 9        56.596               
G23  25064696.339 7   -136951.995 7      2701.828 7        45.453               
G25  24691487.266 7    -54263.405 7      1068.740 7        46.090               
> 2020 02 06 15 07 00.7000000  0  9                                             
G01  21036300.598 9    -24479.361 9       465.790 9        55.645               
G03  23060539.722 8   -137779.394 8      2809.556 8        48.382               
G08  25673050.634 7    139227.561 7     -2748.631 7        43.079               
G10  24048377.248 7    142767.642 7     -2823.534 7        47.458               
G11  22017806.485 8    113452.003 8     -2253.008 8        52.061               
G14  21023398.967 8     70902.378 8     -1406.622 8        53.918               
G18  20682446.036 9     74438.371 9     -1485.470 9        56.500               
G23  25064644.871 7   -137223.049 7      2704.303 7        45.375               
G25  24691466.551 7    -54371.007 7      1069.127 7        46.240               
> 2020 02 06 15 07 00.8000000  0  9                                             
G01  21036293.009 9    -24525.073 9       464.847 9        55.616               
G03  23060487.318 8   -138059.681 8      2811.843 8        48.096               
G08  25673104.497 7    139502.908 7     -2746.134 7        43.175               
G10  24048431.486 7    143050.609 7     -2818.979 7        47.367               
G11  22017849.377 8    113678.088 8     -2252.045 8        51.721               
G14  21023426.955 8     71043.843 8     -1405.027 8        53.974               
G18  20682476.223 9     74587.785 9     -1485.803 9        56.245               
G23  25064595.040 7   -137492.609 7      2705.441 7        45.302               
G25  24691446.240 7    -54477.129 7      1064.929 7        46.331               
> 2020 02 06 15 07 00.9000000  0  9                                             
G01  21036284.796 9    -24571.573 9       466.349 9        55.504               
G03  23060433.699 8   -138340.756 8      2811.257 8        48.037               
G08  25673156.144 7    139777.474 7     -2748.797 7        43.036               
G10  24048485.671 7    143332.792 7     -2821.778 7        47.387               
G11  22017892.250 8    113903.383 8     -2253.148 8        51.403               
G14  21023454.087 9     71184.520 9     -1404.972 9        54.068               
G18  20682504.623 9     74736.412 9     -1487.549 9        55.961               
G23  25064543.833 7   -137762.960 7      2701.356 7        45.235               
G25  24691425.572 7    -54584.040 7      1066.238 7        46.305               
> 2020 02 06 15 07 01.0000000  0  9                                             
G01  21036276.400 9    -24618.023 9       466.760 9        55.189               
G03  23060380.363 8   -138621.792 8      2812.635 8        48.039               
G08  25673207.752 7    140052.068 7     -2743.324 7        43.059               
G10  24048539.602 7    143615.007 7     -2819.460 7        47.301               
G11  22017935.425 8    114128.731 8     -2252.016 8        51.184               
G14  21023480.428 9     71325.242 9     -1405.448 9        54.242               
G18  20682534.306 9     74885.080 9     -1484.801 9        55.640               
G23  25064491.426 7   -138033.268 7      2703.753 7        45.276               
G25  24691405.347 7    -54690.907 7      1068.232 7        46.288               
> 2020 02 06 15 07 01.1000000  0  9                                             
G01  21036267.432 9    -24665.260 9       464.971 9        54.794               
G03  23060326.401 7   -138903.612 7      2810.563 7        47.900               
G08  25673258.860 7    140325.873 7     -2746.824 7        43.071               
G10  24048592.622 7    143896.444 7     -2825.002 7        47.039               
G11  22017976.955 8    114353.288 8     -2253.526 8        51.008               
G14  21023506.198 9     71465.174 9     -1406.253 9        54.338               
G18  20682559.933 9     75032.966 9     -1484.468 9        55.334               
G23  25064438.983 7   -138304.375 7      2705.036 7        45.120               
G25  24691384.299 7    -54798.562 7      1071.390 7        46.448               
> 2020 02 06 15 07 01.2000000  0  9                                             
G01  21036259.879 9    -24711.192 9       465.668 9        54.503               
G03  23060272.960 8   -139184.134 8      2811.150 8        48.025               
G08  25673310.490 7    140600.967 7     -2741.003 7        43.126               
G10  24048647.039 7    144179.179 7     -2820.460 7        46.862               
G11  22018020.793 8    114579.152 8     -2254.037 8        51.037               
G14  21023534.294 9     71606.413 9     -1406.522 9        54.541               
G18  20682588.815 9     75182.168 9     -1485.384 9        55.015               
G23  25064388.795 7   -138574.171 7      2705.224 7        45.248               
G25  24691366.043 7    -54904.900 7      1068.663 7        46.511               
> 2020 02 06 15 07 01.3000000  0  9                                             
G01  21036250.156 9    -24758.435 9       464.637 9        54.318               
G03  23060218.565 8   -139465.974 8      2812.133 8        48.146               
G08  25673361.629 7    140874.766 7     -2741.744 7        43.164               
G10  24048700.608 7    144460.594 7     -2823.400 7        46.882               
G11  22018062.872 8    114803.700 8     -2252.109 8        51.004               
G14  21023560.023 9     71746.330 9     -1405.338 9        54.795               
G18  20682615.527 9     75330.057 9     -1484.844 9        54.603               
G23  25064336.186 7   -138845.293 7      2704.530 7        45.524               
G25  24691344.151 7    -55012.559 7      1070.845 7        46.479               
> 2020 02 06 15 07 01.4000000  0  9                                             
G01  21036241.235 9    -24804.926 9       465.092 9        54.205               
G03  23060164.846 8   -139747.070 8      2813.720 8        48.244               
G08  25673414.677 7    141149.279 7     -2746.198 7        43.240               
G10  24048755.443 7    144742.759 7     -2823.769 7        46.987               
G11  22018105.807 8    115028.997 8     -2252.069 8        50.990               
G14  21023586.804 9     71886.997 9     -1406.201 9        55.005               
G18  20682645.864 9     75478.689 9     -1485.152 9        54.305               
G23  25064284.808 7   -139115.663 7      2704.749 7        45.422               
G25  24691323.526 7    -55119.468 7      1068.220 7        46.500               
> 2020 02 06 15 07 01.5000000  0  9                                             
G01  21036230.992 9    -24852.139 9       464.910 9        54.199               
G03  23060110.949 8   -140028.891 8      2809.380 8        48.385               
G08  25673466.797 7    141423.082 7     -2744.550 7        43.228               
G10  24048808.063 7    145024.186 7     -2823.000 7        47.091               
G11  22018148.313 8    115253.567 8     -2252.559 8        50.940               
G14  21023612.263 9     72026.937 9     -1405.811 9        55.156               
G18  20682672.609 9     75626.595 9     -1486.152 9        54.164               
G23  25064232.859 7   -139386.775 7      2705.600 7        45.313               
G25  24691302.365 7    -55227.104 7      1072.063 7        46.454               
> 2020 02 06 15 07 01.6000000  0  9                                             
G01  21036221.529 9    -24898.293 9       465.555 9        54.209               
G03  23060057.528 8   -140309.665 8      2809.719 8        48.502               
G08  25673520.036 7    141697.925 7     -2747.990 7        43.290               
G10  24048862.142 7    145306.672 7     -2820.118 7        47.162               
G11  22018191.153 8    115479.203 8     -2251.506 8        50.854               
G14  21023640.003 9     72167.930 9     -1404.618 9        55.077               
G18  20682701.207 9     75775.569 9     -1485.666 9        54.072               
G23  25064181.475 7   -139656.803 7      2701.715 7        45.239               
G25  24691282.359 7    -55333.678 7      1067.702 7        46.450               
> 2020 02 06 15 07 01.7000000  0  9                                             
G01  21036212.330 9    -24944.532 9       465.322 9        54.284               
G03  23060004.943 8   -140590.526 8      2813.168 8        48.686               
G08  25673572.611 7    141972.678 7     -2746.466 7        43.352               
G10  24048915.092 7    145589.078 7     -2822.648 7        47.248               
G11  22018234.507 8    115704.746 8     -2254.341 8        50.849               
G14  21023667.043 9     72308.838 9     -1405.717 9        55.027               
G18  20682730.373 9     75924.453 9     -1485.797 9        54.089               
G23  25064130.391 7   -139926.946 7      2702.558 7        45.223               
G25  24691263.171 7    -55440.340 7      1072.382 7        46.372               
> 2020 02 06 15 07 01.8000000  0  9                                             
G01  21036204.804 9    -24990.322 9       464.956 9        54.399               
G03  23059952.244 8   -140870.944 8      2813.731 8        48.684               
G08  25673626.269 7    142247.878 7     -2742.988 7        43.376               
G10  24048969.018 7    145871.921 7     -2819.613 7        47.320               
G11  22018277.944 8    115930.740 8     -2253.917 8        50.780               
G14  21023694.898 9     72450.190 9     -1404.764 9        55.015               
G18  20682759.801 9     76073.789 9     -1485.773 9        54.030               
G23  25064080.409 7   -140196.645 7      2703.741 7        45.146               
G25  24691243.834 7    -55546.552 7      1066.447 7        46.340               
> 2020 02 06 15 07 01.9000000  0  9                                             
G01  21036195.095 9    -25037.781 9       464.965 9        54.679               
G03  23059897.648 8   -141153.039 8      2811.094 8        48.707               
G08  25673679.833 7    142521.396 7     -2741.454 7        43.400               
G10  24049022.332 7    146153.082 7     -2818.440 7        47.478               
G11  22018319.536 8    116155.062 8     -2253.679 8        50.735               
G14  21023719.425 9     72589.867 9     -1406.522 9        54.964               
G18  20682786.276 8     76221.452 8     -1486.408 8        53.980               
G23  25064027.849 7   -140468.011 7      2705.592 7        45.091               
G25  24691221.473 7    -55654.442 7      1069.994 7        46.234               
> 2020 02 06 15 07 02.0000000  0  9                                             
G01  21036186.407 9    -25084.394 9       464.461 9        54.801               
G03  23059844.091 8   -141434.292 8      2811.637 8        48.670               
G08  25673731.239 7    142795.745 7     -2744.684 7        43.354               
G10  24049075.686 7    146435.099 7     -2822.271 7        47.419               
G11  22018362.829 8    116380.226 8     -2252.378 8        50.633               
G14  21023746.744 9     72730.387 9     -1406.371 9        54.886               
G18  20682813.451 9     76369.964 9     -1485.805 9        54.062               
G23  25063975.865 7   -140738.539 7      2705.445 7        45.112               
G25  24691200.706 7    -55761.482 7      1068.793 7        46.313               
> 2020 02 06 15 07 02.1000000  0  9                                             
G01  21036177.692 9    -25130.891 9       465.439 9        54.915               
G03  23059790.507 8   -141715.436 8      2813.506 8        48.716               
G08  25673783.278 7    143070.214 7     -2744.130 7        43.276               
G10  24049129.245 7    146717.219 7     -2822.187 7        47.343               
G11  22018405.363 8    116605.508 8     -2252.310 8        50.482               
G14  21023773.641 9     72871.022 9     -1405.023 9        54.909               
G18  20682840.760 9     76518.595 9     -1485.480 9        54.137               
G23  25063924.532 7   -141008.956 7      2705.288 7        45.384               
G25  24691180.322 7    -55868.402 7      1068.333 7        46.394               
> 2020 02 06 15 07 02.2000000  0  9                                             
G01  21036169.510 9    -25176.786 9       464.889 9        55.115               
G03  23059737.920 8   -141995.976 8      2811.329 8        48.711               
G08  25673835.976 7    143345.275 7     -2747.748 7        43.313               
G10  24049183.532 7    146999.941 7     -2821.725 7        47.376               
G11  22018448.715 8    116831.388 8     -2253.801 8        50.311               
G14  21023801.304 9     73012.254 9     -1406.213 9        54.901               
G18  20682871.675 9     76667.826 9     -1485.591 9        54.331               
G23  25063874.357 7   -141278.774 7      2705.144 7        45.635               
G25  24691160.793 7    -55974.727 7      1070.664 7        46.357               
> 2020 02 06 15 07 02.3000000  0  9                                             
G01  21036160.499 9    -25223.514 9       464.852 9        55.000               
G03  23059684.202 8   -142277.366 8      2812.794 8        48.662               
G08  25673886.791 7    143619.485 7     -2747.506 7        43.349               
G10  24049236.564 7    147281.820 7     -2821.895 7        47.549               
G11  22018492.114 8    117056.436 8     -2251.953 8        50.020               
G14  21023827.318 9     73152.649 9     -1406.226 9        54.810               
G18  20682899.368 9     76816.220 9     -1486.790 9        54.563               
G23  25063822.104 7   -141549.431 7      2705.318 7        45.821               
G25  24691140.830 7    -56081.888 7      1071.027 7        46.298               
> 2020 02 06 15 07 02.4000000  0  9                                             
G01  21036152.406 9    -25270.124 9       464.185 9        54.946               
G03  23059630.381 8   -142558.645 8      2812.432 8        48.671               
G08  25673939.738 7    143893.800 7     -2741.150 7        43.304               
G10  24049290.690 7    147563.812 7     -2823.063 7        47.574               
G11  22018534.912 8    117281.595 8     -2253.907 8        49.841               
G14  21023853.872 9     73293.152 9     -1405.293 9        54.770               
G18  20682927.638 9     76964.731 9     -1486.742 9        54.730               
G23  25063769.964 7   -141819.990 7      2704.597 7        45.877               
G25  24691120.353 7    -56188.932 7      1069.605 7        46.366               
> 2020 02 06 15 07 02.5000000  0  9                                             
G01  21036144.575 9    -25316.259 9       466.792 9        54.731               
G03  23059577.592 8   -142839.445 8      2809.805 8        48.542               
G08  25673993.073 7    144168.607 7     -2749.532 7        43.189               
G10  24049344.007 7    147846.279 7     -2822.560 7        47.510               
G11  22018578.418 8    117507.229 8     -2253.673 8        49.718               
G14  21023881.511 9     73434.135 9     -1407.651 9        54.743               
G18  20682955.974 9     77113.725 9     -1486.675 9        54.747               
G23  25063719.408 7   -142090.055 7      2704.956 7        46.028               
G25  24691099.674 7    -56295.496 7      1068.044 7        46.317               
> 2020 02 06 15 07 02.6000000  0  9                                             
G01  21036135.887 9    -25362.638 9       466.085 9        54.396               
G03  23059524.339 8   -143120.497 8      2811.039 8        48.469               
G08  25674044.962 7    144443.144 7     -2745.394 7        43.131               
G10  24049398.165 7    148128.491 7     -2821.054 7        47.500               
G11  22018621.247 8    117732.620 8     -2251.957 8        49.554               
G14  21023908.526 9     73574.866 9     -1406.216 9        54.664               
G18  20682985.490 9     77262.467 9     -1487.209 9        54.719               
G23  25063668.407 7   -142360.386 7      2705.187 7        46.049               
G25  24691079.622 7    -56402.314 7      1069.292 7        46.227               
> 2020 02 06 15 07 02.7000000  0  9                                             
G01  21036126.473 9    -25408.899 9       464.373 9        54.272               
G03  23059470.627 8   -143401.440 8      2811.338 8        48.493               
G08  25674096.194 7    144717.791 7     -2742.676 7        43.056               
G10  24049452.095 7    148410.821 7     -2821.778 7        47.445               
G11  22018663.778 8    117958.121 8     -2251.660 8        49.419               
G14  21023935.367 9     73715.707 9     -1404.321 9        54.572               
G18  20683013.708 9     77411.325 9     -1486.347 9        54.737               
G23  25063616.606 7   -142630.601 7      2704.268 7        46.103               
G25  24691059.539 7    -56509.014 7      1070.039 7        46.230               
> 2020 02 06 15 07 02.8000000  0  9                                             
G01  21036114.658 9    -25456.861 9       463.964 9        54.174               
G03  23059415.927 8   -143684.092 8      2811.595 8        48.603               
G08  25674146.778 7    144990.732 7     -2745.775 7        42.877               
G10  24049504.484 7    148691.441 7     -2821.002 7        47.357               
G11  22018705.088 8    118181.921 8     -2253.566 8        49.434               
G14  21023959.934 9     73854.846 9     -1406.993 9        54.348               
G18  20683038.686 9     77558.488 9     -1486.687 9        54.842               
G23  25063563.783 7   -142902.529 7      2704.093 7        46.217               
G25  24691037.521 7    -56617.418 7      1068.861 7        46.041               
> 2020 02 06 15 07 02.9000000  0  9                                             
G01  21036106.120 8    -25502.348 8       464.081 8        53.907               
G03  23059362.967 8   -143964.273 8      2810.369 8        48.639               
G08  25674199.782 7    145266.136 7     -2747.840 7        42.879               
G10  24049559.060 7    148974.534 7     -2819.942 7        47.221               
G11  22018748.746 8    118408.201 8     -2254.679 8        49.425               
G14  21023988.564 9     73996.459 9     -1407.085 9        54.198               
G18  20683068.817 9     77708.125 9     -1486.543 9        54.863               
G23  25063513.342 7   -143171.976 7      2706.514 7        46.225               
G25  24691018.834 7    -56723.345 7      1068.721 7        45.915               
> 2020 02 06 15 07 03.0000000  0  9                                             
G01  21036095.944 8    -25549.173 8       465.359 8        53.823               
G03  23059310.065 8   -144245.789 8      2809.338 8        48.676               
G08  25674249.716 7    145540.204 7     -2748.165 7        42.865               
G10  24049611.675 7    149256.288 7     -2821.947 7        47.259               
G11  22018791.604 8    118633.144 8     -2254.420 8        49.421               
G14  21024014.572 9     74136.732 9     -1405.244 9        54.180               
G18  20683097.612 9     77856.429 9     -1486.781 9        54.947               
G23  25063459.618 7   -143442.771 7      2703.596 7        46.246               
G25  24690997.704 7    -56830.612 7      1069.181 7        45.863               
> 2020 02 06 15 07 03.1000000  0  9                                             
G01  21036086.075 8    -25596.820 8       463.482 8        53.766               
G03  23059254.719 8   -144528.143 8      2813.271 8        48.718               
G08  25674297.243 7    145813.425 7     -2738.925 7        42.781               
G10  24049665.348 7    149537.210 7     -2818.923 7        47.145               
G11  22018833.788 8    118857.251 8     -2253.197 8        49.493               
G14  21024039.816 9     74276.175 9     -1406.998 9        54.176               
G18  20683122.999 9     78003.904 9     -1486.146 9        54.972               
G23  25063408.132 7   -143714.389 7      2704.609 7        46.361               
G25  24690975.434 7    -56938.692 7      1064.725 7        45.894               
> 2020 02 06 15 07 03.2000000  0  9                                             
G01  21036078.510 8    -25642.680 8       464.331 8        53.664               
G03  23059202.089 8   -144808.713 8      2810.810 8        48.777               
G08  25674350.701 7    146088.433 7     -2743.578 7        42.721               
G10  24049719.289 7    149819.919 7     -2825.194 7        47.042               
G11  22018876.381 8    119083.148 8     -2252.990 8        49.510               
G14  21024066.613 9     74417.400 9     -1405.858 9        54.096               
G18  20683152.959 9     78153.165 9     -1488.131 9        55.008               
G23  25063357.629 7   -143984.236 7      2705.005 7        46.253               
G25  24690955.843 7    -57045.005 7      1070.416 7        45.938               
> 2020 02 06 15 07 03.3000000  0  9                                             
G01  21036071.450 8    -25688.114 8       465.208 8        53.588               
G03  23059149.249 8   -145088.866 8      2810.954 8        48.940               
G08  25674407.255 7    146363.858 7     -2748.894 7        42.695               
G10  24049774.520 7    150103.042 7     -2825.954 7        46.921               
G11  22018920.159 8    119309.468 8     -2250.585 8        49.367               
G14  21024095.238 8     74559.047 8     -1405.800 8        53.979               
G18  20683184.175 9     78302.856 9     -1486.504 9        55.030               
G23  25063307.540 7   -144253.656 7      2706.984 7        46.184               
G25  24690936.954 7    -57150.885 7      1069.319 7        45.853               
> 2020 02 06 15 07 03.4000000  0  9                                             
G01  21036062.368 8    -25735.084 8       465.117 8        53.419               
G03  23059095.405 8   -145370.557 8      2813.571 8        49.134               
G08  25674458.766 7    146637.736 7     -2739.119 7        42.454               
G10  24049826.943 7    150384.629 7     -2818.979 7        46.760               
G11  22018962.593 8    119534.252 8     -2251.296 8        49.259               
G14  21024121.501 8     74699.157 8     -1406.678 8        53.904               
G18  20683209.169 9     78451.006 9     -1487.229 9        55.047               
G23  25063255.000 7   -144524.619 7      2707.007 7        46.294               
G25  24690916.114 7    -57258.302 7      1070.754 7        45.775               
> 2020 02 06 15 07 03.5000000  0  9                                             
G01  21036054.193 8    -25780.958 8       464.182 8        53.282               
G03  23059042.307 8   -145651.160 8      2811.042 8        49.080               
G08  25674512.347 7    146912.711 7     -2738.309 7        42.381               
G10  24049881.614 7    150667.305 7     -2819.480 7        46.693               
G11  22019005.577 8    119760.132 8     -2253.938 8        49.092               
G14  21024149.189 8     74840.358 8     -1406.683 8        53.780               
G18  20683239.358 9     78600.255 9     -1486.441 9        55.133               
G23  25063204.798 7   -144794.497 7      2703.414 7        46.266               
G25  24690896.932 7    -57364.622 7      1065.120 7        45.749               
> 2020 02 06 15 07 03.6000000  0  9                                             
G01  21036045.730 8    -25827.560 8       463.755 8        53.185               
G03  23058988.368 8   -145932.498 8      2812.767 8        49.003               
G08  25674564.942 7    147186.944 7     -2740.654 7        42.384               
G10  24049935.550 7    150949.244 7     -2819.387 7        46.565               
G11  22019048.416 8    119985.281 8     -2254.362 8        48.990               
G14  21024175.195 8     74980.826 8     -1405.082 8        53.656               
G18  20683267.724 9     78748.779 9     -1486.241 9        55.174               
G23  25063154.450 7   -145065.100 7      2703.860 7        46.217               
G25  24690875.478 7    -57471.675 7      1065.727 7        45.702               
> 2020 02 06 15 07 03.7000000  0  9                                             
G01  21036037.759 8    -25873.802 8       464.618 8        53.039               
G03  23058935.277 8   -146213.478 8      2811.820 8        49.003               
G08  25674619.942 7    147461.532 7     -2746.991 7        42.245               
G10  24049988.387 7    151231.549 7     -2821.977 7        46.475               
G11  22019091.783 8    120210.783 8     -2253.151 8        49.104               
G14  21024202.355 8     75121.649 8     -1407.920 8        53.617               
G18  20683294.758 9     78897.653 9     -1487.236 9        55.203               
G23  25063101.771 7   -145335.343 7      2707.324 7        46.344               
G25  24690855.213 7    -57578.366 7      1066.521 7        45.516               
> 2020 02 06 15 07 03.8000000  0  9                                             
G01  21036030.043 8    -25919.695 8       464.198 8        52.943               
G03  23058882.156 8   -146494.115 8      2810.313 8        49.105               
G08  25674671.157 7    147736.466 7     -2747.634 7        42.229               
G10  24050042.855 7    151514.187 7     -2819.496 7        46.433               
G11  22019135.172 8    120436.645 8     -2256.420 8        49.043               
G14  21024230.055 8     75262.824 8     -1407.176 8        53.494               
G18  20683324.585 9     79046.890 9     -1486.256 9        55.283               
G23  25063051.204 7   -145605.258 7      2706.170 7        46.287               
G25  24690835.650 7    -57684.717 7      1073.298 7        45.413               
> 2020 02 06 15 07 03.9000000  0  9                                             
G01  21036021.000 8    -25966.329 8       462.544 8        52.802               
G03  23058828.422 8   -146775.500 8      2809.947 8        49.138               
G08  25674722.672 7    148010.639 7     -2745.579 7        42.119               
G10  24050096.246 7    151796.092 7     -2819.224 7        46.412               
G11  22019178.396 8    120661.755 8     -2253.751 8        48.937               
G14  21024256.535 8     75403.247 8     -1405.511 8        53.362               
G18  20683352.405 9     79195.380 9     -1487.967 9        55.393               
G23  25062998.900 7   -145875.912 7      2707.502 7        46.434               
G25  24690815.474 7    -57791.802 7      1066.474 7        45.124               
> 2020 02 06 15 07 04.0000000  0  9                                             
G01  21036012.085 8    -26012.202 8       462.980 8        52.647               
G03  23058774.959 8   -147056.131 8      2810.620 8        49.230               
G08  25674776.370 7    148285.562 7     -2742.550 7        42.100               
G10  24050150.033 7    152078.738 7     -2821.112 7        46.457               
G11  22019221.229 8    120887.622 8     -2253.063 8        48.950               
G14  21024283.591 8     75544.423 8     -1406.369 8        53.274               
G18  20683380.711 9     79344.621 9     -1487.159 9        55.446               
G23  25062948.332 7   -146145.811 7      2707.409 7        46.309               
G25  24690796.642 7    -57898.136 7      1064.877 7        45.044               
> 2020 02 06 15 07 04.1000000  0  9                                             
G01  21036000.335 8    -26060.102 8       463.643 8        52.417               
G03  23058720.825 8   -147338.802 8      2811.870 8        49.482               
G08  25674825.125 7    148558.465 7     -2747.706 7        42.027               
G10  24050202.648 7    152359.365 7     -2821.122 7        46.550               
G11  22019262.176 8    121111.465 8     -2252.469 8        48.937               
G14  21024308.222 8     75683.578 8     -1406.159 8        53.236               
G18  20683407.076 9     79491.848 9     -1486.982 9        55.412               
G23  25062895.341 7   -146417.741 7      2705.643 7        46.343               
G25  24690774.635 7    -58006.492 7      1069.850 7        44.935               
> 2020 02 06 15 07 04.2000000  0  9                                             
G01  21035989.731 8    -26107.215 8       464.386 8        52.297               
G03  23058666.442 8   -147620.680 8      2811.951 8        49.578               
G08  25674875.366 7    148832.135 7     -2742.344 7        42.172               
G10  24050256.355 7    152640.769 7     -2824.248 7        46.640               
G11  22019304.965 8    121336.093 8     -2253.293 8        48.836               
G14  21024334.697 8     75823.514 8     -1407.571 8        53.292               
G18  20683434.444 9     79639.860 9     -1487.979 9        55.408               
G23  25062842.549 7   -146688.884 7      2700.325 7        46.433               
G25  24690752.238 7    -58114.060 7      1068.141 7        44.774               
> 2020 02 06 15 07 04.3000000  0  9                                             
G01  21035980.427 8    -26153.456 8       463.651 8        52.235               
G03  23058613.305 8   -147901.689 8      2809.934 8        49.642               
G08  25674927.888 7    149106.671 7     -2742.760 7        42.324               
G10  24050310.164 7    152923.037 7     -2820.986 7        46.791               
G11  22019347.641 8    121561.583 8     -2252.222 8        48.802               
G14  21024361.506 8     75964.316 8     -1407.245 8        53.367               
G18  20683463.862 9     79788.735 9     -1487.206 9        55.378               
G23  25062791.503 7   -146959.173 7      2703.469 7        46.513               
G25  24690731.284 7    -58220.766 7      1069.136 7        44.661               
> 2020 02 06 15 07 04.4000000  0  9                                             
G01  21035973.302 8    -26198.810 8       463.239 8        52.212               
G03  23058560.721 8   -148181.833 8      2812.117 8        49.613               
G08  25674982.215 7    149382.102 7     -2746.598 7        42.447               
G10  24050364.169 7    153206.185 7     -2825.175 7        46.900               
G11  22019391.175 8    121787.972 8     -2254.998 8        48.775               
G14  21024389.458 8     76105.999 8     -1407.333 8        53.569               
G18  20683493.530 9     79938.501 9     -1488.132 9        55.229               
G23  25062741.724 7   -147228.576 7      2704.096 7        46.702               
G25  24690712.901 7    -58326.583 7      1069.818 7        44.492               
> 2020 02 06 15 07 04.5000000  0  9                                             
G01  21035964.491 8    -26245.417 8       463.382 8        52.142               
G03  23058507.416 8   -148463.223 8      2810.844 8        49.685               
G08  25675035.552 7    149656.246 7     -2746.448 7        42.581               
G10  24050417.596 7    153488.085 7     -2819.241 7        46.873               
G11  22019433.845 8    122013.098 8     -2254.015 8        48.807               
G14  21024415.224 8     76246.425 8     -1407.339 8        53.710               
G18  20683522.548 9     80087.013 9     -1487.622 9        55.181               
G23  25062689.116 7   -147499.239 7      2705.739 7        47.032               
G25  24690692.457 7    -58433.655 7      1068.534 7        44.308               
> 2020 02 06 15 07 04.6000000  0  9                                             
G01  21035955.878 8    -26291.811 8       465.063 8        52.176               
G03  23058453.648 8   -148744.409 8      2809.719 8        49.836               
G08  25675086.889 7    149930.601 7     -2746.941 7        42.758               
G10  24050471.131 7    153770.188 7     -2819.544 7        46.833               
G11  22019476.908 8    122238.439 8     -2255.549 8        48.804               
G14  21024442.419 8     76387.066 8     -1407.517 8        53.834               
G18  20683549.511 9     80235.750 9     -1487.621 9        55.002               
G23  25062637.170 7   -147769.689 7      2703.624 7        47.179               
G25  24690672.926 7    -58540.503 7      1062.277 7        44.161               
> 2020 02 06 15 07 04.7000000  0  9                                             
G01  21035948.073 8    -26337.531 8       462.487 8        52.236               
G03  23058400.831 8   -149024.933 8      2812.136 8        50.067               
G08  25675137.945 7    150205.616 7     -2743.964 7        42.876               
G10  24050525.046 7    154052.957 7     -2819.895 7        46.881               
G11  22019521.245 8    122464.444 8     -2252.149 8        48.963               
G14  21024469.852 8     76528.369 8     -1406.567 8        53.930               
G18  20683580.035 9     80385.139 9     -1487.962 9        54.990               
G23  25062586.444 7   -148039.474 7      2704.085 7        47.148               
G25  24690653.399 7    -58646.701 7      1074.534 7        43.946               
> 2020 02 06 15 07 04.8000000  0  9                                             
G01  21035940.739 8    -26382.647 8       463.645 8        52.213               
G03  23058347.823 8   -149304.851 8      2812.035 8        50.468               
G08  25675192.920 7    150481.253 7     -2742.212 7        43.078               
G10  24050580.110 7    154336.328 7     -2823.928 7        46.999               
G11  22019564.320 8    122691.063 8     -2253.846 8        49.152               
G14  21024498.328 9     76670.278 9     -1406.577 9        54.237               
G18  20683610.154 9     80535.149 9     -1487.559 9        54.797               
G23  25062538.190 7   -148308.661 7      2705.403 7        47.129               
G25  24690634.253 7    -58752.281 7      1066.436 7        43.850               
> 2020 02 06 15 07 04.9000000  0  9                                             
G01  21035931.133 8    -26429.759 8       464.267 8        52.209               
G03  23058294.153 8   -149586.772 8      2810.483 8        50.853               
G08  25675242.193 7    150754.861 7     -2738.884 7        43.103               
G10  24050632.975 7    154617.704 7     -2822.926 7        47.129               
G11  22019606.052 8    122915.675 8     -2252.135 8        49.319               
G14  21024523.710 9     76810.185 9     -1406.358 9        54.490               
G18  20683637.038 9     80683.160 9     -1488.595 9        54.811               
G23  25062487.110 7   -148579.850 7      2704.030 7        47.054               
G25  24690613.587 7    -58859.862 7      1069.298 7        43.755               
> 2020 02 06 15 07 05.0000000  0  9                                             
G01  21035923.203 8    -26475.986 8       462.000 8        52.211               
G03  23058240.406 8   -149867.817 8      2810.991 8        50.995               
G08  25675295.607 7    151029.361 7     -2741.834 7        43.117               
G10  24050686.960 7    154899.957 7     -2822.430 7        47.212               
G11  22019649.978 8    123141.174 8     -2254.062 8        49.424               
G14  21024550.892 9     76950.973 9     -1407.003 9        54.617               
G18  20683665.489 9     80832.055 9     -1487.570 9        54.902               
G23  25062434.865 7   -148850.163 7      2704.396 7        46.941               
G25  24690592.630 7    -58966.559 7      1067.659 7        43.648               
> 2020 02 06 15 07 05.1000000  0  9                                             
G01  21035915.589 8    -26521.974 8       464.124 8        52.310               
G03  23058187.012 8   -150148.624 8      2810.509 8        51.032               
G08  25675348.551 7    151304.089 7     -2748.885 7        43.131               
G10  24050740.673 7    155182.442 7     -2820.759 7        47.540               
G11  22019692.808 8    123366.916 8     -2255.743 8        49.314               
G14  21024578.319 9     77092.001 9     -1406.663 9        54.742               
G18  20683692.773 9     80981.194 9     -1487.990 9        54.946               
G23  25062383.293 7   -149120.229 7      2699.319 7        46.889               
G25  24690573.705 7    -59073.014 7      1064.181 7        43.730               
> 2020 02 06 15 07 05.2000000  0  9                                             
G01  21035907.003 8    -26568.181 8       463.021 8        52.368               
G03  23058133.271 8   -150429.659 8      2810.168 8        51.077               
G08  25675400.791 7    151578.579 7     -2744.102 7        43.090               
G10  24050794.861 7    155464.698 7     -2821.451 7        47.691               
G11  22019736.185 8    123592.427 8     -2254.416 8        49.414               
G14  21024605.292 9     77232.799 9     -1406.574 9        54.970               
G18  20683721.712 9     81130.099 9     -1488.492 9        54.968               
G23  25062331.267 7   -149390.528 7      2700.097 7        46.798               
G25  24690553.432 7    -59179.698 7      1067.652 7        43.562               
> 2020 02 06 15 07 05.3000000  0  9                                             
G01  21035898.690 8    -26613.918 8       463.793 8        52.481               
G03  23058080.036 8   -150710.230 8      2810.524 8        51.094               
G08  25675454.967 7    151853.543 7     -2749.887 7        43.187               
G10  24050848.572 7    155747.425 7     -2822.135 7        47.775               
G11  22019779.996 8    123818.412 8     -2254.063 8        49.452               
G14  21024632.682 9     77374.067 9     -1407.287 9        55.212               
G18  20683750.638 9     81279.492 9     -1488.574 9        54.940               
G23  25062280.587 7   -149660.362 7      2704.626 7        46.672               
G25  24690532.665 7    -59285.904 7      1065.993 7        43.539               
> 2020 02 06 15 07 05.4000000  0  9                                             
G01  21035887.719 8    -26661.151 8       462.193 8        52.646               
G03  23058025.714 8   -150992.302 8      2811.724 8        51.108               
G08  25675505.840 7    152126.990 7     -2742.130 7        43.141               
G10  24050901.589 7    156028.647 7     -2820.612 7        47.826               
G11  22019821.434 8    124042.899 8     -2256.290 8        49.541               
G14  21024658.092 9     77513.833 9     -1407.144 9        55.482               
G18  20683776.709 9     81427.377 9     -1488.751 9        54.952               
G23  25062227.516 7   -149931.702 7      2702.465 7        46.504               
G25  24690510.525 7    -59393.619 7      1064.698 7        43.671               
> 2020 02 06 15 07 05.5000000  0  9                                             
G01  21035876.920 8    -26707.798 8       462.831 8        52.689               
G03  23057972.012 8   -151273.801 8      2813.402 8        51.000               
G08  25675559.138 7    152401.023 7     -2741.080 7        43.132               
G10  24050954.797 7    156310.459 7     -2821.849 7        47.762               
G11  22019864.618 8    124267.966 8     -2255.269 8        49.602               
G14  21024684.890 9     77654.181 9     -1407.654 9        55.574               
G18  20683804.722 9     81575.853 9     -1488.294 9        54.905               
G23  25062175.369 7   -150202.460 7      2704.574 7        46.521               
G25  24690490.328 7    -59500.748 7      1066.742 7        43.751               
> 2020 02 06 15 07 05.6000000  0  9                                             
G01  21035866.685 8    -26755.166 8       462.633 8        52.821               
G03  23057917.818 8   -151556.017 8      2811.392 8        50.839               
G08  25675607.923 7    152674.331 7     -2747.301 7        43.268               
G10  24051007.925 7    156591.539 7     -2821.990 7        47.687               
G11  22019906.006 8    124492.313 8     -2255.112 8        49.538               
G14  21024710.285 9     77793.804 9     -1407.661 9        55.613               
G18  20683830.939 9     81723.601 9     -1488.650 9        54.997               
G23  25062121.819 7   -150473.944 7      2705.339 7        46.371               
G25  24690469.389 7    -59608.593 7      1069.073 7        43.772               
> 2020 02 06 15 07 05.7000000  0  9                                             
G01  21035858.238 8    -26801.449 8       463.055 8        52.833               
G03  23057863.788 8   -151837.156 8      2813.131 8        50.829               
G08  25675657.086 7    152948.708 7     -2743.232 7        43.456               
G10  24051062.717 7    156873.706 7     -2820.581 7        47.536               
G11  22019948.611 8    124717.744 8     -2253.605 8        49.534               
G14  21024736.987 9     77934.508 9     -1406.135 9        55.680               
G18  20683860.017 9     81872.442 9     -1488.251 9        55.069               
G23  25062070.808 7   -150744.347 7      2704.700 7        46.107               
G25  24690448.809 7    -59715.358 7      1067.179 7        43.680               
> 2020 02 06 15 07 05.8000000  0  9                                             
G01  21035849.362 8    -26848.264 8       460.839 8        52.745               
G03  23057809.918 8   -152118.837 8      2811.038 8        50.844               
G08  25675708.661 7    153222.548 7     -2744.406 7        43.619               
G10  24051115.597 7    157155.328 7     -2822.653 7        47.431               
G11  22019991.341 8    124942.639 8     -2254.640 8        49.452               
G14  21024762.187 9     78074.679 9     -1407.562 9        55.691               
G18  20683887.202 9     82020.744 9     -1488.586 9        55.150               
G23  25062019.511 7   -151015.285 7      2705.501 7        45.911               
G25  24690427.050 7    -59822.650 7      1065.727 7        43.702               
> 2020 02 06 15 07 05.9000000  0  9                                             
G01  21035841.773 8    -26893.744 8       463.076 8        52.720               
G03  23057757.334 8   -152399.188 8      2811.230 8        50.816               
G08  25675763.077 7    153497.715 7     -2742.099 7        43.742               
G10  24051169.977 7    157438.288 7     -2820.456 7        47.311               
G11  22020034.696 8    125168.874 8     -2255.824 8        49.481               
G14  21024790.550 9     78216.179 9     -1406.298 9        55.539               
G18  20683917.334 9     82170.392 9     -1487.769 9        55.197               
G23  25061969.358 7   -151284.895 7      2704.704 7        45.917               
G25  24690405.862 7    -59928.616 7      1069.783 7        43.704               
> 2020 02 06 15 07 06.0000000  0  9                                             
G01  21035832.757 8    -26940.330 8       462.934 8        52.634               
G03  23057703.896 8   -152680.649 8      2811.230 8        50.559               
G08  25675816.532 7    153771.772 7     -2748.576 7        43.861               
G10  24051223.181 7    157720.126 7     -2821.199 7        47.075               
G11  22020077.429 8    125393.991 8     -2253.566 8        49.369               
G14  21024816.915 9     78356.567 9     -1406.256 9        55.314               
G18  20683945.110 9     82318.913 9     -1488.665 9        55.315               
G23  25061917.260 7   -151555.619 7      2704.889 7        45.902               
G25  24690385.160 7    -60035.694 7      1067.238 7        43.614               
> 2020 02 06 15 07 06.1000000  0  9                                             
G01  21035823.914 8    -26986.364 8       461.321 8        52.572               
G03  23057650.809 8   -152961.564 8      2810.143 8        50.262               
G08  25675870.284 7    154046.362 7     -2744.181 7        43.952               
G10  24051276.647 7    158002.516 7     -2822.953 7        47.052               
G11  22020121.532 8    125619.664 8     -2254.732 8        49.288               
G14  21024844.149 9     78497.505 9     -1408.080 9        55.175               
G18  20683974.542 9     82468.006 9     -1488.601 9        55.446               
G23  25061865.138 7   -151825.802 7      2703.052 7        45.851               
G25  24690365.684 7    -60142.209 7      1063.697 7        43.548               
> 2020 02 06 15 07 06.2000000  0  9                                             
G01  21035813.583 8    -27033.875 8       462.110 8        52.524               
G03  23057596.360 8   -153243.964 8      2813.179 8        49.983               
G08  25675920.332 7    154319.473 7     -2745.515 7        44.068               
G10  24051329.358 7    158283.414 7     -2818.632 7        47.250               
G11  22020163.057 8    125843.855 8     -2256.110 8        49.107               
G14  21024868.342 9     78636.961 9     -1406.475 9        55.033               
G18  20684000.664 9     82615.606 9     -1488.268 9        55.578               
G23  25061812.386 7   -152097.454 7      2701.666 7        45.895               
G25  24690344.525 7    -60250.210 7      1069.439 7        43.347               
> 2020 02 06 15 07 06.3000000  0  9                                             
G01  21035806.695 8    -27078.965 8       461.236 8        52.406               
G03  23057543.352 8   -153523.943 8      2810.976 8        49.609               
G08  25675973.020 7    154594.999 7     -2745.179 7        44.194               
G10  24051383.976 7    158566.747 7     -2820.195 7        47.360               
G11  22020207.275 8    126070.470 8     -2254.648 8        48.996               
G14  21024896.906 9     78778.836 9     -1406.076 9        54.818               
G18  20684030.551 9     82765.648 9     -1488.891 9        55.603               
G23  25061763.328 7   -152366.703 7      2707.334 7        46.069               
G25  24690326.416 7    -60355.788 7      1066.801 7        43.328               
> 2020 02 06 15 07 06.4000000  0  9                                             
G01  21035799.543 8    -27124.597 8       462.405 8        52.304               
G03  23057490.633 8   -153804.473 8      2811.752 8        49.255               
G08  25676026.015 7    154869.972 7     -2744.165 7        44.213               
G10  24051437.917 7    158849.532 7     -2822.247 7        47.570               
G11  22020249.959 8    126296.543 8     -2255.204 8        48.908               
G14  21024924.759 9     78920.165 9     -1407.991 9        54.637               
G18  20684059.119 9     82915.127 9     -1489.354 9        55.568               
G23  25061712.628 7   -152636.489 7      2705.339 7        46.156               
G25  24690306.629 7    -60461.907 7      1067.265 7        43.347               
> 2020 02 06 15 07 06.5000000  0  9                                             
G01  21035791.463 8    -27170.356 8       462.825 8        52.259               
G03  23057437.524 8   -154085.138 8      2812.118 8        48.968               
G08  25676078.207 7    155144.810 7     -2745.786 7        44.297               
G10  24051492.147 7    159132.170 7     -2822.518 7        47.482               
G11  22020292.967 8    126522.484 8     -2254.587 8        49.120               
G14  21024952.275 9     79061.364 9     -1407.622 9        54.675               
G18  20684088.493 9     83064.498 9     -1489.236 9        55.477               
G23  25061661.734 7   -152906.410 7      2700.881 7        46.199               
G25  24690286.542 7    -60568.159 7      1062.957 7        43.519               
> 2020 02 06 15 07 06.6000000  0  9                                             
G01  21035781.881 8    -27216.618 8       461.830 8        52.293               
G03  23057383.805 8   -154366.307 8      2809.114 8        48.532               
G08  25676130.291 7    155419.139 7     -2741.959 7        44.340               
G10  24051545.178 7    159414.305 7     -2821.746 7        47.357               
G11  22020336.670 8    126747.918 8     -2252.893 8        49.102               
G14  21024978.430 9     79202.055 9     -1406.375 9        54.824               
G18  20684116.614 9     83213.349 9     -1489.666 9        55.352               
G23  25061609.623 7   -153176.846 7      2703.163 7        46.128               
G25  24690266.613 7    -60674.915 7      1062.254 7        43.599               
> 2020 02 06 15 07 06.7000000  0  9                                             
G01  21035770.605 8    -27263.703 8       462.747 8        52.414               
G03  23057330.019 8   -154648.311 8      2812.395 8        48.270               
G08  25676180.467 7    155692.632 7     -2744.441 7        44.373               
G10  24051599.160 7    159695.624 7     -2819.552 7        47.380               
G11  22020377.465 8    126972.530 8     -2256.336 8        49.265               
G14  21025004.483 9     79341.916 9     -1407.849 9        54.902               
G18  20684144.936 9     83361.386 9     -1490.330 9        55.193               
G23  25061558.107 7   -153448.105 7      2700.625 7        46.126               
G25  24690245.456 7    -60782.503 7      1067.247 7        43.725               
> 2020 02 06 15 07 06.8000000  0  9                                             
G01  21035761.986 8    -27309.069 8       460.944 8        52.436               
G03  23057277.049 7   -154928.602 7      2810.753 7        47.943               
G08  25676234.247 7    155967.839 7     -2746.545 7        44.359               
G10  24051653.065 7    159978.645 7     -2823.252 7        47.432               
G11  22020421.667 8    127198.856 8     -2254.458 8        49.236               
G14  21025032.781 9     79483.493 9     -1407.481 9        54.855               
G18  20684174.485 9     83511.132 9     -1490.197 9        55.222               
G23  25061507.246 7   -153717.654 7      2702.868 7        46.141               
G25  24690226.670 7    -60888.359 7      1062.316 7        43.766               
> 2020 02 06 15 07 06.9000000  0  9                                             
G01  21035752.005 8    -27355.763 8       461.600 8        52.401               
G03  23057223.593 7   -155210.219 7      2808.696 7        47.818               
G08  25676287.182 7    156241.717 7     -2742.923 7        44.445               
G10  24051705.839 7    160260.337 7     -2819.705 7        47.499               
G11  22020464.792 8    127423.857 8     -2256.787 8        49.258               
G14  21025058.788 9     79623.741 9     -1406.629 9        54.749               
G18  20684202.494 9     83659.562 9     -1489.991 9        55.215               
G23  25061455.504 7   -153988.531 7      2700.252 7        46.094               
G25  24690206.593 7    -60995.556 7      1066.383 7        43.721               
> 2020 02 06 15 07 07.0000000  0  9                                             
G01  21035743.630 8    -27401.986 8       462.798 8        52.362               
G03  23057169.509 7   -155491.382 7      2811.678 7        47.776               
G08  25676338.043 7    156516.039 7     -2745.460 7        44.428               
G10  24051760.078 7    160542.498 7     -2824.987 7        47.595               
G11  22020507.130 8    127649.321 8     -2255.934 8        49.131               
G14  21025085.383 9     79764.453 9     -1408.229 9        54.767               
G18  20684230.089 9     83808.450 9     -1489.655 9        55.186               
G23  25061403.780 7   -154258.952 7      2702.949 7        46.141               
G25  24690185.352 7    -61102.285 7      1065.946 7        43.800               
> 2020 02 06 15 07 07.1000000  0  9                                             
G01  21035735.944 8    -27447.987 8       461.295 8        52.263               
G03  23057116.239 8   -155772.324 8      2812.489 8        48.072               
G08  25676390.897 7    156790.589 7     -2747.856 7        44.431               
G10  24051813.593 7    160824.877 7     -2822.829 7        47.656               
G11  22020550.495 8    127875.006 8     -2255.661 8        49.203               
G14  21025112.077 9     79905.383 9     -1406.882 9        54.819               
G18  20684258.516 9     83957.572 9     -1488.652 9        55.103               
G23  25061351.099 7   -154529.147 7      2703.796 7        46.314               
G25  24690163.996 7    -61208.781 7      1065.763 7        43.778               
> 2020 02 06 15 07 07.2000000  0  9                                             
G01  21035728.141 8    -27493.842 8       462.755 8        52.191               
G03  23057062.495 8   -156053.119 8      2811.524 8        48.172               
G08  25676442.723 7    157065.266 7     -2739.803 7        44.261               
G10  24051868.135 7    161107.379 7     -2824.623 7        47.770               
G11  22020593.190 8    128100.843 8     -2256.774 8        49.226               
G14  21025139.923 9     80046.458 9     -1407.950 9        54.927               
G18  20684286.327 9     84106.837 9     -1488.988 9        55.072               
G23  25061300.589 7   -154799.203 7      2701.252 7        46.374               
G25  24690143.846 7    -61315.143 7      1070.932 7        43.823               
> 2020 02 06 15 07 07.3000000  0  9                                             
G01  21035719.490 8    -27540.158 8       462.050 8        52.167               
G03  23057009.475 8   -156334.385 8      2811.213 8        48.376               
G08  25676494.166 7    157339.484 7     -2742.260 7        44.169               
G10  24051921.329 7    161389.432 7     -2820.517 7        47.654               
G11  22020636.145 8    128326.209 8     -2255.014 8        49.241               
G14  21025166.421 9     80187.069 9     -1408.012 9        55.001               
G18  20684314.951 9     84255.642 9     -1490.142 9        54.963               
G23  25061249.750 7   -155069.736 7      2706.131 7        46.529               
G25  24690123.777 7    -61421.961 7      1066.198 7        43.871               
> 2020 02 06 15 07 07.4000000  0  9                                             
G01  21035710.938 8    -27585.997 8       460.916 8        51.983               
G03  23056956.125 8   -156615.183 8      2812.149 8        48.473               
G08  25676547.798 7    157614.163 7     -2744.237 7        44.078               
G10  24051974.728 7    161671.955 7     -2824.555 7        47.639               
G11  22020680.324 8    128552.051 8     -2255.542 8        49.211               
G14  21025193.767 9     80328.150 9     -1407.746 9        55.101               
G18  20684343.440 9     84404.918 9     -1489.169 9        54.790               
G23  25061197.972 7   -155339.791 7      2704.331 7        46.536               
G25  24690104.592 7    -61528.298 7      1063.540 7        43.811               
> 2020 02 06 15 07 07.5000000  0  9                                             
G01  21035701.987 8    -27632.464 8       460.390 8        51.886               
G03  23056902.842 8   -156896.609 8      2808.018 8        48.505               
G08  25676599.173 7    157888.213 7     -2743.448 7        44.075               
G10  24052027.694 7    161953.849 7     -2819.561 7        47.624               
G11  22020722.140 8    128777.275 8     -2256.272 8        49.308               
G14  21025219.393 9     80468.603 9     -1407.616 9        55.120               
G18  20684370.961 9     84553.580 9     -1490.112 9        54.574               
G23  25061145.868 7   -155610.474 7      2702.645 7        46.587               
G25  24690084.009 7    -61635.272 7      1067.679 7        43.799               
> 2020 02 06 15 07 07.6000000  0  9                                             
G01  21035693.741 8    -27678.735 8       462.637 8        51.835               
G03  23056849.298 8   -157177.850 8      2812.101 8        48.475               
G08  25676655.416 7    158162.453 7     -2745.369 7        44.232               
G10  24052081.722 7    162235.933 7     -2819.543 7        47.597               
G11  22020764.249 8    129002.682 8     -2257.038 8        49.401               
G14  21025246.528 9     80609.243 9     -1407.662 9        55.013               
G18  20684398.542 9     84702.421 9     -1490.975 9        54.401               
G23  25061095.594 7   -155880.974 7      2704.842 7        46.654               
G25  24690062.701 7    -61742.052 7      1068.453 7        43.828               
> 2020 02 06 15 07 07.7000000  0  9                                             
G01  21035685.512 8    -27725.060 8       463.196 8        51.872               
G03  23056794.984 8   -157459.152 8      2812.042 8        48.595               
G08  25676706.834 7    158436.622 7     -2738.511 7        44.379               
G10  24052136.374 7    162517.957 7     -2822.954 7        47.674               
G11  22020807.357 8    129228.036 8     -2255.299 8        49.463               
G14  21025273.054 9     80749.827 9     -1407.216 9        55.071               
G18  20684427.195 9     84851.214 9     -1488.586 9        54.392               
G23  25061044.015 7   -156151.527 7      2705.499 7        46.869               
G25  24690041.963 7    -61848.889 7      1067.823 7        43.869               
> 2020 02 06 15 07 07.8000000  0  9                                             
G01  21035678.195 8    -27770.254 8       461.091 8        51.921               
G03  23056741.869 8   -157739.332 8      2809.704 8        48.717               
G08  25676759.253 7    158711.924 7     -2742.126 7        44.511               
G10  24052190.669 7    162801.097 7     -2820.999 7        47.682               
G11  22020851.092 8    129454.518 8     -2256.757 8        49.435               
G14  21025301.278 9     80891.537 9     -1407.845 9        55.176               
G18  20684456.259 9     85001.135 9     -1490.380 9        54.398               
G23  25060992.311 7   -156420.975 7      2703.874 7        47.153               
G25  24690022.745 7    -61954.596 7      1068.111 7        43.923               
> 2020 02 06 15 07 07.9000000  0  9                                             
G01  21035668.398 8    -27816.755 8       461.917 8        51.963               
G03  23056687.703 8   -158020.818 8      2811.686 8        48.817               
G08  25676812.480 7    158985.899 7     -2744.984 7        44.622               
G10  24052243.663 7    163082.934 7     -2826.442 7        47.564               
G11  22020894.241 8    129679.684 8     -2254.499 8        49.459               
G14  21025326.933 9     81031.934 9     -1407.574 9        55.264               
G18  20684483.379 9     85149.747 9     -1490.496 9        54.384               
G23  25060940.218 7   -156691.707 7      2704.947 7        47.068               
G25  24690002.405 7    -62061.613 7      1068.741 7        43.923               
> 2020 02 06 15 07 08.0000000  0  9                                             
G01  21035658.692 8    -27862.819 8       461.612 8        52.051               
G03  23056634.664 8   -158301.876 8      2812.076 8        48.956               
G08  25676865.208 7    159260.314 7     -2745.268 7        44.740               
G10  24052296.570 7    163365.201 7     -2821.858 7        47.458               
G11  22020937.587 8    129905.300 8     -2255.015 8        49.419               
G14  21025353.590 9     81172.771 9     -1408.150 9        55.337               
G18  20684512.055 9     85298.808 9     -1489.560 9        54.393               
G23  25060887.518 7   -156962.009 7      2703.679 7        47.009               
G25  24689982.996 7    -62168.188 7      1068.933 7        43.897               
> 2020 02 06 15 07 08.1000000  0  9                                             
G01  21035649.876 8    -27908.098 8       460.368 8        52.177               
G03  23056581.730 8   -158582.154 8      2808.677 8        49.131               
G08  25676918.040 7    159535.487 7     -2745.117 7        44.852               
G10  24052350.707 7    163648.262 7     -2825.244 7        47.280               
G11  22020980.806 8    130131.691 8     -2255.656 8        49.337               
G14  21025381.513 9     81314.384 9     -1407.682 9        55.372               
G18  20684541.783 9     85448.646 9     -1491.158 9        54.243               
G23  25060838.623 7   -157231.547 7      2704.637 7        47.054               
G25  24689963.763 7    -62273.982 7      1065.246 7        43.850               
> 2020 02 06 15 07 08.2000000  0  9                                             
G01  21035639.282 8    -27955.068 8       461.050 8        52.245               
G03  23056527.964 8   -158864.121 8      2809.175 8        49.069               
G08  25676968.648 7    159808.997 7     -2744.887 7        44.855               
G10  24052404.102 7    163929.609 7     -2822.902 7        47.069               
G11  22021022.443 8    130356.390 8     -2258.242 8        49.357               
G14  21025407.372 9     81454.303 9     -1407.574 9        55.362               
G18  20684569.518 9     85596.794 9     -1490.682 9        54.051               
G23  25060787.305 7   -157502.777 7      2705.095 7        47.260               
G25  24689941.822 7    -62381.466 7      1065.073 7        43.849               
> 2020 02 06 15 07 08.3000000  0  9                                             
G01  21035630.294 8    -28001.403 8       460.390 8        52.248               
G03  23056474.000 8   -159145.472 8      2810.300 8        48.877               
G08  25677019.146 7    160083.099 7     -2742.374 7        44.750               
G10  24052458.442 7    164211.589 7     -2821.382 7        47.001               
G11  22021064.168 8    130581.725 8     -2257.173 8        49.402               
G14  21025433.658 9     81594.852 9     -1406.836 9        55.362               
G18  20684597.680 8     85745.574 8     -1490.002 8        53.988               
G23  25060736.254 7   -157773.380 7      2702.513 7        47.488               
G25  24689921.220 7    -62488.321 7      1066.890 7        43.862               
> 2020 02 06 15 07 08.4000000  0  9                                             
G01  21035621.819 8    -28047.619 8       460.361 8        52.336               
G03  23056420.674 8   -159426.701 8      2811.308 8        48.928               
G08  25677069.281 7    160357.328 7     -2742.371 7        44.758               
G10  24052512.401 7    164493.689 7     -2822.615 7        47.082               
G11  22021106.905 8    130807.170 8     -2256.629 8        49.397               
G14  21025460.170 9     81735.518 9     -1408.185 9        55.379               
G18  20684626.944 9     85894.478 9     -1490.395 9        54.091               
G23  25060683.570 7   -158043.860 7      2703.883 7        47.708               
G25  24689901.326 7    -62595.063 7      1065.178 7        43.941               
> 2020 02 06 15 07 08.5000000  0  9                                             
G01  21035614.196 8    -28093.234 8       460.340 8        52.447               
G03  23056367.056 8   -159707.341 8      2811.507 8        49.027               
G08  25677123.074 7    160632.140 7     -2741.535 7        44.755               
G10  24052566.819 7    164776.380 7     -2822.613 7        47.278               
G11  22021151.317 8    131033.221 8     -2255.430 8        49.442               
G14  21025487.856 9     81876.781 9     -1407.672 9        55.458               
G18  20684656.417 9     86043.979 9     -1490.420 9        54.472               
G23  25060633.294 7   -158313.753 7      2701.121 7        47.664               
G25  24689881.713 7    -62701.192 7      1065.703 7        44.037               
> 2020 02 06 15 07 08.6000000  0  9                                             
G01  21035605.712 8    -28139.383 8       460.120 8        52.594               
G03  23056313.792 8   -159988.517 8      2810.552 8        49.166               
G08  25677175.077 7    160906.418 7     -2741.935 7        44.712               
G10  24052620.359 7    165058.534 7     -2826.969 7        47.403               
G11  22021193.510 8    131258.733 8     -2255.934 8        49.544               
G14  21025514.539 9     82017.505 9     -1408.039 9        55.499               
G18  20684684.261 9     86192.946 9     -1490.717 9        54.888               
G23  25060581.978 7   -158584.179 7      2701.120 7        47.565               
G25  24689861.168 7    -62807.865 7      1067.564 7        44.156               
> 2020 02 06 15 07 08.7000000  0  9                                             
G01  21035595.257 8    -28186.739 8       459.838 8        52.712               
G03  23056259.219 8   -160270.909 8      2811.446 8        49.393               
G08  25677223.554 7    161179.480 7     -2743.908 7        44.795               
G10  24052673.786 7    165339.467 7     -2824.237 7        47.428               
G11  22021235.715 8    131483.034 8     -2255.129 8        49.638               
G14  21025540.143 9     82157.017 9     -1409.010 9        55.303               
G18  20684710.884 9     86340.707 9     -1491.082 9        55.275               
G23  25060527.726 7   -158855.819 7      2702.757 7        47.192               
G25  24689838.704 7    -62915.750 7      1067.641 7        44.173               
> 2020 02 06 15 07 08.8000000  0  9                                             
G01  21035586.490 8    -28232.874 8       459.526 8        52.781               
G03  23056205.707 8   -160552.083 8      2809.575 8        49.571               
G08  25677277.864 7    161453.736 7     -2741.609 7        44.890               
G10  24052727.185 7    165621.633 7     -2820.723 7        47.403               
G11  22021278.535 8    131708.563 8     -2256.356 8        49.780               
G14  21025565.988 9     82297.748 9     -1408.039 9        55.135               
G18  20684739.410 9     86489.690 9     -1490.748 9        55.464               
G23  25060477.556 7   -159126.261 7      2703.994 7        46.835               
G25  24689817.679 7    -63022.407 7      1068.325 7        44.117               
> 2020 02 06 15 07 08.9000000  0  9                                             
G01  21035579.074 8    -28278.095 8       460.215 8        52.885               
G03  23056152.672 8   -160832.349 8      2811.715 8        49.646               
G08  25677330.203 7    161728.921 7     -2741.344 7        45.050               
G10  24052781.489 7    165904.698 7     -2820.971 7        47.444               
G11  22021322.440 8    131935.000 8     -2255.442 8        49.890               
G14  21025594.472 9     82439.390 9     -1408.986 9        54.963               
G18  20684768.626 9     86639.584 9     -1490.989 9        55.567               
G23  25060427.774 7   -159395.776 7      2707.338 7        46.569               
G25  24689799.060 7    -63128.158 7      1066.211 7        44.168               
> 2020 02 06 15 07 09.0000000  0  9                                             
G01  21035570.562 8    -28324.612 8       460.137 8        52.955               
G03  23056099.309 8   -161113.919 8      2812.182 8        49.783               
G08  25677380.748 7    162002.799 7     -2744.013 7        45.125               
G10  24052834.411 7    166186.468 7     -2822.802 7        47.439               
G11  22021365.605 8    132160.134 8     -2254.994 8        49.914               
G14  21025620.876 9     82579.728 9     -1408.659 9        54.808               
G18  20684796.084 9     86788.182 9     -1490.545 9        55.682               
G23  25060373.749 7   -159666.590 7      2704.030 7        46.377               
G25  24689778.415 7    -63235.200 7      1065.145 7        44.236               
> 2020 02 06 15 07 09.1000000  0  9                                             
G01  21035562.977 8    -28369.917 8       460.142 8        52.962               
G03  23056046.265 8   -161394.282 8      2809.913 8        49.786               
G08  25677433.739 7    162277.874 7     -2744.544 7        45.135               
G10  24052888.688 7    166469.446 7     -2823.626 7        47.385               
G11  22021409.018 8    132386.483 8     -2255.268 8        50.072               
G14  21025648.797 9     82721.277 9     -1408.231 9        54.596               
G18  20684825.435 9     86937.995 9     -1490.603 9        55.752               
G23  25060323.618 7   -159936.207 7      2703.044 7        46.246               
G25  24689759.804 7    -63341.042 7      1066.420 7        44.388               
> 2020 02 06 15 07 09.2000000  0  9                                             
G01  21035553.852 8    -28415.995 8       459.715 8        53.094               
G03  23055992.932 8   -161675.425 8      2809.827 8        49.747               
G08  25677487.745 7    162552.183 7     -2746.779 7        45.202               
G10  24052942.015 7    166751.644 7     -2826.724 7        47.335               
G11  22021452.034 8    132612.058 8     -2256.418 8        50.166               
G14  21025675.123 9     82862.049 9     -1406.442 9        54.369               
G18  20684854.084 9     87087.033 9     -1490.422 9        55.738               
G23  25060272.053 7   -160206.603 7      2701.941 7        46.141               
G25  24689739.528 7    -63447.647 7      1069.122 7        44.392               
> 2020 02 06 15 07 09.3000000  0  9                                             
G01  21035544.687 8    -28461.486 8       460.613 8        53.238               
G03  23055939.845 8   -161955.982 8      2809.737 8        49.596               
G08  25677540.782 7    162827.046 7     -2737.971 7        45.093               
G10  24052995.749 7    167034.412 7     -2821.535 7        47.178               
G11  22021495.994 8    132838.216 8     -2255.271 8        50.297               
G14  21025703.090 9     83003.404 9     -1408.556 9        54.301               
G18  20684883.391 9     87236.659 9     -1491.276 9        55.763               
G23  25060220.753 7   -160476.409 7      2702.898 7        46.013               
G25  24689719.857 7    -63553.672 7      1061.728 7        44.335               
> 2020 02 06 15 07 09.4000000  0  9                                             
G01  21035535.283 8    -28507.365 8       460.598 8        53.460               
G03  23055886.859 8   -162236.935 8      2809.809 8        49.652               
G08  25677593.384 7    163101.515 7     -2744.780 7        44.890               
G10  24053049.280 7    167316.801 7     -2827.074 7        47.064               
G11  22021538.411 8    133063.987 8     -2256.510 8        50.414               
G14  21025729.889 9     83144.368 9     -1407.702 9        54.439               
G18  20684912.406 9     87385.900 9     -1490.619 9        55.644               
G23  25060169.661 7   -160746.613 7      2707.133 7        45.872               
G25  24689699.624 7    -63660.086 7      1065.720 7        44.282               
> 2020 02 06 15 07 09.5000000  0  9                                             
G01  21035524.451 8    -28554.430 8       459.487 8        53.688               
G03  23055832.229 8   -162519.082 8      2811.546 8        49.921               
G08  25677645.057 7    163374.813 7     -2743.280 7        44.831               
G10  24053102.490 7    167597.995 7     -2820.298 7        46.927               
G11  22021580.363 8    133288.565 8     -2257.001 8        50.609               
G14  21025755.206 9     83284.140 9     -1407.760 9        54.635               
G18  20684938.688 9     87533.948 9     -1489.932 9        55.431               
G23  25060117.534 7   -161018.016 7      2705.759 7        45.833               
G25  24689677.981 7    -63767.685 7      1063.455 7        44.267               
> 2020 02 06 15 07 09.6000000  0  9                                             
G01  21035516.824 8    -28599.424 8       460.054 8        53.893               
G03  23055779.000 8   -162799.166 8      2813.855 8        50.056               
G08  25677698.310 7    163650.153 7     -2743.766 7        44.827               
G10  24053156.708 7    167881.261 7     -2819.852 7        46.845               
G11  22021624.824 8    133515.220 8     -2256.270 8        50.673               
G14  21025782.888 9     83425.982 9     -1408.041 9        54.683               
G18  20684968.692 9     87684.071 9     -1491.145 9        55.159               
G23  25060067.360 7   -161287.339 7      2703.262 7        45.779               
G25  24689658.882 7    -63873.219 7      1064.360 7        44.249               
> 2020 02 06 15 07 09.7000000  0  9                                             
G01  21035509.547 9    -28644.729 9       459.377 9        54.148               
G03  23055726.318 8   -163079.561 8      2811.696 8        50.191               
G08  25677752.145 7    163925.189 7     -2742.459 7        44.827               
G10  24053210.400 7    168164.205 7     -2818.648 7        46.757               
G11  22021667.795 8    133741.559 8     -2256.819 8        50.652               
G14  21025810.205 9     83567.506 9     -1407.591 9        54.735               
G18  20684997.690 9     87833.885 9     -1491.184 9        55.074               
G23  25060015.339 7   -161556.988 7      2707.626 7        45.839               
G25  24689640.026 7    -63979.065 7      1066.063 7        44.284               
> 2020 02 06 15 07 09.8000000  0  9                                             
G01  21035501.077 9    -28690.933 9       459.195 9        54.268               
G03  23055672.462 8   -163360.865 8      2811.809 8        50.383               
G08  25677802.661 7    164199.304 7     -2745.428 7        44.810               
G10  24053264.937 7    168446.244 7     -2819.043 7        46.676               
G11  22021710.824 8    133966.991 8     -2255.326 8        50.632               
G14  21025837.385 9     83708.127 9     -1408.818 9        54.930               
G18  20685026.549 9     87982.795 9     -1492.022 9        55.104               
G23  25059963.663 7   -161827.546 7      2706.751 7        45.740               
G25  24689619.817 7    -64085.808 7      1070.697 7        44.205               
> 2020 02 06 15 07 09.9000000  0  9                                             
G01  21035491.962 9    -28737.583 9       460.038 9        54.404               
G03  23055619.067 8   -163642.617 8      2811.110 8        50.258               
G08  25677854.908 7    164472.969 7     -2743.763 7        44.639               
G10  24053317.880 7    168727.835 7     -2823.160 7        46.582               
G11  22021752.332 8    134191.984 8     -2256.633 8        50.505               
G14  21025863.614 9     83848.300 9     -1407.975 9        55.155               
G18  20685052.957 9     88131.258 9     -1491.185 9        55.212               
G23  25059911.447 7   -162098.549 7      2702.223 7        45.682               
G25  24689596.978 7    -64193.001 7      1067.271 7        44.060               
> 2020 02 06 15 07 10.0000000  0  9                                             
G01  21035483.189 9    -28783.445 9       459.581 9        54.691               
G03  23055565.478 8   -163923.596 8      2814.201 8        50.095               
G08  25677908.051 7    164747.410 7     -2741.933 7        44.474               
G10  24053371.720 7    169010.209 7     -2821.671 7        46.646               
G11  22021795.414 8    134417.754 8     -2257.561 8        50.336               
G14  21025890.793 9     83989.253 9     -1408.332 9        55.173               
G18  20685081.137 9     88280.509 9     -1490.042 9        55.226               
G23  25059860.664 7   -162368.766 7      2701.853 7        45.669               
G25  24689576.661 7    -64299.406 7      1062.157 7        43.889               
> 2020 02 06 15 07 10.1000000  0  9                                             
G01  21035473.212 9    -28830.474 9       459.331 9        54.853               
G03  23055511.097 8   -164205.731 8      2810.930 8        49.780               
G08  25677958.883 7    165020.674 7     -2745.674 7        44.310               
G10  24053424.714 7    169291.412 7     -2820.275 7        46.693               
G11  22021837.848 8    134642.365 8     -2255.406 8        50.278               
G14  21025915.662 9     84129.039 9     -1406.518 9        55.134               
G18  20685108.006 9     88428.598 9     -1491.925 9        55.191               
G23  25059807.534 7   -162640.161 7      2704.644 7        45.704               
G25  24689555.553 7    -64406.976 7      1059.528 7        43.820               
> 2020 02 06 15 07 10.2000000  0  9                                             
G01  21035465.099 9    -28876.069 9       459.635 9        54.834               
G03  23055458.096 8   -164486.454 8      2810.547 8        49.596               
G08  25678010.773 7    165295.370 7     -2743.713 7        44.139               
G10  24053478.928 7    169574.044 7     -2820.886 7        46.686               
G11  22021880.965 8    134868.402 8     -2258.492 8        50.242               
G14  21025943.500 9     84270.252 9     -1408.378 9        55.061               
G18  20685137.400 9     88578.113 9     -1491.341 9        55.243               
G23  25059756.802 7   -162910.130 7      2707.956 7        45.684               
G25  24689536.932 7    -64513.122 7      1065.575 7        43.899               
> 2020 02 06 15 07 10.3000000  0  9                                             
G01  21035456.978 9    -28922.386 9       459.870 9        54.690               
G03  23055404.392 8   -164767.898 8      2810.702 8        49.437               
G08  25678062.710 7    165569.354 7     -2743.331 7        43.978               
G10  24053532.223 7    169855.942 7     -2821.984 7        46.661               
G11  22021923.592 8    135093.719 8     -2256.020 8        50.212               
G14  21025969.796 9     84410.746 9     -1408.012 9        55.103               
G18  20685164.302 9     88726.920 9     -1491.385 9        55.377               
G23  25059705.314 7   -163180.816 7      2700.795 7        45.601               
G25  24689516.142 7    -64619.985 7      1067.228 7        43.933               
> 2020 02 06 15 07 10.4000000  0  9                                             
G01  21035449.503 9    -28967.661 9       459.284 9        54.446               
G03  23055351.154 8   -165048.306 8      2813.350 8        49.106               
G08  25678114.453 7    165844.360 7     -2745.983 7        43.818               
G10  24053586.700 7    170138.887 7     -2824.383 7        46.548               
G11  22021967.455 8    135320.075 8     -2257.092 8        50.321               
G14  21025997.290 9     84552.273 9     -1408.228 9        55.107               
G18  20685194.424 9     88876.758 9     -1491.648 9        55.381               
G23  25059654.560 7   -163450.475 7      2704.859 7        45.618               
G25  24689497.106 7    -64725.811 7      1066.777 7        44.046               
> 2020 02 06 15 07 10.5000000  0  9                                             
G01  21035440.627 9    -29013.752 9       459.588 9        54.297               
G03  23055297.302 8   -165329.538 8      2810.592 8        48.890               
G08  25678166.404 7    166118.537 7     -2740.967 7        43.775               
G10  24053640.169 7    170420.993 7     -2821.207 7        46.510               
G11  22022009.953 8    135545.610 8     -2256.068 8        50.292               
G14  21026023.223 9     84692.978 9     -1408.500 9        55.075               
G18  20685221.983 9     89025.776 9     -1492.498 9        55.297               
G23  25059601.852 7   -163720.958 7      2706.819 7        45.580               
G25  24689475.615 7    -64832.451 7      1065.619 7        44.081               
> 2020 02 06 15 07 10.6000000  0  9                                             
G01  21035430.486 9    -29060.080 9       459.985 9        54.076               
G03  23055243.686 8   -165611.011 8      2811.363 8        48.705               
G08  25678218.804 7    166392.456 7     -2744.216 7        43.679               
G10  24053693.731 7    170702.884 7     -2822.734 7        46.504               
G11  22022052.722 8    135770.909 8     -2256.012 8        50.296               
G14  21026049.535 9     84833.447 9     -1409.149 9        55.028               
G18  20685250.779 9     89174.567 9     -1491.421 9        55.248               
G23  25059550.665 7   -163991.668 7      2701.175 7        45.481               
G25  24689454.681 7    -64939.331 7      1066.512 7        44.143               
> 2020 02 06 15 07 10.7000000  0  9                                             
G01  21035418.932 8    -29107.459 8       458.877 8        53.857               
G03  23055188.549 8   -165893.540 8      2807.005 8        48.455               
G08  25678270.828 7    166665.327 7     -2741.863 7        43.618               
G10  24053747.613 7    170983.705 7     -2824.490 7        46.496               
G11  22022093.559 8    135995.158 8     -2258.924 8        50.318               
G14  21026075.077 9     84972.858 9     -1408.864 9        54.952               
G18  20685276.446 9     89322.305 9     -1491.799 9        55.282               
G23  25059496.887 7   -164263.446 7      2696.539 7        45.402               
G25  24689432.244 7    -65047.264 7      1063.548 7        44.218               
> 2020 02 06 15 07 10.8000000  0  9                                             
G01  21035409.711 8    -29153.208 8       458.106 8        53.781               
G03  23055135.424 8   -166174.455 8      2813.873 8        48.120               
G08  25678324.721 7    166939.803 7     -2740.365 7        43.537               
G10  24053801.506 7    171266.153 7     -2823.032 7        46.482               
G11  22022136.588 8    136221.029 8     -2257.804 8        50.394               
G14  21026102.220 9     85113.892 9     -1408.711 9        55.017               
G18  20685306.036 9     89471.664 9     -1490.778 9        55.285               
G23  25059446.103 7   -164533.610 7      2705.893 7        45.309               
G25  24689411.891 7    -65153.569 7      1067.499 7        44.341               
> 2020 02 06 15 07 10.9000000  0  9                                             
G01  21035401.460 8    -29198.441 8       459.317 8        53.601               
G03  23055082.607 7   -166454.843 7      2807.878 7        47.846               
G08  25678377.778 7    167214.820 7     -2744.136 7        43.451               
G10  24053854.349 7    171549.109 7     -2825.047 7        46.413               
G11  22022181.050 8    136447.419 8     -2257.190 8        50.376               
G14  21026129.402 9     85255.443 9     -1409.613 9        54.993               
G18  20685334.863 9     89621.550 9     -1492.105 9        55.302               
G23  25059396.055 7   -164803.250 7      2706.138 7        45.293               
G25  24689392.668 7    -65259.359 7      1064.545 7        44.511               
> 2020 02 06 15 07 11.0000000  0  9                                             
G01  21035393.716 8    -29243.648 8       459.570 8        53.569               
G03  23055030.423 7   -166735.218 7      2810.161 7        47.587               
G08  25678430.627 7    167489.851 7     -2743.037 7        43.372               
G10  24053908.056 7    171832.087 7     -2820.456 7        46.369               
G11  22022224.357 8    136673.831 8     -2255.803 8        50.330               
G14  21026157.146 9     85397.018 9     -1409.061 9        54.899               
G18  20685365.162 9     89771.456 9     -1491.075 9        55.306               
G23  25059345.979 7   -165072.868 7      2703.883 7        45.341               
G25  24689372.380 7    -65365.117 7      1067.089 7        44.558               
> 2020 02 06 15 07 11.1000000  0  9                                             
G01  21035385.996 8    -29289.004 8       459.390 8        53.639               
G03  23054977.530 7   -167015.750 7      2809.563 7        47.463               
G08  25678481.286 7    167764.709 7     -2745.060 7        43.339               
G10  24053961.037 7    172114.921 7     -2826.847 7        46.336               
G11  22022268.315 8    136900.095 8     -2255.854 8        50.335               
G14  21026185.236 9     85538.434 9     -1409.180 9        54.924               
G18  20685392.465 9     89921.218 9     -1492.451 9        55.539               
G23  25059295.320 7   -165342.648 7      2704.251 7        45.429               
G25  24689352.562 7    -65471.040 7      1061.835 7        44.505               
> 2020 02 06 15 07 11.2000000  0  9                                             
G01  21035377.528 8    -29335.189 8       458.549 8        53.826               
G03  23054923.443 7   -167297.116 7      2810.869 7        47.389               
G08  25678533.627 7    168038.716 7     -2740.518 7        43.226               
G10  24054016.166 7    172396.911 7     -2823.413 7        46.340               
G11  22022311.400 8    137125.526 8     -2256.856 8        50.399               
G14  21026211.702 9     85679.020 9     -1408.859 9        55.019               
G18  20685422.845 9     90070.144 9     -1491.752 9        55.778               
G23  25059243.253 7   -165613.256 7      2705.066 7        45.387               
G25  24689333.481 7    -65577.781 7      1064.041 7        44.456               
> 2020 02 06 15 07 11.3000000  0  9                                             
G01  21035369.297 8    -29380.573 8       459.097 8        53.937               
G03  23054870.182 7   -167577.687 7      2812.704 7        47.401               
G08  25678585.882 7    168313.540 7     -2741.273 7        43.212               
G10  24054069.779 7    172679.696 7     -2822.578 7        46.404               
G11  22022354.559 8    137351.759 8     -2256.941 8        50.254               
G14  21026238.941 9     85820.406 9     -1410.061 9        55.088               
G18  20685451.049 9     90219.876 9     -1492.778 9        55.787               
G23  25059192.225 7   -165883.066 7      2701.782 7        45.359               
G25  24689314.367 7    -65683.726 7      1064.493 7        44.571               
> 2020 02 06 15 07 11.4000000  0  9                                             
G01  21035361.355 9    -29425.961 9       459.390 9        54.058               
G03  23054816.888 7   -167858.270 7      2811.819 7        47.381               
G08  25678638.355 7    168588.345 7     -2742.816 7        43.239               
G10  24054123.896 7    172962.481 7     -2822.847 7        46.410               
G11  22022398.474 8    137577.984 8     -2257.514 8        50.149               
G14  21026265.826 9     85961.781 9     -1409.544 9        54.874               
G18  20685481.168 9     90369.600 9     -1491.098 9        55.735               
G23  25059141.219 7   -166152.891 7      2702.261 7        45.431               
G25  24689294.793 7    -65789.676 7      1067.043 7        44.722               
> 2020 02 06 15 07 11.5000000  0  9                                             
G01  21035353.287 9    -29471.730 9       457.995 9        54.188               
G03  23054763.629 7   -168139.236 7      2809.667 7        47.256               
G08  25678687.200 7    168862.770 7     -2743.841 7        43.403               
G10  24054177.547 7    173244.863 7     -2822.393 7        46.531               
G11  22022440.974 8    137803.823 8     -2256.100 8        50.125               
G14  21026293.692 9     86102.765 9     -1407.552 9        54.539               
G18  20685508.141 9     90518.947 9     -1492.613 9        55.625               
G23  25059090.229 7   -166423.105 7      2703.266 7        45.492               
G25  24689274.716 7    -65896.007 7      1059.057 7        44.657               
> 2020 02 06 15 07 11.6000000  0  9                                             
G01  21035345.235 9    -29517.780 9       458.465 9        54.272               
G03  23054710.566 7   -168420.491 7      2809.234 7        47.238               
G08  25678739.188 7    169136.888 7     -2744.518 7        43.641               
G10  24054231.341 7    173526.981 7     -2827.184 7        46.623               
G11  22022483.474 8    138029.385 8     -2257.327 8        50.048               
G14  21026320.074 9     86243.472 9     -1408.219 9        54.166               
G18  20685537.382 9     90668.010 9     -1492.033 9        55.692               
G23  25059038.095 7   -166693.604 7      2703.048 7        45.679               
G25  24689253.388 7    -66002.629 7      1065.094 7        44.588               
> 2020 02 06 15 07 11.7000000  0  9                                             
G01  21035336.203 9    -29564.329 9       458.565 9        54.523               
G03  23054655.574 7   -168702.253 7      2811.367 7        47.371               
G08  25678792.733 7    169410.509 7     -2743.425 7        43.925               
G10  24054285.743 7    173808.582 7     -2826.490 7        46.672               
G11  22022525.923 8    138254.441 8     -2256.174 8        49.907               
G14  21026346.333 8     86383.675 8     -1409.279 8        53.866               
G18  20685563.998 9     90816.570 9     -1492.272 9        55.658               
G23  25058985.801 7   -166964.605 7      2701.850 7        45.799               
G25  24689231.973 7    -66109.750 7      1066.744 7        44.629               
> 2020 02 06 15 07 11.8000000  0  9                                             
G01  21035327.442 9    -29610.061 9       459.666 9        54.778               
G03  23054602.176 7   -168983.197 7      2809.117 7        47.495               
G08  25678845.012 7    169684.932 7     -2744.338 7        44.200               
G10  24054339.667 7    174090.996 7     -2821.247 7        46.758               
G11  22022568.571 8    138480.315 8     -2259.065 8        49.846               
G14  21026372.345 8     86524.689 8     -1408.331 8        53.709               
G18  20685593.602 9     90965.950 9     -1493.053 9        55.743               
G23  25058934.244 7   -167234.798 7      2702.445 7        45.969               
G25  24689211.918 7    -66216.048 7      1065.403 7        44.635               
> 2020 02 06 15 07 11.9000000  0  9                                             
G01  21035317.375 9    -29656.535 9       458.632 9        54.848               
G03  23054548.080 7   -169264.894 7      2809.739 7        47.607               
G08  25678897.380 7    169958.612 7     -2741.660 7        44.449               
G10  24054392.803 7    174372.664 7     -2822.304 7        46.749               
G11  22022610.914 8    138705.445 8     -2258.727 8        49.843               
G14  21026398.838 8     86664.958 8     -1408.945 8        53.538               
G18  20685619.756 9     91114.593 9     -1492.567 9        55.741               
G23  25058882.042 7   -167505.736 7      2702.431 7        46.074               
G25  24689191.702 7    -66323.096 7      1062.215 7        44.677               
> 2020 02 06 15 07 12.0000000  0  9                                             
G01  21035307.478 9    -29702.457 9       458.482 9        55.018               
G03  23054494.690 7   -169546.044 7      2809.942 7        47.718               
G08  25678948.917 7    170232.841 7     -2741.567 7        44.578               
G10  24054446.305 7    174654.879 7     -2824.476 7        46.801               
G11  22022654.249 8    138931.125 8     -2258.383 8        49.923               
G14  21026425.519 8     86805.776 8     -1407.971 8        53.499               
G18  20685648.974 9     91263.781 9     -1492.461 9        55.703               
G23  25058830.867 7   -167776.128 7      2703.763 7        46.137               
G25  24689172.209 7    -66429.593 7      1065.454 7        44.743               
> 2020 02 06 15 07 12.1000000  0  9                                             
G01  21035296.563 9    -29749.269 9       457.264 9        55.099               
G03  23054440.389 7   -169828.086 7      2810.725 7        47.804               
G08  25678999.883 7    170506.161 7     -2743.683 7        44.668               
G10  24054499.504 7    174936.203 7     -2819.174 7        46.884               
G11  22022695.779 8    139155.913 8     -2257.938 8        50.001               
G14  21026451.200 8     86945.699 8     -1407.564 8        53.508               
G18  20685675.298 9     91412.085 9     -1492.254 9        55.805               
G23  25058777.818 7   -168047.412 7      2703.732 7        46.190               
G25  24689149.358 7    -66536.973 7      1061.921 7        44.770               
> 2020 02 06 15 07 12.2000000  0  9                                             
G01  21035288.521 9    -29794.224 9       458.832 9        55.072               
G03  23054387.263 7   -170108.285 7      2811.180 7        47.908               
G08  25679053.881 7    170781.334 7     -2743.065 7        44.892               
G10  24054553.521 7    175219.366 7     -2821.554 7        46.989               
G11  22022740.004 8    139382.556 8     -2257.598 8        50.206               
G14  21026478.699 8     87087.474 8     -1407.772 8        53.486               
G18  20685705.299 9     91562.246 9     -1492.974 9        55.971               
G23  25058727.979 7   -168316.846 7      2701.944 7        46.349               
G25  24689129.969 7    -66642.502 7      1060.030 7        44.860               
> 2020 02 06 15 07 12.3000000  0  9                                             
G01  21035279.759 9    -29840.476 9       459.050 9        54.966               
G03  23054333.167 7   -170389.782 7      2810.043 7        47.982               
G08  25679108.858 7    171055.196 7     -2742.410 7        45.060               
G10  24054606.818 7    175501.248 7     -2820.516 7        46.884               
G11  22022782.490 8    139607.901 8     -2257.940 8        50.403               
G14  21026504.943 8     87227.951 8     -1409.364 8        53.444               
G18  20685731.542 9     91711.106 9     -1492.696 9        55.828               
G23  25058676.600 7   -168587.590 7      2703.746 7        46.421               
G25  24689108.502 7    -66749.338 7      1063.000 7        45.029               
> 2020 02 06 15 07 12.4000000  0  9                                             
G01  21035272.615 9    -29885.398 9       457.129 9        54.787               
G03  23054280.958 8   -170669.953 8      2810.117 8        48.186               
G08  25679162.148 7    171330.385 7     -2740.194 7        45.179               
G10  24054660.912 7    175784.440 7     -2824.333 7        46.918               
G11  22022826.542 8    139834.573 8     -2256.627 8        50.360               
G14  21026533.305 8     87369.752 8     -1408.297 8        53.501               
G18  20685762.371 9     91861.293 9     -1492.145 9        55.658               
G23  25058626.481 7   -168857.006 7      2701.680 7        46.443               
G25  24689089.904 7    -66854.834 7      1065.517 7        45.151               
> 2020 02 06 15 07 12.5000000  0  9                                             
G01  21035263.653 9    -29931.939 9       458.696 9        54.711               
G03  23054227.591 8   -170951.756 8      2810.388 8        48.314               
G08  25679212.260 7    171603.945 7     -2743.864 7        45.146               
G10  24054713.901 7    176066.015 7     -2824.331 7        46.922               
G11  22022869.256 8    140059.626 8     -2259.086 8        50.282               
G14  21026559.312 8     87509.930 8     -1409.393 8        53.668               
G18  20685790.200 9     92009.866 9     -1493.440 9        55.538               
G23  25058573.686 7   -169128.047 7      2702.719 7        46.385               
G25  24689069.988 7    -66961.955 7      1061.977 7        45.289               
> 2020 02 06 15 07 12.6000000  0  9                                             
G01  21035256.387 9    -29976.517 9       458.767 9        54.671               
G03  23054174.866 8   -171231.596 8      2809.502 8        48.451               
G08  25679265.749 7    171879.467 7     -2741.040 7        45.095               
G10  24054768.444 7    176349.541 7     -2820.825 7        47.015               
G11  22022912.988 8    140286.639 8     -2257.889 8        50.280               
G14  21026587.427 8     87652.067 8     -1409.727 8        53.982               
G18  20685820.817 9     92160.401 9     -1492.506 9        55.459               
G23  25058522.820 7   -169397.124 7      2703.457 7        46.346               
G25  24689052.019 7    -67067.117 7      1063.526 7        45.323               
> 2020 02 06 15 07 12.7000000  0  9                                             
G01  21035246.144 9    -30023.339 9       458.098 9        54.650               
G03  23054121.274 8   -171513.684 8      2812.032 8        48.599               
G08  25679316.261 7    172152.728 7     -2744.295 7        45.039               
G10  24054820.422 7    176630.830 7     -2823.205 7        47.026               
G11  22022955.049 8    140511.406 8     -2258.508 8        50.258               
G14  21026612.440 9     87791.957 9     -1408.575 9        54.305               
G18  20685846.991 9     92308.693 9     -1492.696 9        55.405               
G23  25058469.924 7   -169668.451 7      2701.804 7        46.237               
G25  24689030.537 7    -67174.517 7      1062.585 7        45.336               
> 2020 02 06 15 07 12.8000000  0  9                                             
G01  21035237.995 9    -30068.897 9       456.966 9        54.664               
G03  23054067.451 8   -171794.521 8      2811.936 8        48.701               
G08  25679368.330 7    172427.245 7     -2741.438 7        45.067               
G10  24054874.921 7    176913.379 7     -2822.106 7        47.107               
G11  22022998.880 8    140737.437 8     -2256.915 8        50.185               
G14  21026640.189 9     87933.108 9     -1409.580 9        54.459               
G18  20685875.848 9     92458.246 9     -1492.921 9        55.473               
G23  25058418.996 7   -169938.521 7      2704.157 7        46.127               
G25  24689010.057 7    -67280.655 7      1060.151 7        45.349               
> 2020 02 06 15 07 12.9000000  0  9                                             
G01  21035229.432 9    -30115.332 9       458.748 9        54.612               
G03  23054013.625 8   -172076.235 8      2809.832 8        48.741               
G08  25679417.502 7    172700.881 7     -2743.138 7        45.083               
G10  24054928.417 7    177195.035 7     -2827.323 7        47.041               
G11  22023040.797 8    140962.591 8     -2256.605 8        50.003               
G14  21026666.256 9     88073.377 9     -1409.199 9        54.646               
G18  20685902.720 9     92606.922 9     -1493.327 9        55.647               
G23  25058366.278 7   -170209.484 7      2704.951 7        46.032               
G25  24688987.413 7    -67387.678 7      1058.529 7        45.412               
> 2020 02 06 15 07 13.0000000  0  9                                             
G01  21035222.070 9    -30160.634 9       457.828 9        54.656               
G03  23053960.376 8   -172356.821 8      2810.525 8        48.796               
G08  25679472.360 7    172975.647 7     -2743.525 7        45.037               
G10  24054983.060 7    177477.814 7     -2822.839 7        47.057               
G11  22023084.201 8    141188.870 8     -2257.000 8        50.012               
G14  21026693.811 9     88214.773 9     -1409.281 9        54.914               
G18  20685932.650 9     92756.734 9     -1493.726 9        55.898               
G23  25058315.888 7   -170479.311 7      2705.537 7        45.978               
G25  24688968.329 7    -67493.568 7      1059.644 7        45.325               
> 2020 02 06 15 07 13.1000000  0  9                                             
G01  21035213.083 9    -30206.661 9       457.597 9        54.636               
G03  23053906.127 8   -172638.146 8      2810.760 8        48.868               
G08  25679523.324 7    173249.657 7     -2743.817 7        44.901               
G10  24055036.955 7    177759.881 7     -2821.738 7        47.067               
G11  22023126.963 8    141414.426 8     -2257.954 8        49.948               
G14  21026719.704 9     88355.440 9     -1408.960 9        54.976               
G18  20685960.545 9     92905.817 9     -1493.703 9        55.741               
G23  25058264.766 7   -170749.872 7      2705.990 7        46.003               
G25  24688947.567 7    -67600.183 7      1060.356 7        45.234               
> 2020 02 06 15 07 13.2000000  0  9                                             
G01  21035204.106 9    -30252.136 9       456.907 9        54.650               
G03  23053852.942 8   -172918.922 8      2809.584 8        48.973               
G08  25679577.299 7    173524.234 7     -2744.734 7        44.809               
G10  24055091.145 7    178042.484 7     -2821.102 7        47.083               
G11  22023170.110 8    141640.531 8     -2257.779 8        49.883               
G14  21026747.448 9     88496.657 9     -1409.899 9        54.967               
G18  20685990.023 9     93055.457 9     -1493.151 9        55.460               
G23  25058213.029 7   -171019.883 7      2704.255 7        45.939               
G25  24688928.137 7    -67706.252 7      1063.905 7        45.242               
> 2020 02 06 15 07 13.3000000  0  9                                             
G01  21035193.818 9    -30298.239 9       458.041 9        54.685               
G03  23053799.250 8   -173200.326 8      2811.872 8        48.925               
G08  25679628.945 7    173798.175 7     -2745.552 7        44.715               
G10  24055143.613 7    178324.454 7     -2821.876 7        47.023               
G11  22023213.053 8    141866.009 8     -2259.415 8        49.797               
G14  21026773.898 9     88637.244 9     -1410.730 9        54.787               
G18  20686016.384 9     93204.459 9     -1493.343 9        55.231               
G23  25058161.624 7   -171290.527 7      2704.901 7        45.974               
G25  24688906.930 7    -67812.952 7      1063.836 7        45.267               
> 2020 02 06 15 07 13.4000000  0  9                                             
G01  21035184.648 9    -30343.683 9       457.924 9        54.794               
G03  23053746.158 8   -173481.079 8      2810.168 8        48.970               
G08  25679681.012 7    174072.750 7     -2743.759 7        44.690               
G10  24055197.770 7    178607.078 7     -2823.242 7        47.010               
G11  22023255.775 8    142092.141 8     -2258.324 8        49.822               
G14  21026801.252 9     88778.483 9     -1408.624 9        54.534               
G18  20686046.114 9     93354.132 9     -1493.180 9        55.099               
G23  25058110.425 7   -171560.520 7      2700.208 7        46.057               
G25  24688886.914 7    -67918.985 7      1066.168 7        45.242               
> 2020 02 06 15 07 13.5000000  0  9                                             
G01  21035175.437 9    -30389.317 9       457.893 9        54.791               
G03  23053692.113 8   -173762.025 8      2810.181 8        49.163               
G08  25679733.056 7    174347.134 7     -2746.592 7        44.713               
G10  24055251.547 7    178889.507 7     -2822.499 7        47.183               
G11  22023298.741 8    142318.081 8     -2257.326 8        49.907               
G14  21026827.529 9     88919.527 9     -1410.308 9        54.402               
G18  20686074.142 9     93503.606 9     -1493.006 9        54.938               
G23  25058060.294 7   -171830.708 7      2701.696 7        46.065               
G25  24688866.588 7    -68025.215 7      1061.656 7        45.213               
> 2020 02 06 15 07 13.6000000  0  9                                             
G01  21035168.097 9    -30434.102 9       458.532 9        54.813               
G03  23053640.691 8   -174042.135 8      2810.845 8        49.250               
G08  25679784.524 7    174622.366 7     -2742.410 7        44.688               
G10  24055304.516 7    179172.794 7     -2824.225 7        47.272               
G11  22023342.954 8    142544.874 8     -2257.651 8        49.964               
G14  21026855.803 9     89061.420 9     -1409.615 9        54.265               
G18  20686104.721 9     93653.936 9     -1493.573 9        54.715               
G23  25058010.891 7   -172100.049 7      2705.855 7        46.165               
G25  24688848.313 7    -68130.590 7      1061.797 7        45.134               
> 2020 02 06 15 07 13.7000000  0  9                                             
G01  21035160.462 9    -30479.271 9       456.123 9        54.725               
G03  23053587.133 8   -174322.635 8      2809.241 8        49.161               
G08  25679837.947 7    174897.196 7     -2742.727 7        44.772               
G10  24055359.155 7    179455.675 7     -2822.670 7        47.324               
G11  22023385.692 8    142771.277 8     -2257.790 8        49.993               
G14  21026883.799 9     89202.921 9     -1408.913 9        54.126               
G18  20686133.003 9     93803.879 9     -1494.001 9        54.581               
G23  25057960.263 7   -172369.787 7      2703.355 7        46.348               
G25  24688828.777 7    -68236.363 7      1063.520 7        45.141               
> 2020 02 06 15 07 13.8000000  0  9                                             
G01  21035151.378 9    -30525.647 9       457.043 9        54.667               
G03  23053533.036 8   -174604.344 8      2809.337 8        49.192               
G08  25679889.796 7    175170.817 7     -2743.961 7        44.787               
G10  24055413.112 7    179737.348 7     -2824.405 7        47.358               
G11  22023427.856 8    142996.471 8     -2257.204 8        50.131               
G14  21026909.684 9     89343.213 9     -1409.098 9        54.163               
G18  20686160.907 9     93952.611 9     -1493.139 9        54.487               
G23  25057907.704 7   -172640.735 7      2702.223 7        46.379               
G25  24688807.560 7    -68343.330 7      1061.543 7        45.112               
> 2020 02 06 15 07 13.9000000  0  9                                             
G01  21035143.533 9    -30571.025 9       456.646 9        54.611               
G03  23053479.339 8   -174885.060 8      2809.986 8        49.121               
G08  25679941.794 7    175445.433 7     -2745.061 7        44.832               
G10  24055467.022 7    180020.016 7     -2823.259 7        47.538               
G11  22023471.313 8    143222.660 8     -2258.038 8        50.226               
G14  21026936.612 9     89484.499 9     -1410.601 9        54.176               
G18  20686189.140 9     94102.342 9     -1494.663 9        54.482               
G23  25057857.152 7   -172910.689 7      2704.454 7        46.520               
G25  24688787.528 7    -68449.307 7      1059.676 7        45.150               
> 2020 02 06 15 07 14.0000000  0  9                                             
G01  21035134.535 9    -30617.003 9       455.171 9        54.506               
G03  23053425.847 8   -175166.388 8      2813.084 8        49.010               
G08  25679994.194 7    175719.416 7     -2743.929 7        44.940               
G10  24055520.584 7    180302.078 7     -2823.562 7        47.666               
G11  22023513.831 8    143448.248 8     -2257.985 8        50.394               
G14  21026962.655 9     89625.182 9     -1409.233 9        54.095               
G18  20686217.720 9     94251.483 9     -1494.311 9        54.332               
G23  25057803.999 7   -173181.246 7      2704.171 7        46.513               
G25  24688767.451 7    -68555.897 7      1068.064 7        45.214               
> 2020 02 06 15 07 14.1000000  0  9                                             
G01  21035125.975 9    -30662.694 9       456.273 9        54.329               
G03  23053372.383 8   -175447.427 8      2809.616 8        48.813               
G08  25680049.785 7    175993.692 7     -2745.144 7        45.093               
G10  24055574.048 7    180584.427 7     -2823.761 7        47.794               
G11  22023557.521 8    143674.122 8     -2260.097 8        50.482               
G14  21026989.816 8     89766.146 8     -1408.960 8        53.969               
G18  20686245.864 9     94400.892 9     -1493.682 9        54.270               
G23  25057752.822 7   -173451.526 7      2705.078 7        46.504               
G25  24688748.456 7    -68662.183 7      1064.862 7        45.165               
> 2020 02 06 15 07 14.2000000  0  9                                             
G01  21035117.198 9    -30708.985 9       456.974 9        54.172               
G03  23053318.754 8   -175729.072 8      2811.042 8        48.601               
G08  25680100.707 7    176267.365 7     -2743.697 7        45.154               
G10  24055627.794 7    180866.170 7     -2822.184 7        47.918               
G11  22023599.437 8    143899.398 8     -2257.549 8        50.527               
G14  21027015.919 8     89906.510 8     -1409.623 8        53.956               
G18  20686273.807 9     94549.720 9     -1493.944 9        54.422               
G23  25057701.641 7   -173722.401 7      2704.075 7        46.477               
G25  24688727.027 7    -68769.079 7      1060.257 7        45.054               
> 2020 02 06 15 07 14.3000000  0  9                                             
G01  21035109.534 9    -30754.422 9       457.331 9        54.089               
G03  23053265.077 8   -176009.875 8      2811.423 8        48.438               
G08  25680153.065 7    176541.894 7     -2745.467 7        45.088               
G10  24055681.921 8    181148.754 8     -2825.533 8        48.113               
G11  22023643.022 8    144125.518 8     -2257.377 8        50.649               
G14  21027042.956 9     90047.719 9     -1409.225 9        54.028               
G18  20686302.471 9     94699.386 9     -1495.300 9        54.474               
G23  25057649.573 7   -173992.440 7      2703.821 7        46.454               
G25  24688707.820 7    -68875.119 7      1060.318 7        44.840               
> 2020 02 06 15 07 14.4000000  0  9                                             
G01  21035100.616 8    -30800.453 8       455.906 8        53.989               
G03  23053212.274 8   -176291.274 8      2811.096 8        48.363               
G08  25680202.562 7    176815.799 7     -2741.585 7        45.064               
G10  24055734.741 8    181430.748 8     -2823.755 8        48.251               
G11  22023686.335 8    144351.044 8     -2257.628 8        50.629               
G14  21027068.758 9     90188.331 9     -1408.972 9        54.179               
G18  20686331.990 9     94848.463 9     -1494.686 9        54.446               
G23  25057597.234 7   -174263.074 7      2705.697 7        46.389               
G25  24688685.251 7    -68981.758 7      1062.305 7        44.687               
> 2020 02 06 15 07 14.5000000  0  9                                             
G01  21035091.987 8    -30845.704 8       456.520 8        53.842               
G03  23053158.668 8   -176571.899 8      2811.023 8        48.287               
G08  25680254.026 7    177090.491 7     -2739.981 7        45.060               
G10  24055789.261 8    181713.511 8     -2821.341 8        48.477               
G11  22023729.973 8    144577.357 8     -2256.983 8        50.543               
G14  21027096.975 9     90329.725 9     -1408.929 9        54.306               
G18  20686360.992 9     94998.328 9     -1494.297 9        54.415               
G23  25057543.521 7   -174532.928 7      2704.502 7        46.288               
G25  24688664.649 7    -69087.616 7      1064.468 7        44.672               
> 2020 02 06 15 07 14.6000000  0  9                                             
G01  21035082.140 8    -30891.500 8       456.809 8        53.603               
G03  23053104.882 8   -176853.071 8      2811.064 8        48.364               
G08  25680306.417 7    177364.624 7     -2743.777 7        44.987               
G10  24055842.885 8    181995.730 8     -2825.074 8        48.602               
G11  22023772.804 8    144803.120 8     -2259.329 8        50.422               
G14  21027123.617 9     90470.568 9     -1409.694 9        54.349               
G18  20686389.118 9     95147.645 9     -1494.955 9        54.311               
G23  25057492.343 7   -174803.336 7      2705.554 7        46.147               
G25  24688644.832 7    -69194.019 7      1061.704 7        44.618               
> 2020 02 06 15 07 14.7000000  0  9                                             
G01  21035072.083 8    -30937.459 8       455.595 8        53.404               
G03  23053050.885 8   -177134.428 8      2811.286 8        48.528               
G08  25680360.867 7    177638.587 7     -2742.048 7        44.988               
G10  24055896.549 8    182277.773 8     -2821.482 8        48.631               
G11  22023815.586 8    145028.710 8     -2257.202 8        50.280               
G14  21027150.424 9     90611.237 9     -1409.713 9        54.330               
G18  20686416.728 9     95296.793 9     -1493.932 9        54.189               
G23  25057440.884 7   -175073.928 7      2701.716 7        46.082               
G25  24688624.553 7    -69300.596 7      1063.830 7        44.642               
> 2020 02 06 15 07 14.8000000  0  9                                             
G01  21035063.502 8    -30982.692 8       456.496 8        53.201               
G03  23052997.577 8   -177415.048 8      2811.903 8        48.660               
G08  25680413.201 7    177913.260 7     -2742.343 7        45.029               
G10  24055950.205 8    182560.544 8     -2822.946 8        48.724               
G11  22023858.753 8    145255.026 8     -2257.694 8        50.171               
G14  21027176.973 9     90752.634 9     -1409.790 9        54.455               
G18  20686445.815 9     95446.672 9     -1495.174 9        54.167               
G23  25057389.470 7   -175343.783 7      2706.039 7        46.001               
G25  24688605.787 7    -69406.442 7      1065.628 7        44.572               
> 2020 02 06 15 07 14.9000000  0  9                                             
G01  21035054.625 8    -31028.535 8       457.275 8        53.083               
G03  23052943.920 8   -177696.291 8      2809.267 8        48.768               
G08  25680465.115 7    178187.317 7     -2742.950 7        45.151               
G10  24056003.744 8    182842.694 8     -2821.165 8        48.769               
G11  22023901.839 8    145480.732 8     -2259.162 8        50.090               
G14  21027203.923 9     90893.412 9     -1409.835 9        54.612               
G18  20686473.498 9     95595.936 9     -1495.998 9        54.162               
G23  25057337.743 7   -175614.250 7      2699.869 7        45.749               
G25  24688586.384 7    -69512.898 7      1063.305 7        44.553               
> 2020 02 06 15 07 15.0000000  0  9                                             
G01  21035045.916 8    -31074.384 8       456.657 8        53.041               
G03  23052890.753 8   -177977.545 8      2811.533 8        48.794               
G08  25680516.856 7    178461.368 7     -2740.820 7        45.193               
G10  24056057.452 8    183124.848 8     -2825.806 8        48.774               
G11  22023944.218 8    145706.440 8     -2259.089 8        50.013               
G14  21027230.791 9     91034.185 9     -1410.498 9        54.811               
G18  20686502.045 9     95745.196 9     -1494.304 9        54.153               
G23  25057286.166 7   -175884.742 7      2708.451 7        45.482               
G25  24688565.667 7    -69619.365 7      1063.520 7        44.727               
> 2020 02 06 15 07 15.1000000  0  9                                             
G01  21035036.894 8    -31120.637 8       455.957 8        53.082               
G03  23052836.648 8   -178259.205 8      2810.964 8        48.792               
G08  25680568.625 7    178734.999 7     -2743.117 7        45.115               
G10  24056111.133 8    183406.581 8     -2822.090 8        48.771               
G11  22023986.391 8    145931.732 8     -2257.411 8        50.004               
G14  21027257.114 9     91174.550 9     -1408.905 9        55.062               
G18  20686528.869 9     95894.057 9     -1494.634 9        54.264               
G23  25057235.152 7   -176155.640 7      2704.865 7        45.232               
G25  24688543.852 7    -69726.235 7      1063.898 7        44.747               
> 2020 02 06 15 07 15.2000000  0  9                                             
G01  21035028.574 8    -31166.624 8       457.128 8        53.130               
G03  23052783.012 8   -178540.609 8      2811.019 8        48.779               
G08  25680620.113 7    179008.898 7     -2744.881 7        45.082               
G10  24056164.568 8    183688.579 8     -2824.720 8        48.820               
G11  22024029.820 8    146157.291 8     -2258.866 8        50.094               
G14  21027283.050 9     91315.176 9     -1409.412 9        55.298               
G18  20686557.449 9     96043.179 9     -1494.957 9        54.379               
G23  25057181.499 7   -176426.268 7      2696.698 7        45.102               
G25  24688522.970 7    -69832.836 7      1064.397 7        44.787               
> 2020 02 06 15 07 15.3000000  0  9                                             
G01  21035020.115 8    -31211.805 8       455.800 8        53.234               
G03  23052729.702 8   -178821.215 8      2809.996 8        48.733               
G08  25680673.284 7    179283.585 7     -2744.176 7        45.145               
G10  24056218.794 8    183971.369 8     -2823.950 8        48.986               
G11  22024072.252 8    146383.649 8     -2260.960 8        49.997               
G14  21027310.543 9     91456.600 9     -1409.716 9        55.508               
G18  20686586.068 9     96193.100 9     -1494.521 9        54.414               
G23  25057131.727 7   -176696.111 7      2704.368 7        44.938               
G25  24688503.236 7    -69938.646 7      1064.494 7        44.762               
> 2020 02 06 15 07 15.4000000  0  9                                             
G01  21035012.310 8    -31256.769 8       456.700 8        53.174               
G03  23052676.831 8   -179101.601 8      2810.624 8        48.722               
G08  25680726.180 7    179558.488 7     -2744.037 7        45.096               
G10  24056272.887 8    184254.386 8     -2825.096 8        49.102               
G11  22024116.248 8    146610.230 8     -2259.742 8        49.896               
G14  21027338.654 9     91598.245 9     -1409.451 9        55.585               
G18  20686615.895 9     96343.249 9     -1494.615 9        54.327               
G23  25057083.752 7   -176965.725 7      2701.504 7        44.850               
G25  24688485.227 7    -70044.228 7      1058.032 7        44.684               
> 2020 02 06 15 07 15.5000000  0  9                                             
G01  21035004.577 8    -31302.169 8       455.010 8        53.057               
G03  23052623.353 8   -179382.438 8      2810.895 8        48.789               
G08  25680777.272 7    179832.942 7     -2740.735 7        44.840               
G10  24056326.641 8    184536.950 8     -2824.398 8        49.092               
G11  22024159.514 8    146836.372 8     -2259.372 8        49.905               
G14  21027365.444 9     91739.444 9     -1409.073 9        55.664               
G18  20686644.221 9     96492.958 9     -1494.149 9        54.133               
G23  25057034.134 7   -177235.793 7      2703.048 7        44.804               
G25  24688464.592 7    -70150.253 7      1063.044 7        44.524               
> 2020 02 06 15 07 15.6000000  0  9                                             
G01  21034997.154 8    -31347.528 8       455.734 8        52.996               
G03  23052569.632 8   -179663.235 8      2809.972 8        48.953               
G08  25680830.461 7    180107.432 7     -2740.475 7        44.752               
G10  24056380.849 8    184819.563 8     -2824.890 8        49.008               
G11  22024202.732 8    147062.549 8     -2258.970 8        50.002               
G14  21027392.384 9     91880.682 9     -1409.408 9        55.648               
G18  20686672.608 9     96642.708 9     -1494.941 9        54.098               
G23  25056981.395 7   -177505.818 7      2703.729 7        44.910               
G25  24688442.196 7    -70256.233 7      1066.528 7        44.442               
> 2020 02 06 15 07 15.7000000  0  9                                             
G01  21034988.472 8    -31393.426 8       454.764 8        52.954               
G03  23052516.420 8   -179944.580 8      2811.720 8        49.024               
G08  25680881.747 7    180381.365 7     -2741.293 7        44.715               
G10  24056433.761 8    185101.612 8     -2821.286 8        48.864               
G11  22024245.566 8    147288.189 8     -2259.768 8        50.157               
G14  21027418.136 9     92021.377 9     -1409.529 9        55.644               
G18  20686700.880 9     96791.917 9     -1495.109 9        54.203               
G23  25056930.364 7   -177776.396 7      2703.441 7        44.952               
G25  24688422.095 7    -70362.759 7      1062.444 7        44.501               
> 2020 02 06 15 07 15.8000000  0  9                                             
G01  21034979.907 8    -31438.635 8       456.071 8        52.890               
G03  23052463.093 8   -180225.243 8      2811.589 8        49.047               
G08  25680934.366 7    180655.985 7     -2742.255 7        44.771               
G10  24056487.791 8    185384.361 8     -2826.046 8        48.820               
G11  22024288.357 8    147514.513 8     -2258.314 8        50.307               
G14  21027446.023 9     92162.756 9     -1409.577 9        55.622               
G18  20686729.018 9     96941.816 9     -1494.715 9        54.226               
G23  25056880.057 7   -178046.290 7      2706.005 7        45.017               
G25  24688402.916 7    -70468.599 7      1065.702 7        44.668               
> 2020 02 06 15 07 15.9000000  0  9                                             
G01  21034969.440 8    -31484.785 8       456.073 8        52.822               
G03  23052409.205 8   -180506.844 8      2807.868 8        49.071               
G08  25680987.227 7    180929.653 7     -2742.900 7        44.735               
G10  24056541.492 8    185666.156 8     -2822.876 8        48.935               
G11  22024330.765 8    147739.897 8     -2260.544 8        50.453               
G14  21027472.045 9     92303.189 9     -1409.893 9        55.608               
G18  20686757.630 9     97090.774 9     -1496.185 9        54.203               
G23  25056829.009 7   -178317.124 7      2704.112 7        45.043               
G25  24688382.389 7    -70575.374 7      1061.358 7        44.798               
> 2020 02 06 15 07 16.0000000  0  9                                             
G01  21034959.290 8    -31530.680 8       456.761 8        52.829               
G03  23052355.293 8   -180788.209 8      2809.257 8        49.184               
G08  25681038.421 7    181203.572 7     -2740.338 7        44.723               
G10  24056594.902 8    185948.209 8     -2820.032 8        48.894               
G11  22024373.899 8    147965.529 8     -2258.434 8        50.565               
G14  21027498.633 9     92443.876 9     -1409.746 9        55.581               
G18  20686785.487 9     97239.990 9     -1495.713 9        54.409               
G23  25056776.706 7   -178587.707 7      2704.454 7        44.973               
G25  24688362.482 7    -70681.898 7      1058.418 7        44.920               
> 2020 02 06 15 07 16.1000000  0  9                                             
G01  21034949.994 8    -31576.182 8       454.777 8        52.862               
G03  23052301.896 8   -181069.179 8      2808.551 8        49.346               
G08  25681090.755 7    181477.872 7     -2742.562 7        44.682               
G10  24056648.683 8    186230.645 8     -2823.685 8        48.763               
G11  22024416.227 8    148191.558 8     -2258.782 8        50.464               
G14  21027525.093 9     92584.951 9     -1411.101 9        55.407               
G18  20686814.324 9     97389.592 9     -1495.088 9        54.427               
G23  25056723.845 7   -178857.909 7      2702.082 7        44.848               
G25  24688341.446 7    -70788.036 7      1064.030 7        45.003               
> 2020 02 06 15 07 16.2000000  0  9                                             
G01  21034942.027 8    -31621.106 8       456.338 8        52.942               
G03  23052249.775 8   -181349.573 8      2811.528 8        49.421               
G08  25681142.024 7    181752.754 7     -2744.103 7        44.692               
G10  24056701.864 8    186513.654 8     -2823.416 8        48.754               
G11  22024460.134 8    148418.167 8     -2260.828 8        50.619               
G14  21027553.436 9     92726.602 9     -1409.789 9        55.130               
G18  20686843.703 9     97539.782 9     -1494.976 9        54.365               
G23  25056672.653 7   -179127.544 7      2701.400 7        44.855               
G25  24688320.703 7    -70893.587 7      1057.020 7        45.140               
> 2020 02 06 15 07 16.3000000  0  9                                             
G01  21034932.070 8    -31668.177 8       456.337 8        53.086               
G03  23052194.574 8   -181632.126 8      2810.936 8        49.572               
G08  25681193.716 7    182025.462 7     -2741.011 7        44.674               
G10  24056756.308 8    186794.520 8     -2824.600 8        48.726               
G11  22024501.444 8    148642.616 8     -2260.000 8        50.751               
G14  21027578.556 9     92866.101 9     -1411.108 9        54.808               
G18  20686870.521 9     97687.819 9     -1496.938 9        54.237               
G23  25056620.240 7   -179399.318 7      2703.002 7        44.789               
G25  24688299.185 7    -71001.295 7      1063.877 7        45.295               
> 2020 02 06 15 07 16.4000000  0  9                                             
G01  21034923.885 8    -31713.747 8       455.401 8        53.332               
G03  23052141.091 8   -181913.186 8      2811.028 8        49.668               
G08  25681245.677 7    182299.675 7     -2742.435 7        44.743               
G10  24056810.056 8    187076.867 8     -2823.552 8        48.576               
G11  22024544.632 8    148868.571 8     -2260.074 8        50.725               
G14  21027605.376 9     93007.096 9     -1410.685 9        54.595               
G18  20686898.949 9     97837.352 9     -1495.003 9        54.125               
G23  25056566.828 7   -179669.602 7      2698.234 7        44.867               
G25  24688279.510 7    -71107.503 7      1061.704 7        45.359               
> 2020 02 06 15 07 16.5000000  0  9                                             
G01  21034916.102 8    -31759.256 8       454.718 8        53.605               
G03  23052088.295 8   -182194.189 8      2809.830 8        49.730               
G08  25681297.469 7    182573.948 7     -2739.245 7        44.800               
G10  24056863.153 8    187359.276 8     -2820.468 8        48.420               
G11  22024587.829 8    149094.584 8     -2257.154 8        50.820               
G14  21027631.777 9     93148.146 9     -1410.313 9        54.507               
G18  20686927.815 8     97986.954 8     -1496.226 8        53.932               
G23  25056514.300 7   -179939.836 7      2703.365 7        44.954               
G25  24688259.701 7    -71213.649 7      1062.469 7        45.571               
> 2020 02 06 15 07 16.6000000  0  9                                             
G01  21034907.045 8    -31805.273 8       455.997 8        53.786               
G03  23052035.281 8   -182475.702 8      2811.121 8        49.651               
G08  25681349.132 7    182847.693 7     -2744.604 7        44.711               
G10  24056916.281 8    187641.176 8     -2826.448 8        48.216               
G11  22024629.860 8    149320.090 8     -2259.515 8        50.826               
G14  21027657.994 9     93288.688 9     -1410.635 9        54.516               
G18  20686955.998 8     98136.045 8     -1495.705 8        53.692               
G23  25056461.394 7   -180210.571 7      2700.158 7        45.017               
G25  24688239.333 7    -71320.308 7      1057.818 7        45.569               
> 2020 02 06 15 07 16.7000000  0  9                                             
G01  21034900.056 9    -31849.494 9       455.303 9        54.029               
G03  23051982.279 8   -182755.425 8      2811.026 8        49.628               
G08  25681404.077 7    183123.214 7     -2744.442 7        44.651               
G10  24056971.154 8    187924.866 8     -2823.869 8        48.114               
G11  22024673.726 8    149547.387 8     -2260.605 8        50.827               
G14  21027686.778 9     93431.022 9     -1411.049 9        54.471               
G18  20686985.998 8     98286.931 8     -1494.730 8        53.527               
G23  25056414.288 7   -180479.525 7      2701.671 7        45.045               
G25  24688220.211 7    -71425.162 7      1059.975 7        45.487               
> 2020 02 06 15 07 16.8000000  0  9                                             
G01  21034891.001 9    -31895.270 9       455.261 9        54.146               
G03  23051928.623 8   -183036.711 8      2813.935 8        49.550               
G08  25681456.777 7    183397.188 7     -2742.693 7        44.634               
G10  24057024.426 7    188206.992 7     -2822.904 7        47.948               
G11  22024716.777 8    149773.128 8     -2260.910 8        50.850               
G14  21027713.175 9     93571.795 9     -1410.406 9        54.475               
G18  20687013.735 8     98436.261 8     -1494.105 8        53.351               
G23  25056363.223 7   -180750.039 7      2701.172 7        45.048               
G25  24688199.398 7    -71531.584 7      1060.546 7        45.443               
> 2020 02 06 15 07 16.9000000  0  9                                             
G01  21034883.848 9    -31940.108 9       454.147 9        54.223               
G03  23051875.279 8   -183317.067 8      2811.483 8        49.361               
G08  25681509.289 7    183672.091 7     -2742.661 7        44.602               
G10  24057078.814 7    188490.055 7     -2822.060 7        47.912               
G11  22024760.390 8    149999.805 8     -2259.503 8        50.832               
G14  21027740.814 9     93713.503 9     -1410.458 9        54.334               
G18  20687042.910 8     98586.537 8     -1496.170 8        53.400               
G23  25056313.024 7   -181019.618 7      2706.528 7        44.937               
G25  24688180.917 7    -71637.063 7      1061.826 7        45.615               
> 2020 02 06 15 07 17.0000000  0  9                                             
G01  21034874.710 9    -31986.256 9       455.748 9        54.135               
G03  23051821.343 8   -183598.736 8      2813.316 8        49.121               
G08  25681560.852 7    183945.679 7     -2739.539 7        44.536               
G10  24057132.039 7    188771.809 7     -2826.307 7        47.868               
G11  22024802.983 8    150225.173 8     -2259.886 8        50.795               
G14  21027766.324 9     93853.897 9     -1410.947 9        54.193               
G18  20687070.421 8     98735.494 8     -1496.379 8        53.429               
G23  25056259.874 7   -181290.510 7      2699.627 7        44.770               
G25  24688160.342 7    -71743.857 7      1059.180 7        45.780               
> 2020 02 06 15 07 17.1000000  0  9                                             
G01  21034866.883 8    -32031.090 8       455.083 8        53.912               
G03  23051767.593 8   -183879.094 8      2810.730 8        48.886               
G08  25681612.743 7    184220.563 7     -2739.382 7        44.561               
G10  24057186.718 7    189054.862 7     -2823.954 7        47.710               
G11  22024847.709 8    150451.850 8     -2259.991 8        50.709               
G14  21027794.699 9     93995.602 9     -1409.517 9        54.122               
G18  20687099.869 8     98885.768 8     -1495.780 8        53.539               
G23  25056208.376 7   -181560.099 7      2701.547 7        44.648               
G25  24688141.043 7    -71849.337 7      1061.641 7        45.886               
> 2020 02 06 15 07 17.2000000  0  9                                             
G01  21034855.801 8    -32078.007 8       453.107 8        53.703               
G03  23051714.000 8   -184161.547 8      2810.103 8        48.806               
G08  25681664.989 7    184493.364 7     -2741.901 7        44.554               
G10  24057238.892 7    189335.828 7     -2821.545 7        47.634               
G11  22024888.482 8    150676.438 8     -2260.587 8        50.643               
G14  21027819.534 9     94135.212 9     -1409.663 9        54.077               
G18  20687125.919 8     99033.950 8     -1495.588 8        53.511               
G23  25056155.408 7   -181831.776 7      2705.725 7        44.459               
G25  24688118.561 7    -71956.904 7      1059.213 7        45.866               
> 2020 02 06 15 07 17.3000000  0  9                                             
G01  21034846.138 8    -32123.574 8       454.256 8        53.406               
G03  23051660.629 8   -184442.653 8      2809.582 8        48.721               
G08  25681716.384 7    184767.497 7     -2742.271 7        44.684               
G10  24057292.521 7    189618.142 7     -2824.329 7        47.516               
G11  22024931.694 8    150902.381 8     -2259.995 8        50.577               
G14  21027846.431 9     94276.179 9     -1410.261 9        54.107               
G18  20687155.031 8     99183.492 8     -1496.899 8        53.441               
G23  25056103.003 7   -182102.111 7      2704.245 7        44.145               
G25  24688097.997 7    -72063.120 7      1061.845 7        45.834               
> 2020 02 06 15 07 17.4000000  0  9                                             
G01  21034837.161 8    -32168.674 8       454.690 8        53.279               
G03  23051606.230 8   -184723.307 8      2810.282 8        48.675               
G08  25681768.412 7    185042.086 7     -2743.481 7        44.590               
G10  24057346.890 7    189900.915 7     -2824.619 7        47.489               
G11  22024975.038 8    151128.782 8     -2257.975 8        50.608               
G14  21027873.031 9     94417.601 9     -1410.512 9        54.245               
G18  20687183.419 8     99333.497 8     -1495.915 8        53.282               
G23  25056051.998 7   -182371.976 7      2700.868 7        43.880               
G25  24688077.638 7    -72168.874 7      1063.459 7        45.754               
> 2020 02 06 15 07 17.5000000  0  9                                             
G01  21034828.932 8    -32213.551 8       456.151 8        53.292               
G03  23051552.899 8   -185003.725 8      2809.924 8        48.754               
G08  25681821.027 7    185316.902 7     -2735.735 7        44.377               
G10  24057401.631 7    190183.911 7     -2821.175 7        47.313               
G11  22025018.289 8    151355.417 8     -2261.310 8        50.603               
G14  21027901.130 9     94559.248 9     -1410.232 9        54.344               
G18  20687213.126 8     99483.730 8     -1496.807 8        53.104               
G23  25056001.866 7   -182641.636 7      2705.379 7        43.770               
G25  24688058.545 7    -72274.404 7      1066.907 7        45.712               
> 2020 02 06 15 07 17.6000000  0  9                                             
G01  21034821.093 8    -32258.421 8       454.294 8        53.415               
G03  23051500.298 8   -185284.158 8      2811.630 8        49.007               
G08  25681873.889 7    185591.723 7     -2744.075 7        44.462               
G10  24057454.726 7    190466.910 7     -2823.522 7        47.354               
G11  22025062.038 8    151582.048 8     -2260.140 8        50.475               
G14  21027928.743 9     94700.897 9     -1410.575 9        54.421               
G18  20687241.739 8     99633.964 8     -1495.995 8        52.976               
G23  25055952.035 7   -182911.288 7      2702.739 7        43.682               
G25  24688040.181 7    -72379.925 7      1059.285 7        45.712               
> 2020 02 06 15 07 17.7000000  0  9                                             
G01  21034813.340 8    -32303.286 8       454.025 8        53.490               
G03  23051447.158 8   -185564.591 8      2810.590 8        49.169               
G08  25681926.104 7    185866.522 7     -2742.755 7        44.417               
G10  24057509.443 7    190749.903 7     -2822.425 7        47.328               
G11  22025105.390 8    151808.681 8     -2260.525 8        50.466               
G14  21027956.424 9     94842.542 9     -1409.878 9        54.293               
G18  20687272.119 8     99784.204 8     -1496.375 8        52.755               
G23  25055900.020 7   -183180.939 7      2705.331 7        43.626               
G25  24688021.081 7    -72485.448 7      1061.874 7        45.650               
> 2020 02 06 15 07 17.8000000  0  9                                             
G01  21034805.524 8    -32348.530 8       453.510 8        53.592               
G03  23051393.580 8   -185845.398 8      2811.337 8        49.433               
G08  25681979.669 7    186140.961 7     -2741.802 7        44.517               
G10  24057562.685 7    191032.520 7     -2827.913 7        47.335               
G11  22025149.037 8    152034.937 8     -2260.392 8        50.487               
G14  21027982.881 9     94983.813 9     -1410.761 9        54.154               
G18  20687299.844 8     99934.071 8     -1496.870 8        52.549               
G23  25055849.587 7   -183450.961 7      2699.016 7        43.716               
G25  24688000.382 7    -72591.342 7      1057.325 7        45.529               
> 2020 02 06 15 07 17.9000000  0  9                                             
G01  21034796.216 8    -32394.772 8       455.402 8        53.665               
G03  23051339.116 8   -186127.209 8      2807.374 8        49.440               
G08  25682032.027 7    186414.358 7     -2741.193 7        44.394               
G10  24057616.151 7    191314.125 7     -2823.283 7        47.283               
G11  22025191.728 8    152260.195 8     -2262.586 8        50.546               
G14  21028008.811 9     95124.074 9     -1410.240 9        54.050               
G18  20687327.900 8    100082.932 8     -1496.252 8        52.492               
G23  25055797.840 7   -183722.013 7      2708.459 7        43.853               
G25  24687978.690 7    -72698.242 7      1059.271 7        45.411               
> 2020 02 06 15 07 18.0000000  0 13                                             
G01  21034787.680 8    -32439.974 8       454.018 8        53.872               
G03  23051285.425 8   -186407.996 8      2809.654 8        49.541               
G08  25682083.387 7    186688.809 7     -2740.832 7        44.229               
G10  24057670.585 7    191596.775 7     -2826.480 7        47.290               
G11  22025234.440 8    152486.488 8     -2258.259 8        50.597               
G14  21028036.405 9     95265.373 9     -1411.100 9        54.070               
G17  25619732.630 7    -57038.116 7       823.446 7        44.628               
G18  20687356.353 8    100232.834 8     -1495.900 8        52.712               
G22  21771297.844 8   -136027.413 8      1994.687 8        52.928               
G23  25055746.668 7   -183992.013 7      2703.283 7        43.959               
G25  24687958.503 7    -72804.106 7      1058.375 7        45.369               
G31  20674304.354 8    -84877.180 8      1224.714 8        53.397               
G32  22217078.433 8    168678.620 8     -2485.382 8        50.358               
> 2020 02 06 15 07 18.1000000  0 13                                             
G01  21034777.536 9    -32486.618 9       453.462 9        54.009               
G03  23051232.217 8   -186690.232 8      2810.390 8        49.622               
G08  25682133.981 7    186961.806 7     -2745.077 7        44.196               
G10  24057723.323 7    191877.966 7     -2825.528 7        47.305               
G11  22025276.510 8    152711.337 8     -2259.176 8        50.532               
G14  21028061.893 9     95405.228 9     -1410.760 9        54.135               
G17  25619714.482 7    -57121.452 7       822.080 7        44.592               
G18  20687384.020 8    100381.298 8     -1498.103 8        53.022               
G22  21771258.896 8   -136227.978 8      1993.370 8        52.734               
G23  25055693.192 7   -184263.471 7      2703.626 7        44.105               
G25  24687937.245 7    -72911.416 7      1060.467 7        45.266               
G31  20674279.469 8    -85000.924 8      1224.784 8        53.475               
G32  22217124.005 8    168925.971 8     -2486.734 8        50.501               
> 2020 02 06 15 07 18.2000000  0 13                                             
G01  21034769.842 8    -32531.953 8       454.461 8        53.886               
G03  23051178.332 8   -186971.159 8      2810.016 8        49.681               
G08  25682186.434 7    187236.092 7     -2740.058 7        44.072               
G10  24057777.170 7    192160.467 7     -2825.068 7        47.360               
G11  22025319.671 8    152937.494 8     -2260.557 8        50.554               
G14  21028088.650 9     95546.385 9     -1410.666 9        54.246               
G17  25619699.640 7    -57203.484 7       820.759 7        44.636               
G18  20687411.868 8    100531.066 8     -1497.262 8        53.225               
G22  21771220.556 8   -136427.240 8      1994.468 8        52.579               
G23  25055641.683 7   -184533.626 7      2701.167 7        44.223               
G25  24687917.740 7    -73017.416 7      1067.623 7        45.184               
G31  20674255.764 8    -85123.361 8      1224.577 8        53.557               
G32  22217171.365 8    169174.624 8     -2484.926 8        50.618               
> 2020 02 06 15 07 18.3000000  0 13                                             
G01  21034761.127 8    -32577.958 8       453.845 8        53.834               
G03  23051124.980 8   -187252.761 8      2811.870 8        49.660               
G08  25682237.365 7    187509.721 7     -2746.906 7        44.018               
G10  24057830.835 7    192442.302 7     -2825.598 7        47.263               
G11  22025361.829 8    153162.975 8     -2260.580 8        50.511               
G14  21028114.422 9     95686.871 9     -1410.698 9        54.383               
G17  25619681.919 7    -57286.187 7       822.046 7        44.663               
G18  20687440.177 8    100680.168 8     -1497.252 8        53.294               
G22  21771181.767 8   -136627.174 8      1992.795 8        52.310               
G23  25055589.314 7   -184804.444 7      2702.463 7        44.488               
G25  24687897.213 7    -73124.079 7      1060.320 7        45.003               
G31  20674232.253 8    -85246.467 8      1224.993 8        53.706               
G32  22217217.830 8    169422.613 8     -2486.415 8        50.629               
> 2020 02 06 15 07 18.4000000  0 13                                             
G01  21034753.716 8    -32622.550 8       453.499 8        53.815               
G03  23051071.735 8   -187532.958 8      2808.942 8        49.682               
G08  25682289.548 7    187784.740 7     -2739.637 7        43.937               
G10  24057884.948 7    192725.532 7     -2824.172 7        47.034               
G11  22025406.363 8    153389.871 8     -2260.540 8        50.464               
G14  21028142.803 9     95828.764 9     -1410.753 9        54.466               
G17  25619666.127 7    -57367.485 7       820.567 7        44.660               
G18  20687468.844 8    100830.679 8     -1497.217 8        53.312               
G22  21771145.516 8   -136825.701 8      1991.953 8        52.120               
G23  25055539.250 7   -185073.866 7      2701.564 7        44.678               
G25  24687877.455 7    -73229.341 7      1064.282 7        44.788               
G31  20674210.243 8    -85368.162 8      1224.525 8        53.839               
G32  22217265.688 8    169672.004 8     -2487.206 8        50.564               
> 2020 02 06 15 07 18.5000000  0 13                                             
G01  21034744.656 8    -32667.964 8       454.383 8        53.740               
G03  23051018.842 8   -187813.979 8      2810.692 8        49.629               
G08  25682342.243 7    188058.937 7     -2744.877 7        43.881               
G10  24057938.554 7    193007.939 7     -2825.145 7        46.944               
G11  22025448.605 8    153615.946 8     -2260.034 8        50.322               
G14  21028169.677 9     95969.833 9     -1410.544 9        54.478               
G17  25619650.759 7    -57449.600 7       819.589 7        44.697               
G18  20687498.041 8    100980.371 8     -1496.543 8        53.291               
G22  21771107.204 8   -137025.053 8      1991.712 8        52.102               
G23  25055488.393 7   -185344.112 7      2702.297 7        44.832               
G25  24687857.012 7    -73335.417 7      1060.380 7        44.676               
G31  20674187.102 9    -85490.676 9      1225.215 9        54.010               
G32  22217313.808 8    169920.571 8     -2485.699 8        50.457               
> 2020 02 06 15 07 18.6000000  0 13                                             
G01  21034734.818 8    -32713.544 8       455.037 8        53.543               
G03  23050965.189 8   -188095.176 8      2810.915 8        49.387               
G08  25682392.784 7    188332.953 7     -2744.073 7        44.022               
G10  24057992.205 7    193290.179 7     -2822.228 7        46.933               
G11  22025491.409 8    153841.854 8     -2260.595 8        50.136               
G14  21028196.310 9     96110.733 9     -1411.651 9        54.412               
G17  25619635.007 7    -57531.879 7       822.889 7        44.711               
G18  20687525.889 8    101129.898 8     -1496.364 8        53.235               
G22  21771069.276 8   -137224.576 8      1993.300 8        52.279               
G23  25055436.367 7   -185614.515 7      2697.786 7        45.025               
G25  24687835.791 7    -73441.662 7      1063.574 7        44.599               
G31  20674163.434 9    -85613.355 9      1224.951 9        54.100               
G32  22217360.133 8    170168.962 8     -2484.028 8        50.318               
> 2020 02 06 15 07 18.7000000  0 13                                             
G01  21034724.671 8    -32759.495 8       454.530 8        53.451               
G03  23050911.371 8   -188376.748 8      2811.847 8        49.164               
G08  25682444.268 7    188606.594 7     -2744.626 7        44.084               
G10  24058045.028 7    193572.049 7     -2824.386 7        46.892               
G11  22025534.441 8    154067.389 8     -2261.638 8        50.015               
G14  21028221.955 9     96251.257 9     -1409.598 9        54.414               
G17  25619618.802 7    -57614.530 7       816.143 7        44.681               
G18  20687554.357 8    101279.056 8     -1496.461 8        53.169               
G22  21771031.254 8   -137424.471 8      1993.173 8        52.446               
G23  25055384.586 7   -185885.322 7      2700.364 7        45.193               
G25  24687815.334 7    -73548.277 7      1055.753 7        44.548               
G31  20674139.206 9    -85736.405 9      1225.006 9        54.120               
G32  22217407.095 8    170416.987 8     -2486.450 8        50.117               
> 2020 02 06 15 07 18.8000000  0 13                                             
G01  21034716.013 8    -32804.521 8       455.312 8        53.392               
G03  23050858.183 8   -188657.400 8      2809.008 8        48.997               
G08  25682498.705 7    188881.149 7     -2742.139 7        44.083               
G10  24058099.216 7    193854.831 7     -2824.554 7        46.858               
G11  22025577.210 8    154293.844 8     -2259.988 8        49.900               
G14  21028249.821 9     96392.702 9     -1410.524 9        54.343               
G17  25619602.872 7    -57696.267 7       818.571 7        44.713               
G18  20687582.241 8    101429.134 8     -1496.334 8        53.077               
G22  21770993.255 8   -137623.451 8      1993.990 8        52.492               
G23  25055333.488 7   -186155.188 7      2702.211 7        45.319               
G25  24687796.973 7    -73653.981 7      1059.514 7        44.496               
G31  20674116.521 9    -85858.533 9      1225.431 9        54.143               
G32  22217454.617 8    170665.921 8     -2483.721 8        49.978               
> 2020 02 06 15 07 18.9000000  0 13                                             
G01  21034708.024 8    -32849.519 8       453.401 8        53.308               
G03  23050804.967 8   -188938.030 8      2810.383 8        48.929               
G08  25682549.863 7    189155.717 7     -2735.759 7        44.007               
G10  24058153.053 7    194137.627 7     -2822.443 7        46.898               
G11  22025621.148 8    154520.320 8     -2260.111 8        49.855               
G14  21028277.070 9     96534.171 9     -1410.592 9        54.279               
G17  25619587.681 7    -57777.974 7       820.415 7        44.824               
G18  20687611.795 8    101579.241 8     -1496.552 8        52.911               
G22  21770955.317 8   -137822.406 8      1993.291 8        52.575               
G23  25055282.864 7   -186425.040 7      2702.693 7        45.494               
G25  24687777.387 7    -73759.647 7      1058.186 7        44.560               
G31  20674094.219 9    -85980.631 9      1225.345 9        54.126               
G32  22217502.380 8    170914.883 8     -2484.896 8        49.850               
> 2020 02 06 15 07 19.0000000  0 13                                             
G01  21034699.304 8    -32895.225 8       453.382 8        53.247               
G03  23050751.450 8   -189219.377 8      2809.705 8        48.953               
G08  25682602.505 7    189429.577 7     -2738.245 7        43.888               
G10  24058206.500 7    194419.716 7     -2823.770 7        46.847               
G11  22025663.695 8    154746.097 8     -2260.759 8        49.844               
G14  21028303.588 9     96674.925 9     -1410.734 9        54.283               
G17  25619572.082 7    -57860.390 7       820.111 7        44.857               
G18  20687639.207 8    101728.640 8     -1496.800 8        52.928               
G22  21770917.560 8   -138022.074 8      1994.170 8        52.625               
G23  25055230.723 7   -186695.611 7      2703.716 7        45.808               
G25  24687756.481 7    -73866.028 7      1059.694 7        44.681               
G31  20674070.686 9    -86103.438 9      1225.372 9        54.118               
G32  22217549.840 8    171163.125 8     -2486.054 8        49.769               
> 2020 02 06 15 07 19.1000000  0 13                                             
G01  21034691.842 8    -32940.175 8       454.378 8        53.239               
G03  23050697.724 8   -189499.972 8      2810.800 8        48.823               
G08  25682657.191 7    189704.190 7     -2742.146 7        43.711               
G10  24058260.828 7    194702.571 7     -2826.866 7        46.734               
G11  22025706.801 8    154972.621 8     -2259.465 8        49.930               
G14  21028330.166 9     96816.437 9     -1410.836 9        54.225               
G17  25619556.614 7    -57942.047 7       821.200 7        44.818               
G18  20687669.019 8    101878.798 8     -1497.609 8        53.237               
G22  21770879.899 8   -138220.988 8      1993.840 8        52.617               
G23  25055180.624 7   -186965.421 7      2703.225 7        45.964               
G25  24687736.206 7    -73971.656 7      1063.437 7        44.790               
G31  20674047.248 9    -86225.486 9      1224.703 9        54.078               
G32  22217597.128 8    171412.124 8     -2484.128 8        49.699               
> 2020 02 06 15 07 19.2000000  0 13                                             
G01  21034681.868 8    -32986.991 8       454.714 8        53.252               
G03  23050643.454 8   -189782.438 8      2810.108 8        48.650               
G08  25682706.346 7    189976.927 7     -2742.427 7        43.680               
G10  24058313.772 7    194983.542 7     -2824.332 7        46.789               
G11  22025748.559 8    155197.278 8     -2260.122 8        49.919               
G14  21028355.698 9     96956.073 9     -1409.848 9        54.166               
G17  25619539.797 7    -58025.575 7       822.849 7        44.741               
G18  20687694.801 8    102027.084 8     -1497.966 8        53.477               
G22  21770840.174 8   -138421.775 8      1993.824 8        52.763               
G23  25055127.837 7   -187237.110 7      2703.840 7        46.010               
G25  24687713.921 7    -74079.145 7      1059.465 7        44.871               
G31  20674021.639 8    -86349.403 8      1225.644 8        53.987               
G32  22217643.389 8    171659.252 8     -2485.444 8        49.648               
> 2020 02 06 15 07 19.3000000  0 13                                             
G01  21034673.969 8    -33031.379 8       452.989 8        53.227               
G03  23050590.667 8   -190062.487 8      2811.855 8        48.520               
G08  25682760.273 7    190252.076 7     -2739.627 7        43.726               
G10  24058368.378 7    195266.929 7     -2822.550 7        46.691               
G11  22025791.979 8    155424.364 8     -2260.421 8        49.917               
G14  21028383.947 9     97098.137 9     -1411.395 9        54.140               
G17  25619525.178 7    -58106.687 7       822.796 7        44.672               
G18  20687725.552 8    102177.798 8     -1497.835 8        53.592               
G22  21770803.809 8   -138620.138 8      1991.739 8        52.796               
G23  25055077.123 7   -187506.370 7      2701.253 7        46.235               
G25  24687695.443 7    -74184.214 7      1059.172 7        44.954               
G31  20673999.516 9    -86470.892 9      1224.444 9        54.069               
G32  22217691.526 8    171908.801 8     -2484.474 8        49.616               
> 2020 02 06 15 07 19.4000000  0 13                                             
G01  21034665.070 8    -33077.222 8       454.704 8        53.249               
G03  23050537.292 8   -190343.992 8      2811.402 8        48.359               
G08  25682812.040 7    190525.765 7     -2744.203 7        43.701               
G10  24058421.824 7    195548.864 7     -2823.664 7        46.496               
G11  22025834.418 8    155649.989 8     -2260.268 8        49.950               
G14  21028410.251 9     97238.737 9     -1410.245 9        54.277               
G17  25619508.560 7    -58189.238 7       820.240 7        44.588               
G18  20687752.963 8    102327.055 8     -1497.645 8        53.734               
G22  21770765.301 8   -138819.963 8      1993.611 8        52.769               
G23  25055024.802 7   -187777.096 7      2699.993 7        46.413               
G25  24687675.537 7    -74290.743 7      1061.441 7        45.022               
G31  20673975.875 9    -86593.839 9      1225.190 9        54.172               
G32  22217738.129 8    172156.890 8     -2485.123 8        49.690               
> 2020 02 06 15 07 19.5000000  0 13                                             
G01  21034657.407 8    -33122.103 8       452.581 8        53.336               
G03  23050483.723 8   -190624.544 8      2812.864 8        48.332               
G08  25682864.291 7    190800.407 7     -2744.030 7        43.641               
G10  24058475.595 7    195831.758 7     -2824.456 7        46.299               
G11  22025878.646 8    155876.576 8     -2259.658 8        50.037               
G14  21028437.271 9     97380.301 9     -1410.573 9        54.339               
G17  25619492.230 7    -58270.838 7       821.650 7        44.512               
G18  20687782.753 9    102477.282 9     -1498.039 9        54.135               
G22  21770727.546 8   -139018.828 8      1994.089 8        52.838               
G23  25054974.057 7   -188046.865 7      2700.594 7        46.658               
G25  24687655.633 7    -74396.297 7      1058.623 7        45.056               
G31  20673953.202 9    -86715.819 9      1223.875 9        54.253               
G32  22217786.163 8    172405.937 8     -2483.955 8        49.705               
> 2020 02 06 15 07 19.6000000  0 13                                             
G01  21034648.841 8    -33167.877 8       453.256 8        53.392               
G03  23050429.967 8   -190905.995 8      2809.577 8        48.466               
G08  25682917.267 7    191074.156 7     -2747.845 7        43.544               
G10  24058529.518 7    196113.756 7     -2826.159 7        46.196               
G11  22025920.579 8    156102.269 8     -2261.178 8        50.127               
G14  21028463.729 9     97520.963 9     -1411.318 9        54.346               
G17  25619476.643 7    -58353.332 7       818.052 7        44.405               
G18  20687810.230 9    102626.611 9     -1497.242 9        54.310               
G22  21770689.944 8   -139218.593 8      1993.110 8        52.795               
G23  25054921.748 7   -188317.529 7      2705.019 7        46.748               
G25  24687634.113 7    -74502.759 7      1062.708 7        45.086               
G31  20673928.680 9    -86838.696 9      1224.423 9        54.232               
G32  22217832.831 8    172654.073 8     -2483.985 8        49.554               
> 2020 02 06 15 07 19.7000000  0 13                                             
G01  21034641.282 8    -33212.567 8       452.256 8        53.359               
G03  23050376.789 8   -191186.363 8      2812.090 8        48.592               
G08  25682970.159 7    191348.962 7     -2740.188 7        43.586               
G10  24058583.535 7    196396.828 7     -2827.316 7        46.177               
G11  22025964.768 8    156329.044 8     -2259.344 8        50.210               
G14  21028491.837 9     97662.708 9     -1410.296 9        54.278               
G17  25619462.222 7    -58434.744 7       820.702 7        44.380               
G18  20687840.232 9    102777.024 9     -1498.057 9        54.394               
G22  21770652.240 8   -139417.276 8      1994.377 8        52.802               
G23  25054870.499 7   -188587.117 7      2698.675 7        46.685               
G25  24687614.456 7    -74608.135 7      1060.877 7        45.124               
G31  20673905.950 9    -86960.486 9      1224.896 9        54.093               
G32  22217881.148 8    172903.303 8     -2486.051 8        49.447               
> 2020 02 06 15 07 19.8000000  0 13                                             
G01  21034632.353 8    -33258.008 8       453.852 8        53.327               
G03  23050323.419 8   -191467.489 8      2808.826 8        48.617               
G08  25683021.413 7    191623.031 7     -2744.297 7        43.535               
G10  24058637.362 7    196679.144 7     -2819.431 7        46.130               
G11  22026007.713 8    156555.068 8     -2261.649 8        50.253               
G14  21028518.521 9     97803.700 9     -1411.758 9        54.198               
G17  25619446.502 7    -58516.908 7       826.329 7        44.233               
G18  20687868.041 9    102926.687 9     -1498.394 9        54.460               
G22  21770613.827 8   -139616.713 8      1994.354 8        52.883               
G23  25054819.185 7   -188857.460 7      2696.227 7        46.594               
G25  24687594.056 7    -74714.257 7      1057.448 7        45.148               
G31  20673883.101 9    -87083.025 9      1224.191 9        54.029               
G32  22217927.452 8    173151.775 8     -2484.513 8        49.357               
> 2020 02 06 15 07 19.9000000  0 13                                             
G01  21034623.874 8    -33302.452 8       453.201 8        53.319               
G03  23050270.321 8   -191747.625 8      2809.684 8        48.531               
G08  25683074.510 7    191898.075 7     -2744.985 7        43.499               
G10  24058691.621 7    196962.463 7     -2824.706 7        46.057               
G11  22026051.393 8    156782.085 8     -2260.718 8        50.293               
G14  21028546.565 9     97945.682 9     -1410.799 9        54.167               
G17  25619431.930 7    -58598.075 7       824.507 7        44.089               
G18  20687898.195 9    103077.346 9     -1498.260 9        54.575               
G22  21770577.418 8   -139815.159 8      1993.836 8        53.036               
G23  25054768.928 7   -189126.811 7      2702.593 7        46.464               
G25  24687575.641 7    -74819.383 7      1056.051 7        45.082               
G31  20673861.166 9    -87204.569 9      1224.964 9        54.047               
G32  22217976.047 8    173401.241 8     -2485.523 8        49.440               
> 2020 02 06 15 07 20.0000000  0 13                                             
G01  21034613.359 8    -33348.652 8       453.754 8        53.336               
G03  23050216.117 8   -192029.522 8      2809.804 8        48.292               
G08  25683124.572 7    192171.358 7     -2742.098 7        43.405               
G10  24058744.112 7    197244.015 7     -2824.649 7        46.092               
G11  22026094.075 8    157007.346 8     -2260.831 8        50.234               
G14  21028571.646 9     98085.906 9     -1410.708 9        54.044               
G17  25619416.162 7    -58680.997 7       815.904 7        43.897               
G18  20687924.508 9    103226.251 9     -1498.883 9        54.721               
G22  21770538.117 8   -140015.365 8      1993.234 8        53.285               
G23  25054716.243 7   -189397.934 7      2702.518 7        46.244               
G25  24687554.852 7    -74926.281 7      1061.827 7        44.927               
G31  20673836.946 9    -87327.868 9      1224.261 9        54.114               
G32  22218022.713 8    173648.938 8     -2485.089 8        49.460               
> 2020 02 06 15 07 20.1000000  0 13                                             
G01  21034604.351 8    -33393.645 8       453.464 8        53.467               
G03  23050162.882 8   -192310.217 8      2809.546 8        48.101               
G08  25683177.229 7    192445.838 7     -2741.116 7        43.443               
G10  24058798.467 7    197526.762 7     -2822.481 7        46.287               
G11  22026136.904 8    157233.812 8     -2260.955 8        50.180               
G14  21028599.573 8     98227.332 8     -1411.606 8        53.964               
G17  25619401.167 7    -58762.717 7       821.821 7        43.655               
G18  20687953.954 9    103376.361 9     -1497.410 9        54.711               
G22  21770500.071 8   -140214.369 8      1992.723 8        53.392               
G23  25054664.331 7   -189667.843 7      2703.487 7        45.995               
G25  24687534.354 7    -75031.963 7      1064.392 7        44.745               
G31  20673813.892 9    -87449.962 9      1224.321 9        54.142               
G32  22218070.475 8    173897.839 8     -2483.647 8        49.422               
> 2020 02 06 15 07 20.2000000  0 13                                             
G01  21034595.507 8    -33439.046 8       452.339 8        53.562               
G03  23050109.223 8   -192591.330 8      2808.995 8        48.034               
G08  25683228.139 7    192719.904 7     -2742.948 7        43.530               
G10  24058851.861 7    197809.102 7     -2824.584 7        46.367               
G11  22026180.077 8    157459.866 8     -2261.780 8        50.193               
G14  21028626.235 8     98368.345 8     -1409.665 8        53.870               
G17  25619384.318 7    -58844.844 7       820.046 7        43.474               
G18  20687981.706 9    103526.063 9     -1497.785 9        54.888               
G22  21770462.797 8   -140413.786 8      1993.720 8        53.405               
G23  25054611.958 7   -189938.171 7      2700.086 7        45.719               
G25  24687513.609 7    -75138.056 7      1060.705 7        44.640               
G31  20673790.199 9    -87572.464 9      1224.315 9        54.191               
G32  22218117.597 8    174146.329 8     -2486.732 8        49.455               
> 2020 02 06 15 07 20.3000000  0 13                                             
G01  21034586.805 8    -33484.607 8       453.316 8        53.697               
G03  23050055.312 8   -192872.607 8      2811.099 8        48.183               
G08  25683280.853 7    192993.800 7     -2740.517 7        43.666               
G10  24058906.058 7    198091.280 7     -2825.635 7        46.489               
G11  22026223.552 8    157685.758 8     -2261.571 8        50.184               
G14  21028652.770 8     98509.196 8     -1412.041 8        53.838               
G17  25619369.094 7    -58927.137 7       822.469 7        43.397               
G18  20688010.957 9    103675.606 9     -1498.829 9        55.049               
G22  21770424.432 8   -140613.370 8      1992.936 8        53.570               
G23  25054561.442 7   -190208.650 7      2700.658 7        45.429               
G25  24687493.381 7    -75244.299 7      1055.269 7        44.725               
G31  20673766.880 9    -87695.125 9      1224.201 9        54.221               
G32  22218163.823 8    174394.654 8     -2487.635 8        49.435               
> 2020 02 06 15 07 20.4000000  0 13                                             
G01  21034578.558 8    -33530.034 8       453.224 8        53.868               
G03  23050001.535 8   -193153.756 8      2810.758 8        48.488               
G08  25683331.431 7    193267.821 7     -2744.444 7        43.670               
G10  24058959.763 7    198373.582 7     -2823.240 7        46.612               
G11  22026265.786 8    157911.787 8     -2261.543 8        50.188               
G14  21028678.707 8     98650.176 8     -1410.956 8        53.845               
G17  25619354.628 7    -59009.291 7       818.032 7        43.417               
G18  20688038.431 9    103825.283 9     -1497.694 9        55.408               
G22  21770386.112 8   -140812.819 8      1993.286 8        53.679               
G23  25054509.380 7   -190479.029 7      2700.917 7        45.326               
G25  24687473.948 7    -75350.425 7      1056.520 7        44.688               
G31  20673743.641 9    -87817.651 9      1224.754 9        54.285               
G32  22218211.453 8    174643.107 8     -2486.809 8        49.474               
> 2020 02 06 15 07 20.5000000  0 13                                             
G01  21034570.332 9    -33575.480 9       452.969 9        54.021               
G03  23049948.404 8   -193434.928 8      2810.927 8        48.730               
G08  25683385.764 7    193541.812 7     -2741.186 7        43.733               
G10  24059013.400 7    198655.854 7     -2826.495 7        46.771               
G11  22026308.897 8    158137.789 8     -2261.739 8        50.057               
G14  21028705.629 8     98791.133 8     -1411.846 8        53.813               
G17  25619337.807 7    -59091.475 7       818.507 7        43.508               
G18  20688067.497 9    103974.938 9     -1497.902 9        55.688               
G22  21770348.670 8   -141012.298 8      1991.755 8        53.799               
G23  25054459.019 7   -190749.421 7      2705.646 7        45.297               
G25  24687454.376 7    -75456.567 7      1059.303 7        44.637               
G31  20673719.959 9    -87940.198 9      1224.121 9        54.514               
G32  22218258.425 8    174891.530 8     -2485.238 8        49.501               
> 2020 02 06 15 07 20.6000000  0 13                                             
G01  21034561.495 9    -33620.938 9       452.034 9        54.177               
G03  23049894.734 8   -193716.119 8      2809.525 8        48.827               
G08  25683437.021 7    193815.790 7     -2737.007 7        43.854               
G10  24059066.980 7    198938.118 7     -2821.881 7        46.808               
G11  22026351.702 8    158363.781 8     -2262.839 8        49.881               
G14  21028732.406 8     98932.073 8     -1411.535 8        53.828               
G17  25619321.912 7    -59173.669 7       822.911 7        43.509               
G18  20688095.185 9    104124.582 9     -1497.909 9        55.820               
G22  21770310.189 8   -141211.789 8      1993.053 8        53.795               
G23  25054407.994 7   -191019.817 7      2703.920 7        45.412               
G25  24687433.853 7    -75562.728 7      1061.613 7        44.616               
G31  20673696.130 9    -88062.756 9      1224.517 9        54.800               
G32  22218305.643 8    175139.937 8     -2486.094 8        49.606               
> 2020 02 06 15 07 20.7000000  0 13                                             
G01  21034552.725 9    -33666.065 9       453.274 9        54.271               
G03  23049842.006 8   -193996.988 8      2811.553 8        48.963               
G08  25683490.775 7    194090.093 7     -2742.434 7        43.874               
G10  24059120.554 7    199220.709 7     -2823.194 7        46.790               
G11  22026394.359 8    158590.102 8     -2261.888 8        49.775               
G14  21028759.534 9     99073.342 9     -1412.271 9        54.003               
G17  25619306.245 7    -59255.528 7       815.579 7        43.405               
G18  20688124.726 9    104274.558 9     -1498.650 9        55.888               
G22  21770272.060 8   -141410.955 8      1992.151 8        53.615               
G23  25054357.356 7   -191289.902 7      2702.145 7        45.398               
G25  24687413.092 7    -75668.552 7      1058.622 7        44.671               
G31  20673672.939 9    -88184.982 9      1223.847 9        54.950               
G32  22218353.482 8    175388.680 8     -2486.085 8        49.707               
> 2020 02 06 15 07 20.8000000  0 13                                             
G01  21034545.448 9    -33710.699 9       453.388 9        54.330               
G03  23049788.806 8   -194277.369 8      2809.779 8        49.174               
G08  25683542.787 7    194364.877 7     -2744.329 7        43.985               
G10  24059174.104 7    199503.783 7     -2819.309 7        46.665               
G11  22026438.581 8    158816.913 8     -2261.911 8        49.659               
G14  21028786.619 9     99215.099 9     -1410.525 9        54.244               
G17  25619291.052 7    -59336.894 7       819.087 7        43.276               
G18  20688152.597 9    104425.026 9     -1498.907 9        56.077               
G22  21770235.603 8   -141609.630 8      1992.488 8        53.497               
G23  25054306.354 7   -191559.490 7      2699.986 7        45.603               
G25  24687393.021 7    -75773.887 7      1061.467 7        44.680               
G31  20673650.920 9    -88306.715 9      1224.219 9        55.108               
G32  22218400.705 8    175637.902 8     -2486.686 8        49.706               
> 2020 02 06 15 07 20.9000000  0 13                                             
G01  21034537.630 9    -33755.749 9       452.644 9        54.316               
G03  23049735.939 8   -194558.165 8      2810.618 8        49.212               
G08  25683594.794 7    194639.232 7     -2742.957 7        43.868               
G10  24059228.040 7    199786.441 7     -2825.946 7        46.512               
G11  22026481.456 8    159043.309 8     -2261.524 8        49.686               
G14  21028814.021 9     99356.436 9     -1412.027 9        54.314               
G17  25619275.121 7    -59418.688 7       821.474 7        43.117               
G18  20688181.911 9    104575.078 9     -1497.811 9        56.169               
G22  21770197.478 8   -141808.728 8      1992.874 8        53.397               
G23  25054254.971 7   -191829.509 7      2701.436 7        45.731               
G25  24687373.177 7    -75879.638 7      1061.795 7        44.788               
G31  20673628.110 9    -88428.864 9      1223.277 9        55.272               
G32  22218448.745 8    175886.709 8     -2485.616 8        49.705               
> 2020 02 06 15 07 21.0000000  0 13                                             
G01  21034530.743 9    -33800.147 9       452.045 9        54.258               
G03  23049682.950 8   -194838.324 8      2809.768 8        49.079               
G08  25683649.109 7    194914.232 7     -2740.414 7        43.902               
G10  24059282.551 7    200069.748 7     -2829.616 7        46.333               
G11  22026525.067 8    159270.351 8     -2262.797 8        49.697               
G14  21028842.336 9     99498.421 9     -1410.785 9        54.236               
G17  25619260.229 7    -59499.819 7       820.623 7        42.982               
G18  20688210.851 9    104725.783 9     -1498.165 9        56.068               
G22  21770159.821 8   -142007.179 8      1993.697 8        53.351               
G23  25054204.769 7   -192098.877 7      2705.395 7        45.840               
G25  24687354.728 7    -75984.737 7      1056.389 7        44.851               
G31  20673605.945 9    -88550.364 9      1224.416 9        55.293               
G32  22218496.591 8    176136.160 8     -2488.988 8        49.599               
> 2020 02 06 15 07 21.1000000  0 13                                             
G01  21034521.359 9    -33846.073 9       451.987 9        54.248               
G03  23049628.965 8   -195120.011 8      2811.285 8        49.029               
G08  25683699.604 7    195187.705 7     -2737.645 7        43.768               
G10  24059336.317 7    200351.514 7     -2826.700 7        46.211               
G11  22026567.736 8    159495.864 8     -2262.237 8        49.699               
G14  21028868.440 9     99638.874 9     -1411.901 9        54.199               
G17  25619244.555 7    -59582.500 7       821.699 7        42.867               
G18  20688239.582 9    104874.958 9     -1498.418 9        55.928               
G22  21770121.972 8   -142207.163 8      1992.399 8        53.241               
G23  25054152.375 7   -192369.777 7      2699.792 7        45.873               
G25  24687333.372 7    -76091.369 7      1057.218 7        44.949               
G31  20673581.336 9    -88673.389 9      1223.259 9        55.136               
G32  22218542.780 8    176384.065 8     -2485.499 8        49.577               
> 2020 02 06 15 07 21.2000000  0 13                                             
G01  21034512.305 9    -33891.075 9       452.431 9        54.282               
G03  23049575.293 8   -195400.780 8      2809.948 8        49.136               
G08  25683752.966 7    195462.078 7     -2742.692 7        43.710               
G10  24059389.840 7    200634.202 7     -2831.046 7        46.140               
G11  22026610.556 8    159722.301 8     -2261.729 8        49.798               
G14  21028895.267 9     99780.247 9     -1410.838 9        54.214               
G17  25619228.943 7    -59664.243 7       819.233 7        42.702               
G18  20688267.588 9    105025.057 9     -1498.245 9        55.833               
G22  21770084.024 8   -142406.228 8      1993.612 8        53.149               
G23  25054100.971 7   -192639.760 7      2700.727 7        45.903               
G25  24687313.722 7    -76197.073 7      1056.643 7        44.995               
G31  20673558.005 9    -88795.491 9      1223.324 9        54.959               
G32  22218590.961 8    176632.904 8     -2485.540 8        49.634               
> 2020 02 06 15 07 21.3000000  0 13                                             
G01  21034501.899 9    -33936.918 9       451.639 9        54.290               
G03  23049521.554 8   -195682.397 8      2810.577 8        49.112               
G08  25683803.672 7    195735.613 7     -2737.884 7        43.705               
G10  24059442.905 7    200916.044 7     -2819.648 7        46.005               
G11  22026653.435 8    159947.895 8     -2261.298 8        49.819               
G14  21028920.956 9     99920.776 9     -1411.966 9        54.139               
G17  25619212.711 7    -59746.825 7       817.299 7        42.633               
G18  20688296.011 9    105174.317 9     -1498.458 9        55.767               
G22  21770044.991 8   -142606.137 8      1992.318 8        53.232               
G23  25054048.090 7   -192910.588 7      2701.298 7        45.995               
G25  24687292.076 7    -76303.627 7      1061.790 7        45.036               
G31  20673534.286 9    -88918.433 9      1223.391 9        54.869               
G32  22218637.610 8    176880.894 8     -2486.871 8        49.692               
> 2020 02 06 15 07 21.4000000  0 13                                             
G01  21034492.539 9    -33982.102 9       451.938 9        54.337               
G03  23049467.862 8   -195963.363 8      2810.678 8        49.040               
G08  25683856.372 7    196009.797 7     -2738.916 7        43.645               
G10  24059496.480 7    201198.543 7     -2821.585 7        45.905               
G11  22026696.825 8    160174.146 8     -2262.614 8        49.949               
G14  21028948.353 8    100061.959 8     -1410.836 8        53.992               
G17  25619197.134 7    -59828.757 7       822.756 7        42.614               
G18  20688324.034 9    105324.235 9     -1499.308 9        55.715               
G22  21770007.685 8   -142805.391 8      1992.721 8        53.287               
G23  25053996.453 7   -193180.766 7      2705.236 7        46.028               
G25  24687271.227 7    -76409.519 7      1060.243 7        45.167               
G31  20673511.257 9    -89040.715 9      1221.408 9        54.863               
G32  22218685.771 8    177129.538 8     -2486.827 8        49.722               
> 2020 02 06 15 07 21.5000000  0 13                                             
G01  21034483.534 9    -34027.238 9       452.272 9        54.379               
G03  23049414.917 8   -196244.287 8      2809.471 8        48.799               
G08  25683907.228 7    196284.012 7     -2738.809 7        43.709               
G10  24059550.392 7    201481.085 7     -2827.062 7        45.842               
G11  22026739.426 8    160400.447 8     -2262.188 8        50.031               
G14  21028975.158 8    100203.189 8     -1412.845 8        53.969               
G17  25619182.983 7    -59910.635 7       820.169 7        42.638               
G18  20688353.519 9    105474.204 9     -1499.140 9        55.662               
G22  21769969.857 8   -143004.601 8      1993.099 8        53.245               
G23  25053945.974 7   -193450.900 7      2701.141 7        46.119               
G25  24687251.358 7    -76515.363 7      1058.005 7        45.497               
G31  20673488.190 9    -89162.950 9      1223.396 9        54.731               
G32  22218732.589 8    177378.220 8     -2484.796 8        49.732               
> 2020 02 06 15 07 21.6000000  0 13                                             
G01  21034475.525 9    -34072.025 9       450.809 9        54.449               
G03  23049361.234 8   -196524.868 8      2809.334 8        48.716               
G08  25683960.402 7    196558.578 7     -2739.984 7        43.853               
G10  24059603.869 7    201763.966 7     -2823.458 7        45.829               
G11  22026783.737 8    160627.087 8     -2262.059 8        50.029               
G14  21029002.511 8    100344.758 8     -1410.808 8        53.932               
G17  25619167.361 7    -59992.168 7       818.705 7        42.628               
G18  20688381.855 9    105624.517 9     -1498.945 9        55.592               
G22  21769931.756 8   -143203.468 8      1992.239 8        53.311               
G23  25053893.989 7   -193720.687 7      2701.934 7        46.213               
G25  24687232.609 7    -76620.863 7      1060.391 7        45.722               
G31  20673465.081 9    -89284.837 9      1221.863 9        54.546               
G32  22218780.313 8    177627.247 8     -2486.508 8        49.754               
> 2020 02 06 15 07 21.7000000  0 13                                             
G01  21034466.331 9    -34117.963 9       451.065 9        54.506               
G03  23049306.814 8   -196806.603 8      2808.251 8        48.533               
G08  25684011.373 7    196831.989 7     -2740.862 7        44.169               
G10  24059657.789 7    202045.700 7     -2823.841 7        45.762               
G11  22026825.112 8    160852.581 8     -2260.886 8        50.073               
G14  21029027.715 9    100485.179 9     -1412.251 9        54.072               
G17  25619150.037 7    -60074.862 7       825.719 7        42.663               
G18  20688410.204 9    105773.680 9     -1499.354 9        55.571               
G22  21769893.918 8   -143403.489 8      1993.240 8        53.367               
G23  25053842.964 7   -193991.631 7      2699.998 7        46.266               
G25  24687211.264 7    -76727.514 7      1057.495 7        45.802               
G31  20673440.395 9    -89407.875 9      1223.164 9        54.359               
G32  22218827.818 8    177875.121 8     -2486.122 8        49.671               
> 2020 02 06 15 07 21.8000000  0 13                                             
G01  21034458.503 9    -34162.915 9       452.881 9        54.544               
G03  23049253.849 8   -197087.361 8      2807.510 8        48.387               
G08  25684064.050 7    197106.368 7     -2742.073 7        44.393               
G10  24059711.842 7    202328.407 7     -2823.692 7        45.624               
G11  22026868.533 8    161079.057 8     -2264.102 8        50.114               
G14  21029055.643 9    100626.577 9     -1411.239 9        54.049               
G17  25619135.097 7    -60156.562 7       820.589 7        42.797               
G18  20688438.454 9    105923.827 9     -1499.343 9        55.526               
G22  21769856.035 8   -143602.529 8      1992.681 8        53.289               
G23  25053791.785 7   -194261.605 7      2698.726 7        46.162               
G25  24687191.750 7    -76833.181 7      1061.146 7        45.763               
G31  20673417.753 9    -89529.926 9      1222.467 9        54.296               
G32  22218874.937 8    178123.979 8     -2488.236 8        49.620               
> 2020 02 06 15 07 21.9000000  0 13                                             
G01  21034449.978 9    -34208.385 9       452.078 9        54.407               
G03  23049200.133 8   -197368.637 8      2809.533 8        48.100               
G08  25684116.011 7    197380.229 7     -2739.978 7        44.498               
G10  24059765.697 7    202610.597 7     -2825.312 7        45.571               
G11  22026911.988 8    161305.013 8     -2260.665 8        50.019               
G14  21029082.248 9    100767.455 9     -1410.963 9        54.025               
G17  25619119.191 7    -60238.781 7       818.172 7        42.925               
G18  20688467.310 9    106073.461 9     -1500.044 9        55.466               
G22  21769817.221 8   -143802.094 8      1994.426 8        53.215               
G23  25053739.892 7   -194532.090 7      2698.807 7        46.170               
G25  24687170.430 7    -76939.366 7      1059.729 7        45.800               
G31  20673394.557 9    -89652.495 9      1223.890 9        54.168               
G32  22218921.788 8    178372.306 8     -2485.557 8        49.554               
> 2020 02 06 15 07 22.0000000  0 13                                             
G01  21034441.685 9    -34253.264 9       452.398 9        54.185               
G03  23049147.114 7   -197649.335 7      2812.896 7        47.894               
G08  25684168.992 7    197654.665 7     -2742.967 7        44.493               
G10  24059819.392 7    202893.374 7     -2825.027 7        45.498               
G11  22026954.641 8    161531.559 8     -2261.496 8        49.969               
G14  21029109.622 9    100908.921 9     -1411.569 9        54.015               
G17  25619103.287 7    -60320.416 7       820.789 7        43.082               
G18  20688495.024 9    106223.681 9     -1499.685 9        55.300               
G22  21769780.321 8   -144001.069 8      1992.681 8        53.067               
G23  25053688.678 7   -194801.996 7      2699.785 7        46.233               
G25  24687150.666 7    -77044.961 7      1056.395 7        45.879               
G31  20673371.648 9    -89774.471 9      1222.777 9        54.054               
G32  22218969.622 8    178621.222 8     -2486.225 8        49.470               
> 2020 02 06 15 07 22.1000000  0 13                                             
G01  21034433.116 8    -34298.605 8       452.055 8        53.940               
G03  23049093.461 7   -197930.497 7      2808.738 7        47.618               
G08  25684220.998 7    197928.632 7     -2741.853 7        44.472               
G10  24059872.739 7    203175.677 7     -2829.160 7        45.444               
G11  22026997.712 8    161757.638 8     -2262.885 8        49.924               
G14  21029135.665 9    101049.917 9     -1412.263 9        54.070               
G17  25619087.087 7    -60402.518 7       820.648 7        43.171               
G18  20688523.747 9    106373.435 9     -1498.908 9        55.074               
G22  21769742.142 8   -144200.516 8      1993.147 8        52.856               
G23  25053637.669 7   -195072.370 7      2703.901 7        46.331               
G25  24687130.714 7    -77151.022 7      1057.423 7        45.836               
G31  20673347.818 8    -89896.914 8      1222.124 8        53.865               
G32  22219016.804 8    178869.671 8     -2486.801 8        49.476               
> 2020 02 06 15 07 22.2000000  0 13                                             
G01  21034425.071 8    -34343.771 8       451.028 8        53.676               
G03  23049040.511 7   -198211.494 7      2808.940 7        47.410               
G08  25684273.743 7    198202.765 7     -2738.573 7        44.436               
G10  24059926.807 7    203458.146 7     -2821.139 7        45.455               
G11  22027040.987 8    161983.892 8     -2262.646 8        49.918               
G14  21029163.072 9    101191.086 9     -1411.763 9        54.083               
G17  25619072.984 7    -60484.437 7       817.398 7        43.207               
G18  20688552.209 9    106523.371 9     -1499.135 9        54.822               
G22  21769703.755 8   -144399.790 8      1991.457 8        52.648               
G23  25053585.470 7   -195342.578 7      2701.997 7        46.402               
G25  24687110.875 7    -77256.909 7      1054.016 7        45.712               
G31  20673324.727 8    -90019.182 8      1222.843 8        53.736               
G32  22219062.670 8    179118.286 8     -2487.649 8        49.741               
> 2020 02 06 15 07 22.3000000  0 13                                             
G01  21034418.371 8    -34388.030 8       451.445 8        53.521               
G03  23048988.174 7   -198491.587 7      2809.467 7        47.318               
G08  25684328.281 7    198477.801 7     -2743.043 7        44.235               
G10  24059981.344 7    203741.529 7     -2819.541 7        45.536               
G11  22027084.482 8    162211.052 8     -2264.394 8        49.897               
G14  21029191.271 9    101333.160 9     -1412.480 9        54.020               
G17  25619058.887 7    -60565.459 7       820.019 7        43.245               
G18  20688582.408 9    106674.214 9     -1499.153 9        54.576               
G22  21769667.125 8   -144598.160 8      1992.693 8        52.609               
G23  25053535.366 7   -195611.879 7      2704.133 7        46.572               
G25  24687091.971 7    -77361.885 7      1055.919 7        45.517               
G31  20673302.875 8    -90140.538 8      1221.562 8        53.642               
G32  22219110.167 8    179367.805 8     -2487.627 8        49.872               
> 2020 02 06 15 07 22.4000000  0 13                                             
G01  21034408.237 8    -34434.605 8       451.602 8        53.360               
G03  23048933.331 7   -198773.996 7      2811.276 7        47.357               
G08  25684377.418 7    198750.512 7     -2738.178 7        44.176               
G10  24060034.520 7    204022.581 7     -2824.416 7        45.581               
G11  22027126.310 8    162435.896 8     -2262.757 8        50.047               
G14  21029216.178 9    101472.914 9     -1412.427 9        54.036               
G17  25619041.158 7    -60648.796 7       817.992 7        43.293               
G18  20688608.548 9    106822.741 9     -1499.709 9        54.351               
G22  21769627.328 8   -144798.849 8      1992.607 8        52.564               
G23  25053482.811 7   -195883.496 7      2702.351 7        46.756               
G25  24687070.132 7    -77469.186 7      1061.314 7        45.314               
G31  20673277.838 8    -90264.209 8      1222.423 8        53.700               
G32  22219156.891 8    179615.008 8     -2486.591 8        49.866               
> 2020 02 06 15 07 22.5000000  0 13                                             
G01  21034400.504 8    -34478.892 8       451.107 8        53.142               
G03  23048880.247 7   -199054.130 7      2809.844 7        47.418               
G08  25684431.548 7    199025.498 7     -2739.622 7        44.117               
G10  24060088.810 7    204305.941 7     -2823.668 7        45.548               
G11  22027170.005 8    162663.023 8     -2261.394 8        50.246               
G14  21029243.522 9    101614.950 9     -1411.116 9        54.061               
G17  25619026.046 7    -60729.845 7       818.550 7        43.340               
G18  20688638.733 9    106973.556 9     -1499.836 9        54.210               
G22  21769590.076 8   -144997.255 8      1992.288 8        52.526               
G23  25053432.782 7   -196152.837 7      2703.060 7        46.726               
G25  24687050.177 7    -77574.201 7      1058.475 7        45.189               
G31  20673255.774 8    -90385.599 8      1222.898 8        53.808               
G32  22219204.428 8    179864.493 8     -2487.717 8        49.772               
> 2020 02 06 15 07 22.6000000  0 13                                             
G01  21034390.002 8    -34524.682 8       451.005 8        53.174               
G03  23048826.502 7   -199335.770 7      2809.861 7        47.526               
G08  25684483.051 7    199298.977 7     -2745.752 7        44.057               
G10  24060141.475 7    204587.764 7     -2823.999 7        45.601               
G11  22027212.449 8    162888.646 8     -2260.998 8        50.441               
G14  21029269.401 9    101755.481 9     -1411.661 9        54.014               
G17  25619009.004 7    -60812.396 7       822.193 7        43.440               
G18  20688665.864 9    107122.868 9     -1499.610 9        54.325               
G22  21769551.948 8   -145197.171 8      1992.648 8        52.654               
G23  25053379.966 7   -196423.690 7      2702.390 7        46.685               
G25  24687029.329 7    -77680.714 7      1056.635 7        45.186               
G31  20673231.423 8    -90508.485 8      1223.471 8        53.939               
G32  22219251.660 8    180112.459 8     -2485.478 8        49.876               
> 2020 02 06 15 07 22.7000000  0 13                                             
G01  21034380.388 8    -34570.172 8       452.068 8        53.250               
G03  23048771.768 7   -199617.116 7      2811.792 7        47.925               
G08  25684536.694 7    199572.743 7     -2741.707 7        43.927               
G10  24060195.225 7    204869.885 7     -2824.683 7        45.594               
G11  22027256.459 8    163114.572 8     -2263.342 8        50.633               
G14  21029296.132 8    101896.308 8     -1411.040 8        53.954               
G17  25618994.636 7    -60894.650 7       820.845 7        43.593               
G18  20688694.239 9    107272.474 9     -1499.554 9        54.407               
G22  21769513.476 8   -145396.788 8      1992.840 8        52.771               
G23  25053327.913 7   -196694.247 7      2707.331 7        46.580               
G25  24687008.708 7    -77786.927 7      1055.876 7        45.147               
G31  20673207.389 9    -90631.071 9      1222.567 9        54.062               
G32  22219298.780 8    180360.730 8     -2485.498 8        49.978               
> 2020 02 06 15 07 22.8000000  0 13                                             
G01  21034371.133 8    -34615.204 8       451.123 8        53.475               
G03  23048718.698 8   -199898.009 8      2809.658 8        48.325               
G08  25684587.961 7    199846.970 7     -2742.135 7        43.745               
G10  24060248.797 7    205152.478 7     -2828.113 7        45.678               
G11  22027298.560 8    163340.946 8     -2261.823 8        50.803               
G14  21029323.026 8    102037.587 8     -1411.442 8        53.927               
G17  25618978.752 7    -60976.449 7       814.659 7        43.749               
G18  20688722.491 9    107422.546 9     -1499.814 9        54.433               
G22  21769474.755 8   -145595.956 8      1991.386 8        52.879               
G23  25053276.863 7   -196964.342 7      2700.128 7        46.512               
G25  24686989.231 7    -77892.692 7      1061.225 7        45.112               
G31  20673184.679 9    -90753.205 9      1221.319 9        54.090               
G32  22219347.332 8    180609.451 8     -2487.000 8        49.987               
> 2020 02 06 15 07 22.9000000  0 13                                             
G01  21034363.288 8    -34659.559 8       450.846 8        53.765               
G03  23048665.877 8   -200178.233 8      2810.490 8        48.607               
G08  25684641.586 7    200121.850 7     -2735.044 7        43.496               
G10  24060302.547 7    205435.727 7     -2822.394 7        45.745               
G11  22027342.464 8    163568.002 8     -2263.977 8        50.732               
G14  21029350.956 8    102179.542 8     -1411.602 8        53.908               
G17  25618964.939 7    -61057.576 7       820.089 7        43.857               
G18  20688752.350 9    107573.290 9     -1499.644 9        54.462               
G22  21769438.194 8   -145794.450 8      1994.537 8        52.797               
G23  25053225.864 7   -197233.769 7      2699.330 7        46.418               
G25  24686970.487 7    -77997.778 7      1057.890 7        45.136               
G31  20673162.307 9    -90874.658 9      1221.228 9        54.157               
G32  22219395.810 8    180858.842 8     -2486.909 8        50.146               
> 2020 02 06 15 07 23.0000000  0 13                                             
G01  21034353.626 8    -34705.844 8       450.958 8        53.944               
G03  23048610.507 8   -200460.393 8      2810.261 8        48.822               
G08  25684691.124 7    200394.802 7     -2742.421 7        43.182               
G10  24060357.124 7    205717.049 7     -2826.409 7        45.757               
G11  22027384.104 8    163793.120 8     -2263.142 8        50.598               
G14  21029376.067 9    102319.561 9     -1412.413 9        54.033               
G17  25618948.273 7    -61140.623 7       816.509 7        43.857               
G18  20688779.409 9    107722.101 9     -1500.471 9        54.496               
G22  21769399.728 8   -145994.879 8      1993.605 8        52.740               
G23  25053172.674 7   -197505.139 7      2702.695 7        46.272               
G25  24686947.834 7    -78104.792 7      1053.445 7        45.187               
G31  20673137.063 9    -90998.041 9      1221.821 9        54.264               
G32  22219441.114 8    181106.300 8     -2485.682 8        50.240               
