     3.02           OBSERVATION DATA    G                   RINEX VERSION / TYPE
G = GPS  R = GLONASS  E = GALILEO  S = GEO  M = MIXED       COMMENT             
GNSS-SDR            UNKNOWN USER        20210328 184304 UTC PGM / RUN BY / DATE 
GPS OBSERVATION DATA FILE GENERATED BY GNSS-SDR             COMMENT             
GNSS-SDR VERSION 0.0.11                                     COMMENT             
See https://gnss-sdr.org                                    COMMENT             
DEFAULT MARKER NAME                                         MARKER NAME         
UNKNOWN USER        CTTC                                    OBSERVER / AGENCY   
GNSS-SDR            Software Receiver   0.0.11              REC # / TYPE / VERS 
Antenna number      Antenna type                            ANT # / TYPE        
        0.0000        0.0000        0.0000                  APPROX POSITION XYZ 
        0.0000        0.0000        0.0000                  ANTENNA: DELTA H/E/N
G    4 C1C L1C D1C S1C                                      SYS / # / OBS TYPES 
DBHZ                                                        SIGNAL STRENGTH UNIT
  2020    02    06    15    06   48.3000000     GPS         TIME OF FIRST OBS   
    18    18   137     7                                    LEAP SECONDS        
                                                            END OF HEADER       
> 2020 02 06 15 06 48.3000000  0  5                                             
G11  22012595.491 8     85567.781 8     -2245.362 8        50.572               
G14  21020043.367 9     53498.146 9     -1401.973 9        54.971               
G18  20679009.061 9     56080.416 9     -1477.200 9        54.963               
G22  21782656.582 8    -76747.789 8      2000.585 8        53.741               
G25  24693861.900 7    -41606.758 7      1076.023 7        47.559               
> 2020 02 06 15 06 48.4000000  0  6                                             
G10  24041640.418 7    108080.706 7     -2821.952 7        47.145               
G11  22012638.609 8     85792.858 8     -2244.563 8        50.565               
G14  21020071.350 9     53638.867 9     -1402.892 9        54.850               
G18  20679036.740 9     56228.612 9     -1476.620 9        54.747               
G22  21782618.593 8    -76947.307 8      1999.622 8        53.800               
G25  24693841.815 7    -41713.920 7      1076.320 7        47.408               
> 2020 02 06 15 06 48.5000000  0  6                                             
G10  24041694.664 7    108363.044 7     -2817.585 7        46.953               
G11  22012682.044 8     86017.934 8     -2245.893 8        50.521               
G14  21020098.649 9     53779.586 9     -1401.694 9        54.829               
G18  20679067.185 9     56376.812 9     -1476.660 9        54.656               
G22  21782582.117 8    -77146.827 8      1999.692 8        53.811               
G25  24693822.155 7    -41821.089 7      1079.601 7        47.324               
> 2020 02 06 15 06 48.6000000  0  6                                             
G10  24041746.319 7    108643.903 7     -2814.488 7        46.726               
G11  22012723.961 8     86241.535 8     -2246.816 8        50.484               
G14  21020123.930 9     53918.827 9     -1401.942 9        54.857               
G18  20679092.858 9     56523.537 9     -1476.871 9        54.699               
G22  21782542.998 8    -77347.823 8      1998.717 8        53.597               
G25  24693800.547 7    -41929.729 7      1079.710 7        47.346               
> 2020 02 06 15 06 48.7000000  0  6                                             
G10  24041801.726 7    108926.935 7     -2819.605 7        46.547               
G11  22012767.217 8     86467.307 8     -2246.946 8        50.319               
G14  21020151.318 9     54060.240 9     -1402.707 9        54.808               
G18  20679122.945 9     56672.436 9     -1477.040 9        54.613               
G22  21782505.486 8    -77546.652 8      1999.071 8        53.176               
G25  24693781.297 7    -42036.188 7      1075.476 7        47.213               
> 2020 02 06 15 06 48.8000000  0  6                                             
G10  24041854.831 7    109208.672 7     -2826.125 7        46.366               
G11  22012809.868 8     86691.786 8     -2246.527 8        50.075               
G14  21020178.817 9     54200.356 9     -1402.606 9        54.801               
G18  20679150.640 9     56820.045 9     -1477.305 9        54.439               
G22  21782468.013 8    -77746.776 8      2001.724 8        52.798               
G25  24693759.906 7    -42143.950 7      1075.306 7        46.996               
> 2020 02 06 15 06 48.9000000  0  6                                             
G10  24041907.776 7    109489.676 7     -2820.951 7        46.180               
G11  22012852.092 8     86915.539 8     -2246.570 8        49.875               
G14  21020204.583 9     54339.743 9     -1400.805 9        54.589               
G18  20679177.157 9     56966.928 9     -1477.968 9        54.230               
G22  21782428.790 8    -77947.628 8      1997.784 8        52.398               
G25  24693738.374 7    -42252.437 7      1078.586 7        46.864               
> 2020 02 06 15 06 49.0000000  0  6                                             
G10  24041963.274 7    109773.942 7     -2820.296 7        46.114               
G11  22012897.905 8     87142.553 8     -2247.283 8        49.749               
G14  21020234.510 9     54482.390 9     -1402.663 9        54.410               
G18  20679209.014 9     57117.072 9     -1477.609 9        54.137               
G22  21782392.905 8    -78145.224 8      1999.799 8        52.090               
G25  24693721.234 7    -42357.659 7      1075.567 7        46.598               
> 2020 02 06 15 06 49.1000000  0  6                                             
G10  24042014.557 7    110053.857 7     -2820.093 7        46.059               
G11  22012939.325 8     87365.222 8     -2247.515 8        49.616               
G14  21020258.383 9     54620.694 9     -1403.008 9        54.378               
G18  20679234.155 9     57262.881 9     -1477.314 9        54.109               
G22  21782353.003 8    -78347.163 8      2000.228 8        51.875               
G25  24693698.790 7    -42467.219 7      1071.436 7        46.363               
> 2020 02 06 15 06 49.2000000  0  6                                             
G10  24042067.868 7    110334.992 7     -2817.437 7        46.082               
G11  22012981.253 8     87589.117 8     -2247.981 8        49.454               
G14  21020284.300 9     54760.217 9     -1402.753 9        54.450               
G18  20679261.430 8     57409.908 8     -1476.856 8        53.979               
G22  21782314.431 8    -78547.882 8      2000.337 8        51.809               
G25  24693677.854 7    -42575.564 7      1076.195 7        46.109               
> 2020 02 06 15 06 49.3000000  0  6                                             
G10  24042123.055 7    110618.345 7     -2820.297 7        45.987               
G11  22013025.111 8     87815.229 8     -2244.757 8        49.322               
G14  21020313.113 9     54901.954 9     -1402.706 9        54.649               
G18  20679291.762 8     57559.156 8     -1477.606 8        53.939               
G22  21782277.843 8    -78746.389 8      1998.562 8        51.690               
G25  24693659.118 7    -42681.694 7      1074.726 7        46.068               
> 2020 02 06 15 06 49.4000000  0  6                                             
G10  24042176.360 7    110899.929 7     -2821.130 7        45.966               
G11  22013067.642 8     88039.578 8     -2246.657 8        49.301               
G14  21020339.508 9     55041.926 9     -1402.592 9        54.888               
G18  20679319.157 9     57706.646 9     -1477.532 9        54.001               
G22  21782239.338 8    -78946.661 8      1999.017 8        51.643               
G25  24693638.267 7    -42789.580 7      1072.892 7        45.955               
> 2020 02 06 15 06 49.5000000  0  6                                             
G10  24042230.429 7    111182.250 7     -2821.765 7        46.062               
G11  22013110.274 8     88264.659 8     -2246.067 8        49.384               
G14  21020366.218 9     55182.629 9     -1402.791 9        55.043               
G18  20679347.834 9     57854.863 9     -1477.256 9        54.094               
G22  21782201.523 8    -79146.203 8      1998.892 8        51.644               
G25  24693617.749 7    -42896.739 7      1073.595 7        45.792               
> 2020 02 06 15 06 49.6000000  0  6                                             
G10  24042285.465 7    111464.727 7     -2819.036 7        46.211               
G11  22013153.016 8     88489.912 8     -2247.470 8        49.449               
G14  21020393.272 9     55323.501 9     -1402.052 9        55.122               
G18  20679377.335 9     58003.259 9     -1478.339 9        54.069               
G22  21782163.855 8    -79345.577 8      1999.707 8        51.783               
G25  24693598.182 7    -43003.718 7      1078.900 7        45.641               
> 2020 02 06 15 06 49.7000000  0  6                                             
G10  24042337.885 7    111745.355 7     -2822.283 7        46.313               
G11  22013195.072 8     88713.309 8     -2246.807 8        49.643               
G14  21020418.960 9     55462.518 9     -1402.956 9        55.247               
G18  20679403.345 9     58149.805 9     -1478.118 9        54.105               
G22  21782124.625 8    -79546.807 8      2000.479 8        51.959               
G25  24693576.428 7    -43112.561 7      1076.999 7        45.493               
> 2020 02 06 15 06 49.8000000  0  6                                             
G10  24042391.826 7    112027.393 7     -2820.985 7        46.450               
G11  22013237.755 8     88938.119 8     -2246.200 8        49.970               
G14  21020445.829 9     55602.943 9     -1402.589 9        55.329               
G18  20679432.358 9     58297.753 9     -1478.176 9        54.227               
G22  21782087.273 8    -79746.628 8      1999.832 8        52.142               
G25  24693556.463 7    -43219.981 7      1074.461 7        45.313               
> 2020 02 06 15 06 49.9000000  0  6                                             
G10  24042445.917 7    112309.805 7     -2818.788 7        46.581               
G11  22013281.393 8     89163.314 8     -2247.148 8        50.170               
G14  21020473.223 9     55743.750 9     -1403.036 9        55.245               
G18  20679460.896 9     58446.094 9     -1477.642 9        54.223               
G22  21782049.177 8    -79946.068 8      2000.212 8        52.154               
G25  24693536.469 7    -43327.021 7      1069.491 7        45.177               
> 2020 02 06 15 06 50.0000000  0  6                                             
G10  24042498.777 7    112590.519 7     -2820.719 7        46.645               
G11  22013322.960 8     89386.813 8     -2246.322 8        50.431               
G14  21020497.886 9     55882.857 9     -1402.575 9        55.081               
G18  20679487.846 9     58592.744 9     -1477.662 9        54.056               
G22  21782010.083 8    -80147.208 8      1999.648 8        52.163               
G25  24693513.796 7    -43435.767 7      1080.337 7        45.030               
> 2020 02 06 15 06 50.1000000  0  6                                             
G10  24042551.792 7    112872.043 7     -2819.022 7        46.532               
G11  22013365.003 8     89611.117 8     -2246.774 8        50.728               
G14  21020524.884 9     56022.771 9     -1402.890 9        54.997               
G18  20679514.540 8     58740.195 8     -1477.595 8        53.865               
G22  21781971.824 8    -80347.542 8      2000.405 8        52.321               
G25  24693492.923 7    -43543.689 7      1076.402 7        44.897               
> 2020 02 06 15 06 50.2000000  0  6                                             
G10  24042605.905 7    113154.528 7     -2822.320 7        46.458               
G11  22013408.896 8     89836.388 8     -2247.045 8        50.897               
G14  21020552.087 9     56163.651 9     -1401.494 9        54.877               
G18  20679543.887 8     58888.622 8     -1479.313 8        53.690               
G22  21781934.162 8    -80546.911 8      1999.108 8        52.238               
G25  24693473.416 7    -43650.650 7      1075.413 7        44.711               
> 2020 02 06 15 06 50.3000000  0  6                                             
G10  24042658.956 7    113435.963 7     -2819.465 7        46.281               
G11  22013450.654 8     90060.617 8     -2248.207 8        50.994               
G14  21020578.459 9     56303.482 9     -1402.336 9        54.842               
G18  20679570.850 8     59036.003 8     -1478.089 8        53.638               
G22  21781895.884 8    -80747.332 8      2000.147 8        52.255               
G25  24693453.544 7    -43758.666 7      1073.325 7        44.605               
> 2020 02 06 15 06 50.4000000  0  6                                             
G10  24042711.980 7    113717.761 7     -2821.476 7        46.287               
G11  22013493.689 8     90285.209 8     -2247.060 8        51.026               
G14  21020604.483 9     56443.681 9     -1404.083 9        54.650               
G18  20679598.857 8     59183.752 8     -1478.397 8        53.647               
G22  21781857.616 8    -80947.386 8      1998.776 8        52.482               
G25  24693433.037 7    -43866.296 7      1075.436 7        44.414               
> 2020 02 06 15 06 50.5000000  0  6                                             
G10  24042765.435 7    113999.637 7     -2813.663 7        46.411               
G11  22013536.940 8     90509.885 8     -2246.325 8        50.975               
G14  21020631.653 9     56583.956 9     -1403.604 9        54.485               
G18  20679626.509 8     59331.585 8     -1479.616 8        53.837               
G22  21781819.295 8    -81147.358 8      1998.935 8        52.744               
G25  24693412.389 7    -43973.857 7      1075.694 7        44.228               
> 2020 02 06 15 06 50.6000000  0  6                                             
G10  24042821.394 7    114282.869 7     -2816.081 7        46.351               
G11  22013580.462 8     90735.918 8     -2249.369 8        50.884               
G14  21020660.058 9     56725.583 9     -1403.121 9        54.473               
G18  20679658.005 9     59480.775 9     -1478.404 9        54.139               
G22  21781783.085 8    -81345.983 8      1999.691 8        52.891               
G25  24693392.851 7    -44080.056 7      1070.472 7        44.100               
> 2020 02 06 15 06 50.7000000  0  6                                             
G10  24042873.614 7    114563.644 7     -2818.325 7        46.188               
G11  22013621.836 8     90959.496 8     -2246.952 8        50.771               
G14  21020685.528 9     56864.759 9     -1403.201 9        54.551               
G18  20679683.743 9     59627.514 9     -1478.502 9        54.510               
G22  21781744.013 8    -81547.060 8      1999.557 8        53.138               
G25  24693371.308 7    -44188.715 7      1073.131 7        44.145               
> 2020 02 06 15 06 50.8000000  0  6                                             
G10  24042928.107 7    114846.955 7     -2815.526 7        46.190               
G11  22013666.411 8     91185.609 8     -2246.778 8        50.707               
G14  21020713.735 9     57006.464 9     -1402.966 9        54.575               
G18  20679713.880 9     59776.786 9     -1479.247 9        54.903               
G22  21781706.998 8    -81745.606 8      1998.444 8        53.215               
G25  24693352.734 7    -44294.835 7      1072.787 7        44.231               
> 2020 02 06 15 06 50.9000000  0  6                                             
G10  24042981.743 7    115128.578 7     -2821.035 7        46.119               
G11  22013708.307 8     91410.039 8     -2247.672 8        50.640               
G14  21020739.871 9     57146.486 9     -1402.757 9        54.554               
G18  20679741.696 9     59924.381 9     -1478.487 9        55.230               
G22  21781668.805 8    -81945.838 8      1999.686 8        53.396               
G25  24693332.285 7    -44402.638 7      1077.082 7        44.358               
> 2020 02 06 15 06 51.0000000  0  6                                             
G10  24043036.100 7    115410.859 7     -2823.994 7        45.933               
G11  22013751.658 8     91635.137 8     -2247.971 8        50.496               
G14  21020767.317 9     57287.174 9     -1402.619 9        54.621               
G18  20679771.055 9     60072.644 9     -1478.841 9        55.641               
G22  21781631.423 8    -82145.403 8      1999.255 8        53.575               
G25  24693312.165 7    -44509.772 7      1073.880 7        44.423               
> 2020 02 06 15 06 51.1000000  0  6                                             
G10  24043088.855 7    115691.756 7     -2821.592 7        45.734               
G11  22013792.976 8     91858.860 8     -2247.974 8        50.608               
G14  21020792.590 9     57426.479 9     -1402.530 9        54.408               
G18  20679796.827 9     60219.528 9     -1478.225 9        55.989               
G22  21781591.885 8    -82346.355 8      2000.711 8        53.491               
G25  24693288.654 7    -44618.284 7      1071.326 7        44.478               
> 2020 02 06 15 06 51.2000000  0  6                                             
G10  24043144.116 7    115975.015 7     -2820.690 7        45.673               
G11  22013837.408 8     92084.928 8     -2247.398 8        50.821               
G14  21020820.725 9     57568.137 9     -1402.973 9        54.181               
G18  20679828.251 9     60368.769 9     -1478.455 9        56.271               
G22  21781555.459 8    -82544.952 8      1998.552 8        53.614               
G25  24693269.794 7    -44724.441 7      1075.099 7        44.638               
> 2020 02 06 15 06 51.3000000  0  6                                             
G10  24043196.823 7    116255.822 7     -2818.551 7        45.752               
G11  22013879.644 8     92308.557 8     -2247.201 8        51.066               
G14  21020845.664 9     57707.348 9     -1404.025 9        54.067               
G18  20679855.173 9     60515.570 9     -1479.181 9        56.506               
G22  21781516.248 8    -82745.996 8      1999.841 8        53.696               
G25  24693247.916 7    -44833.045 7      1076.614 7        44.567               
> 2020 02 06 15 06 51.4000000  0  6                                             
G10  24043251.738 7    116538.971 7     -2820.489 7        45.874               
G11  22013923.283 8     92534.532 8     -2247.205 8        51.529               
G14  21020874.490 9     57848.900 9     -1402.602 9        54.089               
G18  20679884.695 9     60664.713 9     -1479.384 9        56.486               
G22  21781479.280 8    -82944.700 8      1999.101 8        53.685               
G25  24693229.871 7    -44939.305 7      1073.239 7        44.475               
> 2020 02 06 15 06 51.5000000  0  6                                             
G10  24043303.106 7    116818.566 7     -2816.966 7        46.077               
G11  22013963.394 8     92756.959 8     -2248.236 8        51.863               
G14  21020898.661 9     57986.908 9     -1402.587 9        54.181               
G18  20679908.259 9     60810.313 9     -1479.662 9        56.335               
G22  21781438.837 8    -83146.950 8      1998.751 8        53.729               
G25  24693206.994 7    -45049.106 7      1075.345 7        44.549               
> 2020 02 06 15 06 51.6000000  0  6                                             
G10  24043358.134 7    117101.844 7     -2819.213 7        46.366               
G11  22014008.130 8     92983.068 8     -2247.374 8        52.039               
G14  21020927.118 9     58128.591 9     -1403.446 9        54.270               
G18  20679939.736 9     60959.595 9     -1478.383 9        56.290               
G22  21781402.662 8    -83345.524 8      1997.656 8        53.740               
G25  24693187.794 7    -45155.227 7      1072.078 7        44.780               
> 2020 02 06 15 06 51.7000000  0  6                                             
G10  24043411.470 7    117383.096 7     -2819.663 7        46.578               
G11  22014049.797 8     93207.151 8     -2247.341 8        52.216               
G14  21020952.292 9     58268.250 9     -1403.239 9        54.345               
G18  20679966.876 9     61106.857 9     -1478.282 9        56.296               
G22  21781363.633 8    -83546.125 8      1998.327 8        53.493               
G25  24693166.705 7    -45263.373 7      1073.996 7        44.958               
> 2020 02 06 15 06 51.8000000  0  6                                             
G10  24043464.760 7    117665.100 7     -2817.645 7        46.730               
G11  22014092.973 8     93431.995 8     -2248.580 8        52.391               
G14  21020979.511 9     58408.664 9     -1402.820 9        54.371               
G18  20679994.810 9     61254.880 9     -1478.848 9        56.311               
G22  21781325.755 8    -83745.969 8      1999.215 8        53.347               
G25  24693146.250 7    -45370.762 7      1073.697 7        45.151               
> 2020 02 06 15 06 51.9000000  0  6                                             
G10  24043516.486 7    117945.472 7     -2820.467 7        47.035               
G11  22014133.871 8     93655.208 8     -2247.362 8        52.527               
G14  21021004.488 9     58547.446 9     -1403.666 9        54.367               
G18  20680019.572 9     61401.272 9     -1479.566 9        56.342               
G22  21781286.153 8    -83947.447 8      1998.707 8        53.392               
G25  24693124.517 7    -45479.777 7      1073.788 7        45.327               
> 2020 02 06 15 06 52.0000000  0  6                                             
G10  24043572.404 7    118229.215 7     -2819.527 7        47.493               
G11  22014178.710 8     93881.793 8     -2246.982 8        52.585               
G14  21021033.513 9     58689.601 9     -1403.599 9        54.305               
G18  20680051.170 9     61551.040 9     -1479.231 9        56.420               
G22  21781249.706 8    -84145.554 8      1999.565 8        53.301               
G25  24693106.778 7    -45585.423 7      1075.463 7        45.436               
> 2020 02 06 15 06 52.1000000  0  6                                             
G10  24043625.070 7    118510.466 7     -2818.460 7        47.762               
G11  22014221.334 8     94105.890 8     -2246.044 8        52.608               
G14  21021058.875 9     58829.261 9     -1402.229 9        54.073               
G18  20680078.409 9     61698.318 9     -1480.048 9        56.538               
G22  21781210.847 8    -84346.152 8      1999.954 8        53.179               
G25  24693086.110 7    -45693.552 7      1077.300 7        45.278               
> 2020 02 06 15 06 52.2000000  0  6                                             
G10  24043678.928 7    118792.755 7     -2818.068 7        47.996               
G11  22014264.221 8     94331.035 8     -2247.211 8        52.602               
G14  21021086.198 8     58969.969 8     -1404.049 8        53.799               
G18  20680107.500 9     61846.647 9     -1479.378 9        56.756               
G22  21781173.788 8    -84545.706 8      1998.681 8        53.308               
G25  24693065.419 7    -45800.636 7      1071.720 7        45.258               
> 2020 02 06 15 06 52.3000000  0  6                                             
G10  24043733.273 8    119075.059 8     -2820.137 8        48.101               
G11  22014306.986 8     94556.187 8     -2247.906 8        52.726               
G14  21021113.649 8     59110.681 8     -1403.947 8        53.576               
G18  20680135.488 9     61994.989 9     -1479.607 9        56.811               
G22  21781135.535 8    -84745.256 8      2000.258 8        53.356               
G25  24693044.267 7    -45907.713 7      1075.592 7        45.416               
> 2020 02 06 15 06 52.4000000  0  6                                             
G10  24043786.872 8    119357.287 8     -2817.395 8        48.154               
G11  22014350.990 8     94781.275 8     -2247.734 8        52.938               
G14  21021140.785 8     59251.327 8     -1402.924 8        53.398               
G18  20680164.625 9     62143.262 9     -1479.378 9        56.785               
G22  21781097.966 8    -84944.873 8      2000.156 8        53.382               
G25  24693024.657 7    -46014.853 7      1073.270 7        45.504               
> 2020 02 06 15 06 52.5000000  0  6                                             
G10  24043839.502 8    119638.979 8     -2819.140 8        48.121               
G11  22014392.540 8     95005.824 8     -2247.712 8        53.101               
G14  21021166.879 8     59391.433 8     -1402.734 8        53.391               
G18  20680191.952 9     62290.999 9     -1479.333 9        56.632               
G22  21781060.268 8    -85145.030 8      1999.407 8        53.466               
G25  24693003.970 7    -46122.536 7      1075.049 7        45.820               
> 2020 02 06 15 06 52.6000000  0  6                                             
G10  24043893.341 8    119920.577 8     -2818.579 8        48.201               
G11  22014435.051 8     95230.287 8     -2247.228 8        53.086               
G14  21021192.664 8     59531.449 8     -1403.288 8        53.514               
G18  20680219.881 9     62438.648 9     -1479.953 9        56.319               
G22  21781021.457 8    -85345.280 8      2000.638 8        53.545               
G25  24692984.153 7    -46230.299 7      1072.510 7        46.032               
> 2020 02 06 15 06 52.7000000  0  6                                             
G10  24043947.341 8    120202.731 8     -2819.577 8        48.379               
G11  22014478.294 8     95455.303 8     -2249.486 8        53.034               
G14  21021220.361 8     59672.019 8     -1404.093 8        53.749               
G18  20680247.864 9     62586.862 9     -1480.677 9        56.120               
G22  21780983.342 8    -85544.976 8      1998.949 8        53.604               
G25  24692963.639 7    -46337.509 7      1072.125 7        45.988               
> 2020 02 06 15 06 52.8000000  0  6                                             
G10  24044001.762 8    120484.832 8     -2816.828 8        48.528               
G11  22014521.099 8     95680.275 8     -2248.028 8        53.112               
G14  21021247.442 8     59812.540 8     -1403.159 8        53.920               
G18  20680277.464 9     62735.031 9     -1479.915 9        56.035               
G22  21780946.202 8    -85744.718 8      1999.727 8        53.713               
G25  24692941.884 7    -46444.762 7      1074.196 7        45.946               
> 2020 02 06 15 06 52.9000000  0  6                                             
G10  24044055.866 8    120767.075 8     -2820.038 8        48.635               
G11  22014564.911 8     95905.390 8     -2248.905 8        53.158               
G14  21021274.599 9     59953.202 9     -1403.288 9        54.158               
G18  20680306.212 9     62883.343 9     -1479.714 9        55.975               
G22  21780908.030 8    -85944.322 8      1999.689 8        53.876               
G25  24692921.868 7    -46551.876 7      1074.809 7        45.826               
> 2020 02 06 15 06 53.0000000  0  6                                             
G10  24044108.805 8    121048.211 8     -2816.156 8        48.544               
G11  22014605.717 8     96129.404 8     -2247.819 8        53.226               
G14  21021299.574 9     60092.760 9     -1403.344 9        54.186               
G18  20680332.705 9     63030.550 9     -1480.143 9        55.955               
G22  21780869.086 8    -86145.032 8      1999.356 8        53.948               
G25  24692900.418 7    -46660.086 7      1077.134 7        45.652               
> 2020 02 06 15 06 53.1000000  0  6                                             
G10  24044160.018 8    121328.808 8     -2819.829 8        48.522               
G11  22014647.245 8     96352.873 8     -2248.306 8        53.201               
G14  21021325.091 9     60231.773 9     -1404.586 9        54.277               
G18  20680357.526 9     63177.218 9     -1480.569 9        56.033               
G22  21780829.900 8    -86346.285 8      1998.911 8        53.864               
G25  24692878.869 7    -46768.846 7      1074.231 7        45.576               
> 2020 02 06 15 06 53.2000000  0  6                                             
G10  24044214.040 8    121611.119 8     -2817.206 8        48.370               
G11  22014691.135 8     96578.066 8     -2247.732 8        53.130               
G14  21021352.488 9     60372.509 9     -1403.249 9        54.310               
G18  20680385.852 9     63325.615 9     -1480.403 9        55.972               
G22  21780791.522 8    -86545.815 8      1999.649 8        53.677               
G25  24692859.735 7    -46875.880 7      1078.250 7        45.518               
> 2020 02 06 15 06 53.3000000  0  6                                             
G10  24044270.082 8    121894.921 8     -2820.701 8        48.150               
G11  22014735.491 8     96804.748 8     -2247.679 8        53.060               
G14  21021381.655 9     60514.729 9     -1403.637 9        54.482               
G18  20680417.717 9     63475.499 9     -1479.661 9        55.914               
G22  21780755.574 8    -86743.864 8      1999.848 8        53.522               
G25  24692841.388 7    -46981.420 7      1071.576 7        45.533               
> 2020 02 06 15 06 53.4000000  0  6                                             
G10  24044324.274 7    122177.083 7     -2817.404 7        47.940               
G11  22014778.694 8     97029.799 8     -2248.089 8        53.166               
G14  21021408.133 9     60655.314 9     -1403.853 9        54.514               
G18  20680447.804 9     63623.756 9     -1479.477 9        55.833               
G22  21780718.437 8    -86943.546 8      1998.589 8        53.501               
G25  24692820.548 7    -47088.594 7      1071.208 7        45.590               
> 2020 02 06 15 06 53.5000000  0  6                                             
G10  24044378.644 7    122459.827 7     -2818.936 7        47.897               
G11  22014822.646 8     97255.435 8     -2246.764 8        53.241               
G14  21021435.824 9     60796.486 9     -1403.136 9        54.524               
G18  20680477.122 9     63772.597 9     -1479.801 9        55.806               
G22  21780680.817 8    -87142.645 8      1998.523 8        53.468               
G25  24692800.940 7    -47195.188 7      1076.560 7        45.551               
> 2020 02 06 15 06 53.6000000  0  6                                             
G10  24044431.534 7    122740.440 7     -2821.883 7        47.894               
G11  22014864.260 8     97478.944 8     -2250.651 8        53.096               
G14  21021461.124 9     60935.526 9     -1403.436 9        54.579               
G18  20680502.833 9     63919.310 9     -1480.617 9        55.764               
G22  21780640.967 8    -87343.878 8      1999.908 8        53.378               
G25  24692779.691 7    -47303.900 7      1078.130 7        45.381               
> 2020 02 06 15 06 53.7000000  0  6                                             
G10  24044483.058 7    123020.361 7     -2818.008 7        47.810               
G11  22014905.045 8     97701.759 8     -2247.882 8        53.143               
G14  21021485.451 9     61073.873 9     -1403.449 9        54.721               
G18  20680527.195 9     64065.338 9     -1481.089 9        55.660               
G22  21780600.822 8    -87545.800 8      1998.885 8        53.316               
G25  24692757.809 7    -47413.308 7      1075.990 7        45.186               
> 2020 02 06 15 06 53.8000000  0  6                                             
G10  24044535.810 7    123301.836 7     -2818.394 7        47.801               
G11  22014946.468 8     97926.136 8     -2249.338 8        53.146               
G14  21021511.329 9     61213.775 9     -1404.312 9        54.907               
G18  20680553.627 9     64212.923 9     -1480.837 9        55.478               
G22  21780562.175 8    -87746.170 8      2000.370 8        53.360               
G25  24692737.335 7    -47521.158 7      1069.647 7        45.040               
> 2020 02 06 15 06 53.9000000  0  6                                             
G10  24044590.559 7    123584.862 7     -2821.143 7        47.757               
G11  22014990.317 8     98152.061 8     -2248.749 8        53.137               
G14  21021538.952 9     61355.229 9     -1404.696 9        54.997               
G18  20680583.985 9     64362.064 9     -1481.195 9        55.367               
G22  21780525.203 8    -87944.988 8      1998.428 8        53.370               
G25  24692717.391 7    -47627.460 7      1078.338 7        44.963               
> 2020 02 06 15 06 54.0000000  0  6                                             
G10  24044643.392 7    123866.420 7     -2818.335 7        47.727               
G11  22015033.036 8     98376.532 8     -2249.321 8        53.101               
G14  21021565.571 9     61495.217 9     -1403.627 9        54.856               
G18  20680612.016 9     64509.744 9     -1480.179 9        55.347               
G22  21780487.636 8    -88145.269 8      1998.721 8        53.203               
G25  24692694.906 7    -47735.211 7      1075.401 7        44.949               
> 2020 02 06 15 06 54.1000000  0  6                                             
G10  24044699.064 7    124149.955 7     -2819.322 7        47.785               
G11  22015076.467 8     98602.969 8     -2249.381 8        52.962               
G14  21021594.225 9     61637.180 9     -1403.227 9        54.877               
G18  20680642.492 9     64659.400 9     -1480.469 9        55.275               
G22  21780450.942 8    -88343.581 8      1998.727 8        53.126               
G25  24692676.510 7    -47840.999 7      1073.403 7        45.081               
> 2020 02 06 15 06 54.2000000  0  6                                             
G10  24044751.792 7    124430.923 7     -2820.255 7        47.961               
G11  22015119.171 8     98826.851 8     -2249.809 8        52.760               
G14  21021619.703 9     61776.578 9     -1404.143 9        54.985               
G18  20680669.060 9     64806.498 9     -1480.513 9        55.114               
G22  21780411.466 8    -88544.458 8      2000.484 8        53.125               
G25  24692655.064 7    -47949.337 7      1072.999 7        45.227               
> 2020 02 06 15 06 54.3000000  0  6                                             
G10  24044804.467 8    124711.891 8     -2818.030 8        48.040               
G11  22015160.964 8     99050.736 8     -2248.910 8        52.641               
G14  21021644.503 9     61915.981 9     -1403.725 9        55.081               
G18  20680696.450 9     64953.602 9     -1480.789 9        55.021               
G22  21780372.849 8    -88745.328 8      1998.009 8        53.272               
G25  24692634.083 7    -48057.674 7      1070.740 7        45.545               
> 2020 02 06 15 06 54.4000000  0  6                                             
G10  24044858.969 8    124994.884 8     -2818.901 8        48.112               
G11  22015204.512 8     99276.643 8     -2247.697 8        52.546               
G14  21021673.130 9     62057.406 9     -1403.454 9        55.204               
G18  20680725.524 9     65102.733 9     -1480.918 9        54.960               
G22  21780335.718 8    -88944.178 8      1999.111 8        53.273               
G25  24692614.732 7    -48163.990 7      1074.439 7        45.481               
> 2020 02 06 15 06 54.5000000  0  6                                             
G10  24044914.277 8    125278.342 8     -2818.603 8        48.305               
G11  22015249.474 8     99503.026 8     -2248.319 8        52.448               
G14  21021701.813 9     62199.302 9     -1404.624 9        55.341               
G18  20680756.942 9     65252.338 9     -1481.569 9        54.975               
G22  21780299.287 8    -89142.561 8      1999.117 8        53.017               
G25  24692595.169 7    -48269.826 7      1070.002 7        45.559               
> 2020 02 06 15 06 54.6000000  0  6                                             
G10  24044968.071 8    125560.297 8     -2818.255 8        48.341               
G11  22015291.939 8     99727.908 8     -2247.579 8        52.368               
G14  21021728.643 9     62339.692 9     -1403.543 9        55.470               
G18  20680785.522 9     65400.443 9     -1481.571 9        55.131               
G22  21780261.752 8    -89342.445 8      1999.492 8        52.658               
G25  24692574.485 7    -48377.174 7      1074.069 7        45.708               
> 2020 02 06 15 06 54.7000000  0  6                                             
G10  24045023.788 8    125843.805 8     -2819.874 8        48.272               
G11  22015335.845 8     99954.339 8     -2248.969 8        52.275               
G14  21021756.895 9     62481.634 9     -1404.567 9        55.523               
G18  20680816.794 9     65550.102 9     -1480.821 9        55.286               
G22  21780225.211 8    -89540.780 8      1998.293 8        52.349               
G25  24692555.581 7    -48482.957 7      1072.259 7        45.869               
> 2020 02 06 15 06 54.8000000  0  6                                             
G10  24045076.934 8    126125.629 8     -2818.589 8        48.314               
G11  22015379.091 8    100179.093 8     -2249.644 8        52.123               
G14  21021783.541 9     62621.891 9     -1404.254 9        55.667               
G18  20680844.370 9     65698.082 9     -1481.631 9        55.523               
G22  21780186.725 8    -89740.801 8      1998.695 8        52.216               
G25  24692536.179 7    -48590.428 7      1072.089 7        45.853               
> 2020 02 06 15 06 54.9000000  0  6                                             
G10  24045130.254 8    126407.207 8     -2821.088 8        48.274               
G11  22015420.672 8    100403.607 8     -2247.205 8        51.790               
G14  21021810.094 9     62761.910 9     -1403.441 9        55.868               
G18  20680871.762 9     65845.826 9     -1482.002 9        55.564               
G22  21780148.824 8    -89941.059 8      1998.831 8        52.229               
G25  24692516.075 7    -48698.132 7      1072.147 7        45.811               
> 2020 02 06 15 06 55.0000000  0  6                                             
G10  24045181.278 8    126687.004 8     -2817.284 8        48.280               
G11  22015460.902 8    100626.342 8     -2248.762 8        51.471               
G14  21021834.099 9     62900.145 9     -1404.957 9        55.947               
G18  20680894.785 9     65991.789 9     -1481.073 9        55.558               
G22  21780107.983 8    -90143.103 8      1998.615 8        52.198               
G25  24692493.300 7    -48807.621 7      1072.076 7        45.784               
> 2020 02 06 15 06 55.1000000  0  6                                             
G10  24045233.716 8    126967.252 8     -2818.035 8        48.377               
G11  22015502.780 8    100849.527 8     -2250.270 8        51.215               
G14  21021858.698 9     63038.834 9     -1404.109 9        55.988               
G18  20680920.081 9     66138.211 9     -1482.163 9        55.471               
G22  21780067.520 8    -90344.696 8      1999.212 8        52.187               
G25  24692469.509 7    -48916.646 7      1068.203 7        45.670               
> 2020 02 06 15 06 55.2000000  0  6                                             
G10  24045284.566 8    127246.495 8     -2822.001 8        48.394               
G11  22015542.016 8    101071.710 8     -2249.027 8        51.028               
G14  21021881.690 9     63176.508 9     -1403.619 9        55.920               
G18  20680943.037 9     66283.622 9     -1481.462 9        55.385               
G22  21780026.685 8    -90547.297 8      1999.591 8        52.127               
G25  24692446.042 7    -49026.693 7      1072.861 7        45.629               
> 2020 02 06 15 06 55.3000000  0  6                                             
G10  24045338.644 8    127529.752 8     -2817.173 8        48.169               
G11  22015586.659 8    101297.922 8     -2247.876 8        50.893               
G14  21021910.644 9     63318.219 9     -1404.740 9        55.717               
G18  20680972.509 9     66433.076 9     -1481.495 9        55.338               
G22  21779989.809 8    -90745.869 8      1995.993 8        51.887               
G25  24692427.464 7    -49132.695 7      1073.622 7        45.708               
> 2020 02 06 15 06 55.4000000  0  6                                             
G10  24045390.713 8    127810.478 8     -2820.404 8        48.124               
G11  22015628.274 8    101521.597 8     -2248.607 8        50.734               
G14  21021935.749 9     63457.383 9     -1404.236 9        55.695               
G18  20680998.007 9     66579.986 9     -1482.883 9        55.186               
G22  21779950.264 8    -90946.987 8      1999.402 8        51.646               
G25  24692406.056 7    -49241.252 7      1075.113 7        45.910               
> 2020 02 06 15 06 55.5000000  0  6                                             
G10  24045444.802 8    128093.774 8     -2819.086 8        48.172               
G11  22015672.213 8    101747.842 8     -2249.124 8        50.601               
G14  21021963.713 9     63599.123 9     -1404.394 9        55.732               
G18  20681029.384 9     66729.472 9     -1482.097 9        55.015               
G22  21779914.846 8    -91145.530 8      1999.650 8        51.614               
G25  24692387.810 7    -49347.212 7      1069.573 7        45.897               
> 2020 02 06 15 06 55.6000000  0  6                                             
G10  24045497.715 8    128375.359 8     -2820.747 8        48.356               
G11  22015715.191 8    101972.382 8     -2248.862 8        50.573               
G14  21021989.215 9     63739.148 9     -1404.724 9        55.810               
G18  20681057.048 9     66877.250 9     -1481.818 9        55.047               
G22  21779876.056 8    -91345.786 8      1997.342 8        51.647               
G25  24692366.496 7    -49454.899 7      1071.946 7        45.939               
> 2020 02 06 15 06 55.7000000  0  6                                             
G10  24045554.343 8    128659.754 8     -2822.807 8        48.420               
G11  22015760.151 8    102199.731 8     -2250.161 8        50.494               
G14  21022019.469 9     63881.984 9     -1402.762 9        55.636               
G18  20681089.303 9     67027.843 9     -1482.260 9        55.133               
G22  21779840.337 8    -91543.232 8      1998.609 8        51.676               
G25  24692347.753 7    -49559.766 7      1069.661 7        45.932               
> 2020 02 06 15 06 55.8000000  0  6                                             
G10  24045606.844 8    128940.337 8     -2820.055 8        48.462               
G11  22015801.144 8    102423.277 8     -2248.967 8        50.469               
G14  21022044.612 9     64021.014 9     -1404.124 9        55.355               
G18  20681115.358 9     67174.634 9     -1481.815 9        55.308               
G22  21779801.330 8    -91744.487 8      1998.711 8        51.701               
G25  24692325.382 7    -49668.440 7      1074.782 7        45.918               
> 2020 02 06 15 06 55.9000000  0  6                                             
G10  24045662.091 8    129223.915 8     -2819.889 8        48.379               
G11  22015846.152 8    102649.826 8     -2250.729 8        50.370               
G14  21022073.502 9     64163.045 9     -1404.957 9        55.212               
G18  20681146.642 9     67324.428 9     -1481.574 9        55.326               
G22  21779764.927 8    -91942.741 8      1998.144 8        51.763               
G25  24692307.384 7    -49774.110 7      1072.214 7        45.929               
> 2020 02 06 15 06 56.0000000  0  6                                             
G10  24045716.022 8    129506.045 8     -2821.373 8        48.346               
G11  22015888.539 8    102874.920 8     -2248.703 8        50.307               
G14  21022099.682 9     64303.619 9     -1404.381 9        55.206               
G18  20681174.770 9     67472.770 9     -1482.120 9        55.278               
G22  21779726.528 8    -92142.452 8      1998.052 8        51.737               
G25  24692287.855 7    -49881.235 7      1070.572 7        45.898               
> 2020 02 06 15 06 56.1000000  0  6                                             
G10  24045769.743 8    129787.926 8     -2822.969 8        48.231               
G11  22015931.432 8    103099.770 8     -2250.259 8        50.188               
G14  21022126.636 9     64443.947 9     -1404.558 9        55.345               
G18  20681203.457 9     67620.868 9     -1482.972 9        55.291               
G22  21779688.975 8    -92342.409 8      1997.481 8        51.774               
G25  24692267.438 7    -49988.601 7      1074.913 7        45.865               
> 2020 02 06 15 06 56.2000000  0  6                                             
G10  24045822.578 8    130069.390 8     -2821.074 8        48.181               
G11  22015973.617 8    103324.211 8     -2248.324 8        50.184               
G14  21022153.113 9     64583.864 9     -1405.088 9        55.568               
G18  20681229.738 9     67768.558 9     -1481.876 9        55.276               
G22  21779650.070 8    -92542.778 8      1997.888 8        51.782               
G25  24692245.562 7    -50096.380 7      1071.274 7        45.828               
> 2020 02 06 15 06 56.3000000  0  6                                             
G10  24045877.512 8    130352.018 8     -2821.612 8        48.016               
G11  22016016.936 8    103549.817 8     -2250.549 8        50.133               
G14  21022180.637 9     64724.942 9     -1404.814 9        55.668               
G18  20681259.192 9     67917.415 9     -1481.945 9        55.285               
G22  21779612.389 8    -92741.989 8      2000.372 8        51.793               
G25  24692225.679 7    -50202.988 7      1070.596 7        45.866               
> 2020 02 06 15 06 56.4000000  0  6                                             
G10  24045928.943 7    130631.912 7     -2818.757 7        47.943               
G11  22016057.771 8    103772.690 8     -2248.401 8        50.120               
G14  21022204.639 9     64863.287 9     -1404.097 9        55.670               
G18  20681283.962 9     68063.543 9     -1482.149 9        55.389               
G22  21779572.438 8    -92943.929 8      1998.602 8        51.829               
G25  24692202.614 7    -50312.332 7      1074.812 7        45.964               
> 2020 02 06 15 06 56.5000000  0  6                                             
G10  24045983.271 7    130914.325 7     -2821.834 7        47.825               
G11  22016100.591 8    103998.081 8     -2250.199 8        50.130               
G14  21022231.466 9     65004.147 9     -1404.271 9        55.671               
G18  20681312.844 9     68212.193 9     -1481.870 9        55.478               
G22  21779534.562 8    -93143.357 8      1997.799 8        51.892               
G25  24692183.178 7    -50419.159 7      1072.066 7        46.142               
> 2020 02 06 15 06 56.6000000  0  6                                             
G10  24046036.594 7    131196.030 7     -2819.637 7        47.628               
G11  22016143.229 8    104222.773 8     -2249.921 8        50.061               
G14  21022258.415 9     65144.305 9     -1404.862 9        55.675               
G18  20681339.632 9     68360.140 9     -1482.105 9        55.509               
G22  21779495.770 8    -93343.488 8      1997.744 8        51.865               
G25  24692163.167 7    -50526.681 7      1074.316 7        46.165               
> 2020 02 06 15 06 56.7000000  0  6                                             
G10  24046088.896 7    131476.647 7     -2821.814 7        47.491               
G11  22016184.934 8    104446.376 8     -2249.051 8        50.012               
G14  21022283.377 9     65283.372 9     -1404.309 9        55.589               
G18  20681366.238 9     68507.001 9     -1482.543 9        55.414               
G22  21779456.886 8    -93544.710 8      1998.190 8        51.797               
G25  24692140.330 7    -50635.296 7      1073.213 7        46.215               
> 2020 02 06 15 06 56.8000000  0  6                                             
G10  24046142.953 7    131759.207 7     -2819.376 7        47.301               
G11  22016227.645 8    104671.929 8     -2248.302 8        49.966               
G14  21022310.810 9     65424.388 9     -1404.532 9        55.548               
G18  20681394.618 9     68655.816 9     -1482.886 9        55.277               
G22  21779419.204 8    -93743.985 8      1999.646 8        51.576               
G25  24692120.124 7    -50741.957 7      1070.466 7        46.153               
> 2020 02 06 15 06 56.9000000  0  6                                             
G10  24046196.880 7    132041.302 7     -2820.282 7        47.093               
G11  22016270.815 8    104897.020 8     -2249.987 8        49.855               
G14  21022336.968 9     65564.939 9     -1404.842 9        55.620               
G18  20681423.153 9     68804.169 9     -1482.923 9        55.120               
G22  21779380.713 8    -93943.723 8      1998.858 8        51.391               
G25  24692100.037 7    -50849.080 7      1076.092 7        46.019               
> 2020 02 06 15 06 57.0000000  0  6                                             
G10  24046249.564 7    132322.790 7     -2820.011 7        46.985               
G11  22016313.188 8    105121.511 8     -2249.542 8        49.668               
G14  21022363.742 9     65704.886 9     -1404.423 9        55.670               
G18  20681450.284 9     68951.922 9     -1482.357 9        55.139               
G22  21779342.747 8    -94144.066 8      1998.478 8        51.534               
G25  24692079.297 7    -50956.809 7      1073.284 7        46.019               
> 2020 02 06 15 06 57.1000000  0  6                                             
G10  24046303.851 7    132605.068 7     -2821.276 7        46.979               
G11  22016356.021 8    105346.795 8     -2249.233 8        49.481               
G14  21022390.761 9     65845.625 9     -1404.660 9        55.681               
G18  20681479.143 9     69100.469 9     -1482.500 9        55.062               
G22  21779304.990 8    -94343.621 8      1999.203 8        51.851               
G25  24692059.589 7    -51063.735 7      1069.768 7        46.156               
> 2020 02 06 15 06 57.2000000  0  6                                             
G10  24046358.237 7    132888.059 7     -2817.504 7        47.007               
G11  22016400.400 8    105572.792 8     -2248.957 8        49.246               
G14  21022418.825 9     65987.076 9     -1404.414 9        55.776               
G18  20681508.816 9     69249.735 9     -1484.272 9        54.951               
G22  21779267.654 8    -94542.461 8      1997.682 8        51.945               
G25  24692040.532 7    -51169.954 7      1074.674 7        46.360               
> 2020 02 06 15 06 57.3000000  0  6                                             
G10  24046411.381 7    133169.373 7     -2816.641 7        47.125               
G11  22016442.233 8    105797.112 8     -2250.041 8        49.195               
G14  21022444.058 9     66126.849 9     -1405.109 9        55.959               
G18  20681536.908 9     69397.323 9     -1483.038 9        54.875               
G22  21779229.541 8    -94742.981 8      1997.450 8        51.914               
G25  24692018.591 7    -51277.847 7      1070.090 7        46.547               
> 2020 02 06 15 06 57.4000000  0  6                                             
G10  24046466.068 7    133452.402 7     -2820.984 7        47.256               
G11  22016485.967 8    106023.150 8     -2250.277 8        49.280               
G14  21022472.246 9     66268.334 9     -1404.490 9        56.048               
G18  20681566.704 9     69546.627 9     -1482.994 9        54.920               
G22  21779192.525 8    -94941.790 8      1998.279 8        51.964               
G25  24691998.943 7    -51384.022 7      1072.998 7        46.460               
> 2020 02 06 15 06 57.5000000  0  6                                             
G10  24046521.326 7    133735.683 7     -2823.375 7        47.386               
G11  22016531.110 8    106249.443 8     -2251.102 8        49.523               
G14  21022500.807 9     66410.076 9     -1405.359 9        56.015               
G18  20681597.642 9     69696.191 9     -1482.651 9        54.893               
G22  21779155.525 8    -95140.343 8      1996.729 8        52.000               
G25  24691980.026 7    -51489.945 7      1071.152 7        46.342               
> 2020 02 06 15 06 57.6000000  0  6                                             
G10  24046576.624 7    134019.202 7     -2818.036 7        47.407               
G11  22016574.865 8    106475.986 8     -2249.325 8        49.744               
G14  21022529.355 9     66552.062 9     -1404.584 9        56.000               
G18  20681629.281 9     69846.005 9     -1483.363 9        54.926               
G22  21779119.888 8    -95338.650 8      1997.256 8        51.850               
G25  24691961.687 7    -51595.615 7      1072.741 7        46.308               
> 2020 02 06 15 06 57.7000000  0  6                                             
G10  24046632.111 7    134302.652 7     -2819.900 7        47.378               
G11  22016619.487 8    106702.450 8     -2251.810 8        49.899               
G14  21022557.413 9     66693.970 9     -1406.084 9        55.921               
G18  20681661.038 9     69995.745 9     -1482.847 9        55.053               
G22  21779083.420 8    -95537.038 8      1999.315 8        51.812               
G25  24691943.606 7    -51701.359 7      1069.136 7        46.273               
> 2020 02 06 15 06 57.8000000  0  6                                             
G10  24046687.100 7    134585.863 7     -2820.448 7        47.290               
G11  22016664.112 8    106928.686 8     -2251.015 8        49.997               
G14  21022585.420 9     66835.643 9     -1404.918 9        55.845               
G18  20681691.743 9     70145.255 9     -1482.568 9        55.093               
G22  21779046.366 8    -95735.660 8      1997.619 8        52.023               
G25  24691924.278 7    -51807.341 7      1070.465 7        46.177               
> 2020 02 06 15 06 57.9000000  0  6                                             
G10  24046742.414 7    134869.406 7     -2822.070 7        47.328               
G11  22016708.294 8    107155.254 8     -2251.666 8        50.147               
G14  21022614.466 9     66977.651 9     -1403.735 9        55.651               
G18  20681723.398 9     70295.103 9     -1482.450 9        55.071               
G22  21779010.798 8    -95933.948 8      1997.921 8        52.260               
G25  24691904.935 7    -51912.984 7      1071.096 7        46.055               
> 2020 02 06 15 06 58.0000000  0  6                                             
G10  24046796.304 7    135151.338 7     -2818.849 7        47.369               
G11  22016751.302 8    107380.220 8     -2250.077 8        50.267               
G14  21022641.124 9     67118.054 9     -1405.927 9        55.441               
G18  20681751.593 9     70443.352 9     -1483.636 9        55.051               
G22  21778972.431 8    -96133.844 8      1999.360 8        52.314               
G25  24691884.651 7    -52020.229 7      1071.872 7        45.910               
> 2020 02 06 15 06 58.1000000  0  6                                             
G10  24046849.907 7    135433.427 7     -2822.387 7        47.381               
G11  22016794.130 8    107605.339 8     -2249.485 8        50.363               
G14  21022667.888 9     67258.606 9     -1405.333 9        55.395               
G18  20681779.393 9     70591.757 9     -1483.417 9        55.060               
G22  21778934.098 8    -96333.589 8      1998.453 8        52.297               
G25  24691864.795 7    -52127.323 7      1071.628 7        45.772               
> 2020 02 06 15 06 58.2000000  0  6                                             
G10  24046900.576 7    135713.000 7     -2825.264 7        47.443               
G11  22016833.864 8    107827.949 8     -2250.060 8        50.252               
G14  21022690.985 9     67396.648 9     -1404.590 9        55.535               
G18  20681802.830 9     70737.653 9     -1483.341 9        55.172               
G22  21778893.599 8    -96535.846 8      1999.148 8        52.056               
G25  24691842.201 7    -52236.923 7      1071.586 7        45.719               
> 2020 02 06 15 06 58.3000000  0  6                                             
G10  24046952.398 7    135993.628 7     -2819.944 7        47.360               
G11  22016875.554 8    108051.620 8     -2251.701 8        50.037               
G14  21022716.736 9     67535.747 9     -1405.750 9        55.650               
G18  20681827.402 9     70884.608 9     -1483.694 9        55.283               
G22  21778853.771 8    -96737.046 8      1998.356 8        51.805               
G25  24691820.706 7    -52345.464 7      1071.088 7        45.758               
> 2020 02 06 15 06 58.4000000  0  6                                             
G10  24047006.004 7    136275.425 7     -2822.618 7        47.393               
G11  22016917.312 8    108276.456 8     -2252.378 8        49.914               
G14  21022743.127 9     67676.011 9     -1404.655 9        55.763               
G18  20681854.382 9     71032.730 9     -1483.908 9        55.515               
G22  21778815.082 8    -96937.081 8      1996.738 8        51.902               
G25  24691799.905 7    -52452.842 7      1075.555 7        45.807               
> 2020 02 06 15 06 58.5000000  0  6                                             
G10  24047058.284 7    136556.247 7     -2821.592 7        47.310               
G11  22016958.978 8    108500.325 8     -2251.437 8        49.872               
G14  21022768.550 9     67815.304 9     -1405.512 9        55.767               
G18  20681880.502 9     71179.883 9     -1483.004 9        55.700               
G22  21778776.087 8    -97138.089 8      1997.439 8        52.040               
G25  24691777.260 7    -52561.181 7      1069.382 7        45.873               
> 2020 02 06 15 06 58.6000000  0  6                                             
G10  24047110.930 7    136837.299 7     -2818.500 7        47.107               
G11  22017001.099 8    108724.427 8     -2250.420 8        49.980               
G14  21022793.320 9     67954.830 9     -1405.135 9        55.881               
G18  20681907.488 9     71327.273 9     -1483.696 9        55.763               
G22  21778736.923 8    -97338.863 8      1998.321 8        52.236               
G25  24691755.643 7    -52669.288 7      1074.379 7        46.079               
> 2020 02 06 15 06 58.7000000  0  6                                             
G10  24047165.636 7    137120.292 7     -2820.102 7        47.059               
G11  22017044.547 8    108950.469 8     -2250.477 8        50.194               
G14  21022821.652 9     68096.293 9     -1404.931 9        56.016               
G18  20681936.516 9     71476.603 9     -1482.923 9        55.827               
G22  21778699.460 8    -97537.703 8      1998.240 8        52.499               
G25  24691736.264 7    -52775.457 7      1069.026 7        46.167               
> 2020 02 06 15 06 58.8000000  0  6                                             
G10  24047219.146 7    137402.118 7     -2821.228 7        47.055               
G11  22017087.443 8    109175.351 8     -2250.624 8        50.500               
G14  21022848.322 9     68236.593 9     -1406.079 9        56.021               
G18  20681965.009 9     71624.780 9     -1483.586 9        55.901               
G22  21778661.713 8    -97737.705 8      1997.556 8        52.792               
G25  24691715.975 7    -52882.784 7      1071.944 7        46.289               
> 2020 02 06 15 06 58.9000000  0  6                                             
G10  24047271.321 7    137683.098 7     -2818.397 7        47.130               
G11  22017128.915 8    109399.391 8     -2251.825 8        50.685               
G14  21022873.944 9     68376.048 9     -1405.210 9        56.119               
G18  20681990.721 9     71772.117 9     -1484.500 9        55.964               
G22  21778622.667 8    -97938.553 8      1998.822 8        52.871               
G25  24691694.440 7    -52990.952 7      1072.043 7        46.425               
> 2020 02 06 15 06 59.0000000  0  6                                             
G10  24047326.295 7    137966.366 7     -2822.567 7        47.265               
G11  22017173.096 8    109625.716 8     -2251.547 8        50.752               
G14  21022901.704 9     68517.788 9     -1405.281 9        56.342               
G18  20682021.107 9     71921.743 9     -1484.280 9        56.020               
G22  21778585.437 8    -98137.117 8      1998.438 8        52.818               
G25  24691674.382 7    -53096.839 7      1072.241 7        46.374               
> 2020 02 06 15 06 59.1000000  0  6                                             
G10  24047380.063 7    138248.472 7     -2821.372 7        47.421               
G11  22017216.607 8    109850.887 8     -2251.645 8        50.977               
G14  21022928.436 9     68658.372 9     -1406.122 9        56.441               
G18  20682050.341 9     72070.216 9     -1484.865 9        56.116               
G22  21778547.840 8    -98336.837 8      1998.166 8        52.814               
G25  24691653.833 7    -53203.875 7      1067.228 7        46.398               
> 2020 02 06 15 06 59.2000000  0  6                                             
G10  24047436.943 7    138533.276 7     -2821.385 7        47.620               
G11  22017262.122 8    110078.757 8     -2251.124 8        51.487               
G14  21022958.905 9     68801.651 9     -1405.411 9        56.335               
G18  20682084.295 9     72221.383 9     -1483.961 9        56.205               
G22  21778513.249 8    -98533.862 8      1998.675 8        52.779               
G25  24691637.039 7    -53308.211 7      1069.341 7        46.218               
> 2020 02 06 15 06 59.3000000  0  6                                             
G10  24047492.214 7    138816.567 7     -2821.070 7        47.778               
G11  22017306.476 8    110305.121 8     -2250.575 8        51.964               
G14  21022987.159 9     68943.424 9     -1405.990 9        55.980               
G18  20682114.996 9     72371.046 9     -1484.442 9        56.314               
G22  21778476.280 8    -98732.394 8      1997.463 8        52.621               
G25  24691618.315 7    -53414.059 7      1073.701 7        46.108               
> 2020 02 06 15 06 59.4000000  0  6                                             
G10  24047545.297 7    139097.974 7     -2819.346 7        47.662               
G11  22017349.195 8    110529.601 8     -2250.809 8        52.224               
G14  21023013.027 9     69083.308 9     -1405.039 9        55.653               
G18  20682142.688 9     72518.825 9     -1484.057 9        56.326               
G22  21778437.749 8    -98932.814 8      1997.377 8        52.465               
G25  24691597.902 7    -53521.787 7      1070.813 7        46.122               
> 2020 02 06 15 06 59.5000000  0  6                                             
G10  24047595.869 7    139377.421 7     -2816.955 7        47.580               
G11  22017388.187 8    110752.119 8     -2251.038 8        52.212               
G14  21023036.063 9     69221.230 9     -1405.405 9        55.413               
G18  20682165.062 9     72664.648 9     -1483.451 9        56.322               
G22  21778396.760 8    -99135.198 8      1997.688 8        52.409               
G25  24691574.371 7    -53631.474 7      1071.042 7        46.244               
> 2020 02 06 15 06 59.6000000  0  6                                             
G10  24047648.507 7    139658.671 7     -2820.298 7        47.544               
G11  22017430.265 8    110976.446 8     -2252.939 8        52.243               
G14  21023062.540 9     69360.957 9     -1405.059 9        55.341               
G18  20682190.592 9     72812.283 9     -1484.518 9        56.337               
G22  21778357.390 8    -99335.779 8      1998.519 8        52.565               
G25  24691552.531 7    -53739.353 7      1069.200 7        46.356               
> 2020 02 06 15 06 59.7000000  0  6                                             
G10  24047699.875 7    139938.825 7     -2820.599 7        47.423               
G11  22017470.965 8    111199.689 8     -2253.585 8        52.170               
G14  21023086.855 9     69499.597 9     -1406.450 9        55.381               
G18  20682214.925 9     72958.835 9     -1485.461 9        56.385               
G22  21778317.358 8    -99537.447 8      1998.017 8        52.733               
G25  24691529.761 7    -53848.324 7      1071.285 7        46.515               
> 2020 02 06 15 06 59.8000000  0  6                                             
G10  24047756.610 7    140223.802 7     -2827.606 7        47.280               
G11  22017517.122 8    111427.747 8     -2252.165 8        52.045               
G14  21023117.323 9     69643.054 9     -1404.993 9        55.408               
G18  20682249.467 9     73110.211 9     -1484.746 9        56.516               
G22  21778283.033 8    -99734.296 8      1996.819 8        52.740               
G25  24691512.768 7    -53952.469 7      1072.738 7        46.499               
> 2020 02 06 15 06 59.9000000  0  6                                             
G10  24047811.487 7    140506.579 7     -2820.088 7        47.187               
G11  22017561.438 8    111653.619 8     -2251.958 8        52.067               
G14  21023144.163 9     69784.319 9     -1405.613 9        55.527               
G18  20682280.006 9     73259.390 9     -1485.598 9        56.533               
G22  21778245.366 8    -99933.341 8      1998.475 8        52.573               
G25  24691494.025 7    -54058.800 7      1067.099 7        46.435               
> 2020 02 06 15 07 00.0000000  0  6                                             
G10  24047867.456 7    140790.801 7     -2818.040 7        47.178               
G11  22017606.096 8    111880.929 8     -2250.312 8        52.052               
G14  21023174.007 9     69927.024 9     -1406.210 9        55.692               
G18  20682312.388 9     73410.010 9     -1485.173 9        56.497               
G22  21778210.167 8   -100130.947 8      1997.925 8        52.408               
G25  24691476.731 7    -54163.701 7      1072.843 7        46.274               
> 2020 02 06 15 07 00.1000000  0  6                                             
G10  24047918.742 7    141070.728 7     -2822.158 7        47.199               
G11  22017646.571 8    112103.956 8     -2252.192 8        52.187               
G14  21023198.472 9     70065.439 9     -1405.409 9        55.762               
G18  20682336.209 9     73556.348 9     -1484.488 9        56.548               
G22  21778169.964 8   -100332.839 8      1997.149 8        52.382               
G25  24691453.128 7    -54272.875 7      1073.195 7        46.177               
> 2020 02 06 15 07 00.2000000  0  6                                             
G10  24047971.455 7    141352.636 7     -2820.873 7        47.396               
G11  22017689.563 8    112328.960 8     -2251.452 8        52.151               
G14  21023225.257 9     70205.830 9     -1406.039 9        55.517               
G18  20682362.905 9     73704.668 9     -1483.852 9        56.626               
G22  21778131.241 8   -100532.761 8      1997.051 8        52.211               
G25  24691432.131 7    -54380.081 7      1071.453 7        46.204               
> 2020 02 06 15 07 00.3000000  0  6                                             
G10  24048022.588 7    141632.265 7     -2821.985 7        47.685               
G11  22017728.760 8    112551.685 8     -2250.708 8        52.011               
G14  21023248.246 9     70343.945 9     -1406.545 9        55.175               
G18  20682386.537 9     73850.721 9     -1485.298 9        56.661               
G22  21778090.795 8   -100734.958 8      1998.586 8        52.080               
G25  24691408.875 7    -54489.557 7      1072.674 7        46.278               
> 2020 02 06 15 07 00.4000000  0  6                                             
G10  24048078.643 7    141916.251 7     -2822.728 7        47.730               
G11  22017773.951 8    112778.776 8     -2252.402 8        51.915               
G14  21023277.355 9     70486.417 9     -1406.134 9        54.851               
G18  20682419.399 9     74001.132 9     -1485.401 9        56.715               
G22  21778055.200 8   -100932.795 8      1996.599 8        52.032               
G25  24691390.917 7    -54594.675 7      1070.963 7        46.342               
> 2020 02 06 15 07 00.5000000  0  6                                             
G10  24048135.012 7    142200.443 7     -2819.363 7        47.790               
G11  22017819.741 8    113006.074 8     -2251.670 8        51.813               
G14  21023306.956 9     70629.096 9     -1405.483 9        54.535               
G18  20682451.930 9     74151.747 9     -1485.191 9        56.697               
G22  21778019.043 8   -101130.430 8      1997.814 8        52.063               
G25  24691373.540 7    -54699.582 7      1072.457 7        46.436               
> 2020 02 06 15 07 00.6000000  0  6                                             
G10  24048189.114 7    142482.986 7     -2818.517 7        47.960               
G11  22017862.711 8    113231.738 8     -2251.503 8        51.613               
G14  21023334.255 9     70770.135 9     -1406.048 9        54.285               
G18  20682481.373 9     74300.726 9     -1485.449 9        56.662               
G22  21777982.031 8   -101329.705 8      1996.971 8        52.350               
G25  24691353.718 7    -54806.125 7      1072.487 7        46.454               
> 2020 02 06 15 07 00.7000000  0  6                                             
G10  24048239.951 8    142762.111 8     -2819.479 8        48.082               
G11  22017902.236 8    113453.963 8     -2250.755 8        51.374               
G14  21023357.645 9     70907.745 9     -1405.441 9        54.009               
G18  20682503.441 9     74446.282 9     -1486.240 9        56.587               
G22  21777940.485 8   -101532.408 8      1997.270 8        52.517               
G25  24691329.523 7    -54916.097 7      1069.883 7        46.520               
> 2020 02 06 15 07 00.8000000  0  6                                             
G10  24048293.215 8    143043.788 8     -2820.271 8        48.101               
G11  22017944.476 8    113678.759 8     -2254.284 8        50.991               
G14  21023383.552 8     71047.909 8     -1404.590 8        53.840               
G18  20682530.295 9     74594.402 9     -1485.732 9        56.357               
G22  21777901.367 8   -101732.557 8      1997.200 8        52.452               
G25  24691308.148 7    -55023.505 7      1070.287 7        46.674               
> 2020 02 06 15 07 00.9000000  0  6                                             
G10  24048348.018 8    143326.519 8     -2820.955 8        48.061               
G11  22017988.396 8    113904.615 8     -2250.600 8        50.646               
G14  21023411.640 8     71189.139 8     -1406.278 8        53.758               
G18  20682560.313 9     74743.588 9     -1485.222 9        56.108               
G22  21777864.287 8   -101931.644 8      1999.261 8        52.338               
G25  24691288.759 7    -55129.856 7      1071.971 7        46.629               
> 2020 02 06 15 07 01.0000000  0  6                                             
G10  24048404.041 7    143610.224 7     -2817.964 7        47.895               
G11  22018033.286 8    114131.437 8     -2253.501 8        50.440               
G14  21023440.269 8     71331.335 8     -1405.751 8        53.758               
G18  20682593.213 9     74893.739 9     -1485.601 9        55.861               
G22  21777828.623 8   -102129.764 8      1998.948 8        52.307               
G25  24691270.250 7    -55235.230 7      1070.100 7        46.497               
> 2020 02 06 15 07 01.1000000  0  6                                             
G10  24048456.120 7    143891.490 7     -2819.760 7        47.782               
G11  22018074.966 8    114355.836 8     -2252.616 8        50.223               
G14  21023466.189 8     71471.098 8     -1405.045 8        53.710               
G18  20682618.525 9     75041.467 9     -1485.264 9        55.404               
G22  21777789.356 8   -102330.315 8      1998.253 8        52.164               
G25  24691249.138 7    -55343.041 7      1071.733 7        46.342               
> 2020 02 06 15 07 01.2000000  0  6                                             
G10  24048507.511 7    144171.116 7     -2823.006 7        47.813               
G11  22018114.903 8    114578.585 8     -2251.267 8        50.115               
G14  21023489.186 8     71609.215 8     -1406.599 8        53.730               
G18  20682641.986 9     75187.552 9     -1485.245 9        55.074               
G22  21777748.150 8   -102532.514 8      1997.207 8        51.957               
G25  24691226.086 7    -55452.493 7      1065.866 7        46.323               
> 2020 02 06 15 07 01.3000000  0  6                                             
G10  24048561.812 7    144454.142 7     -2822.000 7        47.730               
G11  22018159.090 8    114804.746 8     -2252.526 8        50.068               
G14  21023517.666 8     71750.741 8     -1406.109 8        53.827               
G18  20682672.039 9     75337.052 9     -1485.880 9        54.858               
G22  21777711.570 8   -102731.306 8      1996.129 8        51.768               
G25  24691205.802 7    -55558.533 7      1068.928 7        46.257               
> 2020 02 06 15 07 01.4000000  0  6                                             
G10  24048617.979 7    144738.691 7     -2820.221 7        47.652               
G11  22018204.893 8    115032.431 8     -2252.343 8        50.009               
G14  21023546.994 8     71893.782 8     -1405.466 8        53.964               
G18  20682705.441 9     75488.067 9     -1486.059 9        54.688               
G22  21777676.157 8   -102928.582 8      1997.928 8        51.773               
G25  24691189.010 7    -55663.056 7      1068.461 7        46.323               
> 2020 02 06 15 07 01.5000000  0  6                                             
G10  24048670.310 7    145020.475 7     -2822.221 7        47.722               
G11  22018247.771 8    115257.351 8     -2252.251 8        49.981               
G14  21023573.469 9     72034.070 9     -1406.305 9        54.060               
G18  20682732.255 9     75636.326 9     -1486.385 9        54.615               
G22  21777637.696 8   -103128.614 8      1997.412 8        51.809               
G25  24691168.543 7    -55770.330 7      1068.389 7        46.305               
> 2020 02 06 15 07 01.6000000  0  6                                             
G10  24048722.255 7    145300.769 7     -2822.327 7        47.687               
G11  22018287.727 8    115480.781 8     -2251.251 8        49.990               
G14  21023597.484 9     72172.854 9     -1404.895 9        54.193               
G18  20682757.451 9     75783.096 9     -1486.182 9        54.390               
G22  21777598.224 8   -103330.149 8      1997.687 8        51.660               
G25  24691146.510 7    -55879.103 7      1067.768 7        46.436               
> 2020 02 06 15 07 01.7000000  0  6                                             
G10  24048776.598 7    145583.553 7     -2823.863 7        47.610               
G11  22018331.115 8    115706.712 8     -2252.565 8        49.978               
G14  21023625.220 9     72314.139 9     -1405.466 9        54.201               
G18  20682786.365 9     75932.366 9     -1485.850 9        54.205               
G22  21777560.594 8   -103529.182 8      1995.385 8        51.604               
G25  24691127.125 7    -55985.372 7      1072.992 7        46.320               
> 2020 02 06 15 07 01.8000000  0  6                                             
G10  24048831.274 7    145866.325 7     -2822.733 7        47.490               
G11  22018374.909 8    115932.624 8     -2250.904 8        49.908               
G14  21023653.271 9     72455.410 9     -1405.394 9        54.185               
G18  20682816.221 9     76081.623 9     -1485.877 9        54.134               
G22  21777523.512 8   -103728.233 8      1997.918 8        51.618               
G25  24691107.251 7    -56091.660 7      1069.605 7        46.193               
> 2020 02 06 15 07 01.9000000  0  6                                             
G10  24048883.568 7    146147.656 7     -2817.775 7        47.401               
G11  22018416.482 8    116157.109 8     -2250.481 8        49.741               
G14  21023679.387 9     72595.242 9     -1405.266 9        54.217               
G18  20682842.927 9     76229.452 9     -1485.162 9        54.030               
G22  21777485.497 8   -103928.722 8      1996.674 8        51.477               
G25  24691084.603 7    -56199.375 7      1067.232 7        46.187               
> 2020 02 06 15 07 02.0000000  0  6                                             
G10  24048936.859 7    146428.866 7     -2824.216 7        47.217               
G11  22018458.604 8    116381.473 8     -2253.106 8        49.579               
G14  21023704.695 9     72734.952 9     -1405.358 9        54.179               
G18  20682869.271 8     76377.161 8     -1486.074 8        53.964               
G22  21777445.600 8   -104129.333 8      1999.330 8        51.174               
G25  24691063.540 7    -56307.216 7      1071.410 7        46.193               
> 2020 02 06 15 07 02.1000000  0  6                                             
G10  24048989.885 7    146710.447 7     -2820.344 7        47.123               
G11  22018501.266 8    116606.221 8     -2253.031 8        49.414               
G14  21023730.435 9     72875.045 9     -1405.918 9        54.106               
G18  20682896.870 8     76525.258 8     -1486.668 8        53.918               
G22  21777406.976 8   -104329.563 8      1997.159 8        50.906               
G25  24691042.678 7    -56414.667 7      1067.997 7        46.330               
> 2020 02 06 15 07 02.2000000  0  6                                             
G10  24049045.500 7    146994.149 7     -2821.252 7        47.178               
G11  22018545.571 8    116833.077 8     -2253.162 8        49.287               
G14  21023759.604 9     73017.245 9     -1405.535 9        54.061               
G18  20682928.558 9     76675.462 9     -1486.508 9        54.016               
G22  21777371.210 8   -104527.684 8      1997.192 8        50.860               
G25  24691024.798 7    -56520.010 7      1071.906 7        46.346               
> 2020 02 06 15 07 02.3000000  0  6                                             
G10  24049099.044 7    147275.816 7     -2817.720 7        47.249               
G11  22018588.643 8    117057.904 8     -2253.889 8        49.121               
G14  21023785.791 9     73157.417 9     -1406.986 9        54.049               
G18  20682956.246 9     76823.637 9     -1485.920 9        54.325               
G22  21777332.317 8   -104727.836 8      1997.856 8        50.703               
G25  24691004.436 7    -56627.379 7      1067.608 7        46.226               
> 2020 02 06 15 07 02.4000000  0  6                                             
G10  24049152.513 7    147557.230 7     -2819.286 7        47.444               
G11  22018630.104 8    117282.476 8     -2251.429 8        48.982               
G14  21023811.652 9     73297.336 9     -1406.398 9        54.032               
G18  20682982.965 9     76971.571 9     -1486.824 9        54.557               
G22  21777293.332 8   -104928.245 8      1997.294 8        50.619               
G25  24690982.212 7    -56734.999 7      1066.954 7        46.098               
> 2020 02 06 15 07 02.5000000  0  6                                             
G10  24049206.240 7    147839.752 7     -2820.919 7        47.719               
G11  22018673.146 8    117508.178 8     -2250.684 8        48.906               
G14  21023838.308 9     73438.367 9     -1404.703 9        54.033               
G18  20683012.587 9     77120.622 9     -1486.669 9        54.716               
G22  21777256.320 8   -105127.534 8      1996.460 8        50.847               
G25  24690962.140 7    -56841.502 7      1068.415 7        46.091               
> 2020 02 06 15 07 02.6000000  0  6                                             
G10  24049262.358 7    148124.118 7     -2820.898 7        47.833               
G11  22018719.382 8    117735.711 8     -2252.351 8        48.898               
G14  21023868.444 8     73581.237 8     -1406.475 8        53.988               
G18  20683045.242 9     77271.509 9     -1486.249 9        54.775               
G22  21777220.537 8   -105324.989 8      1996.876 8        51.077               
G25  24690944.262 7    -56946.165 7      1068.854 7        46.041               
> 2020 02 06 15 07 02.7000000  0  6                                             
G10  24049314.355 7    148404.755 7     -2823.501 7        47.769               
G11  22018759.943 8    117959.524 8     -2253.767 8        48.904               
G14  21023893.405 8     73720.382 8     -1406.695 8        53.954               
G18  20683069.846 9     77418.676 9     -1486.012 9        54.839               
G22  21777180.741 8   -105526.172 8      1995.912 8        51.301               
G25  24690922.513 7    -57054.553 7      1069.792 7        46.018               
> 2020 02 06 15 07 02.8000000  0  6                                             
G10  24049367.201 7    148686.391 7     -2819.423 7        47.646               
G11  22018802.621 8    118184.345 8     -2251.411 8        48.919               
G14  21023919.715 8     73860.536 8     -1404.534 8        53.797               
G18  20683097.550 9     77566.864 9     -1486.861 9        54.962               
G22  21777142.687 8   -105726.344 8      1996.546 8        51.437               
G25  24690902.847 7    -57161.929 7      1067.882 7        45.925               
> 2020 02 06 15 07 02.9000000  0  6                                             
G10  24049421.687 7    148969.057 7     -2821.424 7        47.503               
G11  22018846.690 8    118410.186 8     -2251.806 8        49.002               
G14  21023946.451 8     74001.705 8     -1405.633 8        53.630               
G18  20683127.681 9     77716.065 9     -1486.650 9        55.143               
G22  21777105.023 8   -105925.501 8      1997.450 8        51.457               
G25  24690883.409 7    -57268.287 7      1070.009 7        45.696               
> 2020 02 06 15 07 03.0000000  0  6                                             
G10  24049475.831 7    149252.282 7     -2818.982 7        47.578               
G11  22018890.326 8    118636.594 8     -2252.055 8        49.014               
G14  21023974.649 8     74143.447 8     -1407.454 8        53.427               
G18  20683156.969 9     77865.839 9     -1487.228 9        55.235               
G22  21777068.017 8   -106124.090 8      1995.968 8        51.235               
G25  24690863.450 7    -57374.075 7      1069.441 7        45.409               
> 2020 02 06 15 07 03.1000000  0  6                                             
G10  24049528.496 7    149532.753 7     -2819.790 7        47.632               
G11  22018931.430 8    118860.256 8     -2251.442 8        49.018               
G14  21023999.795 8     74282.426 8     -1405.002 8        53.314               
G18  20683182.509 9     78012.861 9     -1486.764 9        55.365               
G22  21777028.352 8   -106325.436 8      1997.666 8        51.102               
G25  24690841.047 7    -57482.608 7      1067.596 7        45.360               
> 2020 02 06 15 07 03.2000000  0  6                                             
G10  24049583.654 7    149816.474 7     -2824.638 7        47.728               
G11  22018976.135 8    119087.167 8     -2252.357 8        49.067               
G14  21024028.651 8     74424.660 8     -1405.841 8        53.269               
G18  20683213.526 9     78163.137 9     -1486.895 9        55.446               
G22  21776991.914 8   -106523.531 8      1996.699 8        51.182               
G25  24690822.978 7    -57587.895 7      1070.222 7        45.274               
> 2020 02 06 15 07 03.3000000  0  6                                             
G10  24049637.521 7    150098.310 7     -2820.087 7        47.910               
G11  22019018.226 8    119312.200 8     -2254.354 8        49.004               
G14  21024054.749 8     74565.011 8     -1406.725 8        53.269               
G18  20683241.554 9     78311.531 9     -1487.597 9        55.530               
G22  21776953.577 8   -106723.512 8      1998.456 8        51.122               
G25  24690802.796 7    -57695.064 7      1067.132 7        45.217               
> 2020 02 06 15 07 03.4000000  0  6                                             
G10  24049688.095 7    150378.087 7     -2826.947 7        47.915               
G11  22019059.009 8    119535.167 8     -2252.207 8        48.899               
G14  21024078.484 8     74703.297 8     -1405.887 8        53.279               
G18  20683265.629 9     78457.871 9     -1485.717 9        55.629               
G22  21776913.502 8   -106925.556 8      1998.049 8        50.900               
G25  24690779.678 7    -57804.293 7      1071.537 7        45.103               
> 2020 02 06 15 07 03.5000000  0  6                                             
G10  24049744.083 7    150661.917 7     -2816.968 7        47.936               
G11  22019103.327 8    119762.201 8     -2251.804 8        49.010               
G14  21024107.704 8     74845.650 8     -1406.821 8        53.311               
G18  20683296.921 9     78608.280 9     -1486.692 9        55.675               
G22  21776877.124 8   -107123.532 8      1996.770 8        50.842               
G25  24690760.902 7    -57909.445 7      1065.424 7        44.889               
> 2020 02 06 15 07 03.6000000  0  6                                             
G10  24049797.417 7    150943.031 7     -2822.037 7        47.894               
G11  22019145.905 8    119986.514 8     -2252.170 8        49.114               
G14  21024132.966 8     74985.280 8     -1407.506 8        53.379               
G18  20683324.203 9     78755.967 9     -1486.943 9        55.737               
G22  21776837.736 8   -107324.236 8      1996.557 8        51.004               
G25  24690738.918 7    -58017.331 7      1066.987 7        44.788               
> 2020 02 06 15 07 03.7000000  0  6                                             
G10  24049848.779 7    151223.677 7     -2823.157 7        47.835               
G11  22019187.904 8    120210.373 8     -2254.315 8        49.267               
G14  21024157.864 8     75124.442 8     -1405.642 8        53.501               
G18  20683350.066 9     78903.193 9     -1487.078 9        55.817               
G22  21776798.681 8   -107525.404 8      1997.562 8        51.064               
G25  24690715.963 7    -58125.668 7      1067.455 7        44.619               
> 2020 02 06 15 07 03.8000000  0  6                                             
G10  24049904.402 7    151507.424 7     -2819.725 7        47.632               
G11  22019231.876 8    120437.326 8     -2252.774 8        49.342               
G14  21024186.058 8     75266.707 8     -1407.507 8        53.584               
G18  20683381.655 9     79053.525 9     -1487.580 9        55.804               
G22  21776762.404 8   -107723.470 8      1996.589 8        51.031               
G25  24690698.555 7    -58230.909 7      1069.834 7        44.583               
> 2020 02 06 15 07 03.9000000  0  6                                             
G10  24049958.789 7    151790.534 7     -2824.266 7        47.455               
G11  22019275.756 8    120663.643 8     -2254.887 8        49.357               
G14  21024214.678 8     75408.332 8     -1407.524 8        53.611               
G18  20683410.704 9     79203.219 9     -1487.377 9        55.733               
G22  21776725.123 8   -107922.180 8      1996.772 8        51.264               
G25  24690679.590 7    -58336.789 7      1069.802 7        44.276               
> 2020 02 06 15 07 04.0000000  0  6                                             
G10  24050010.122 7    152070.685 7     -2824.059 7        47.111               
G11  22019315.849 8    120887.004 8     -2253.901 8        49.372               
G14  21024238.974 8     75547.000 8     -1405.489 8        53.561               
G18  20683434.786 9     79349.962 9     -1488.099 9        55.663               
G22  21776685.216 8   -108123.845 8      1996.268 8        51.589               
G25  24690657.427 7    -58445.620 7      1072.835 7        44.269               
> 2020 02 06 15 07 04.1000000  0  6                                             
G10  24050065.588 7    152354.651 7     -2821.537 7        46.905               
G11  22019360.093 8    121114.207 8     -2254.629 8        49.391               
G14  21024268.244 8     75689.501 8     -1407.315 8        53.572               
G18  20683465.146 9     79500.542 9     -1487.529 9        55.519               
G22  21776648.478 8   -108321.678 8      1998.197 8        51.702               
G25  24690638.468 7    -58550.613 7      1071.675 7        44.245               
> 2020 02 06 15 07 04.2000000  0  6                                             
G10  24050119.709 7    152636.524 7     -2820.119 7        46.802               
G11  22019403.064 8    121339.296 8     -2252.836 8        49.356               
G14  21024294.240 8     75829.895 8     -1407.709 8        53.727               
G18  20683493.143 9     79649.018 9     -1487.998 9        55.319               
G22  21776609.359 8   -108521.614 8      1994.035 8        51.601               
G25  24690617.844 7    -58657.714 7      1067.783 7        44.259               
> 2020 02 06 15 07 04.3000000  0  6                                             
G10  24050174.516 7    152919.840 7     -2817.864 7        46.836               
G11  22019446.488 8    121565.840 8     -2253.064 8        49.415               
G14  21024323.101 8     75971.730 8     -1406.002 8        53.939               
G18  20683524.219 9     79798.938 9     -1487.625 9        55.131               
G22  21776573.962 8   -108720.119 8      1995.574 8        51.364               
G25  24690599.388 7    -58763.369 7      1065.675 7        44.255               
> 2020 02 06 15 07 04.4000000  0  6                                             
G10  24050227.091 7    153201.093 7     -2820.475 7        47.062               
G11  22019488.539 8    121790.315 8     -2252.188 8        49.451               
G14  21024348.926 9     76111.510 9     -1406.924 9        54.047               
G18  20683550.563 9     79946.804 9     -1487.183 9        55.057               
G22  21776534.959 8   -108920.675 8      1996.559 8        51.217               
G25  24690578.861 7    -58871.077 7      1065.702 7        44.235               
> 2020 02 06 15 07 04.5000000  0  6                                             
G10  24050280.566 7    153482.838 7     -2820.009 7        47.319               
G11  22019532.347 8    122015.289 8     -2254.989 8        49.522               
G14  21024374.955 9     76251.775 9     -1406.267 9        54.179               
G18  20683579.022 9     80095.158 9     -1487.339 9        54.934               
G22  21776496.284 8   -109120.747 8      1996.810 8        51.126               
G25  24690558.251 7    -58978.301 7      1065.565 7        44.230               
> 2020 02 06 15 07 04.6000000  0  6                                             
G10  24050334.342 7    153765.142 7     -2822.423 7        47.537               
G11  22019574.526 8    122240.830 8     -2254.612 8        49.692               
G14  21024401.731 9     76392.607 9     -1406.785 9        54.365               
G18  20683608.192 9     80244.097 9     -1487.823 9        54.715               
G22  21776459.392 8   -109320.251 8      1996.895 8        51.131               
G25  24690537.227 7    -59084.953 7      1066.150 7        44.451               
> 2020 02 06 15 07 04.7000000  0  6                                             
G10  24050387.865 7    154047.463 7     -2818.726 7        47.477               
G11  22019617.578 8    122466.390 8     -2255.145 8        49.844               
G14  21024428.504 9     76533.456 9     -1408.062 9        54.502               
G18  20683636.109 9     80393.040 9     -1487.894 9        54.749               
G22  21776421.086 8   -109519.741 8      1996.570 8        51.250               
G25  24690517.398 7    -59191.587 7      1070.518 7        44.554               
> 2020 02 06 15 07 04.8000000  0  6                                             
G10  24050441.230 7    154329.176 7     -2821.800 7        47.475               
G11  22019660.757 8    122691.341 8     -2254.567 8        50.000               
G14  21024455.100 9     76673.697 9     -1406.063 9        54.574               
G18  20683663.331 9     80541.387 9     -1487.364 9        54.741               
G22  21776382.104 8   -109719.837 8      1996.157 8        51.072               
G25  24690495.337 7    -59298.823 7      1068.825 7        44.738               
> 2020 02 06 15 07 04.9000000  0  6                                             
G10  24050494.854 7    154611.696 7     -2822.945 7        47.432               
G11  22019703.428 8    122917.102 8     -2253.363 8        50.092               
G14  21024482.190 9     76814.740 9     -1407.036 9        54.796               
G18  20683692.600 9     80690.539 9     -1487.391 9        54.814               
G22  21776345.329 8   -109919.136 8      1995.960 8        51.048               
G25  24690475.216 7    -59405.254 7      1065.362 7        44.950               
> 2020 02 06 15 07 05.0000000  0  6                                             
G10  24050549.098 7    154894.251 7     -2823.476 7        47.458               
G11  22019747.290 8    123142.904 8     -2252.928 8        50.181               
G14  21024509.326 9     76955.826 9     -1406.666 9        55.076               
G18  20683722.006 9     80839.736 9     -1488.251 9        54.938               
G22  21776307.565 8   -110118.390 8      1996.578 8        51.216               
G25  24690455.947 7    -59511.642 7      1064.947 7        45.146               
> 2020 02 06 15 07 05.1000000  0  6                                             
G10  24050602.874 7    155177.027 7     -2820.349 7        47.349               
G11  22019790.933 8    123368.932 8     -2254.417 8        50.293               
G14  21024536.244 9     77097.135 9     -1406.912 9        55.343               
G18  20683750.961 9     80989.168 9     -1487.901 9        54.981               
G22  21776269.744 8   -110317.421 8      1998.828 8        51.327               
G25  24690436.567 7    -59617.805 7      1068.004 7        45.224               
> 2020 02 06 15 07 05.2000000  0  6                                             
G10  24050655.956 7    155458.023 7     -2823.649 7        47.272               
G11  22019832.169 8    123593.176 8     -2255.523 8        50.268               
G14  21024562.291 9     77236.658 9     -1407.237 9        55.488               
G18  20683777.437 9     81136.801 9     -1487.794 9        55.018               
G22  21776231.069 8   -110518.238 8      1994.655 8        51.184               
G25  24690414.796 7    -59725.754 7      1070.571 7        45.476               
> 2020 02 06 15 07 05.3000000  0  6                                             
G10  24050709.560 7    155739.080 7     -2822.095 7        47.264               
G11  22019875.051 8    123817.488 8     -2253.374 8        50.370               
G14  21024587.518 9     77376.245 9     -1406.513 9        55.564               
G18  20683804.969 9     81284.520 9     -1487.716 9        55.016               
G22  21776191.503 8   -110718.989 8      1996.753 8        51.012               
G25  24690393.099 7    -59833.633 7      1069.778 7        45.414               
> 2020 02 06 15 07 05.4000000  0  6                                             
G10  24050763.890 7    156021.728 7     -2821.535 7        47.323               
G11  22019917.784 8    124043.396 8     -2252.513 8        50.480               
G14  21024615.063 9     77517.430 9     -1407.363 9        55.711               
G18  20683833.282 9     81433.831 9     -1488.863 9        55.064               
G22  21776153.594 8   -110918.146 8      1996.589 8        51.150               
G25  24690372.612 7    -59939.910 7      1067.520 7        45.394               
> 2020 02 06 15 07 05.5000000  0  6                                             
G10  24050816.118 7    156302.947 7     -2820.083 7        47.455               
G11  22019959.594 8    124267.880 8     -2252.589 8        50.585               
G14  21024639.952 9     77657.187 9     -1407.668 9        55.986               
G18  20683860.369 9     81581.725 9     -1488.493 9        55.156               
G22  21776115.065 8   -111118.737 8      1997.197 8        51.461               
G25  24690352.113 7    -60047.615 7      1065.893 7        45.523               
> 2020 02 06 15 07 05.6000000  0  6                                             
G10  24050868.632 7    156584.210 7     -2817.659 7        47.469               
G11  22020001.565 8    124492.404 8     -2254.889 8        50.522               
G14  21024666.198 9     77796.978 9     -1406.856 9        56.011               
G18  20683886.311 9     81729.646 9     -1487.801 9        55.327               
G22  21776076.054 8   -111319.290 8      1995.104 8        51.736               
G25  24690331.525 7    -60155.284 7      1066.290 7        45.605               
> 2020 02 06 15 07 05.7000000  0  6                                             
G10  24050925.104 7    156869.356 7     -2825.283 7        47.594               
G11  22020047.281 8    124720.822 8     -2254.705 8        50.374               
G14  21024696.742 9     77940.665 9     -1407.246 9        56.106               
G18  20683919.161 9     81881.476 9     -1488.269 9        55.390               
G22  21776040.715 8   -111515.942 8      1996.907 8        51.948               
G25  24690314.019 7    -60259.051 7      1069.170 7        45.680               
> 2020 02 06 15 07 05.8000000  0  6                                             
G10  24050977.471 7    157150.897 7     -2818.179 7        47.684               
G11  22020089.230 8    124945.633 8     -2253.922 8        50.267               
G14  21024723.003 9     78080.741 9     -1406.943 9        56.103               
G18  20683945.939 9     82029.691 9     -1489.050 9        55.398               
G22  21776002.576 8   -111716.210 8      1995.168 8        52.141               
G25  24690291.962 7    -60366.433 7      1067.568 7        45.683               
> 2020 02 06 15 07 05.9000000  0  6                                             
G10  24051031.290 7    157432.864 7     -2822.920 7        47.822               
G11  22020131.666 8    125170.870 8     -2254.788 8        50.195               
G14  21024749.124 9     78221.242 9     -1407.045 9        56.063               
G18  20683974.384 9     82178.344 9     -1487.964 9        55.367               
G22  21775964.458 8   -111916.059 8      1996.668 8        52.330               
G25  24690270.659 7    -60473.382 7      1067.995 7        45.486               
> 2020 02 06 15 07 06.0000000  0  6                                             
G10  24051085.319 7    157715.453 7     -2820.097 7        47.913               
G11  22020175.224 8    125396.739 8     -2255.703 8        50.166               
G14  21024776.029 9     78362.372 9     -1407.058 9        55.877               
G18  20684003.397 9     82327.617 9     -1489.239 9        55.328               
G22  21775926.534 8   -112115.276 8      1996.734 8        52.565               
G25  24690251.855 7    -60579.704 7      1066.667 7        45.255               
> 2020 02 06 15 07 06.1000000  0  6                                             
G10  24051139.288 7    157997.175 7     -2822.374 7        47.896               
G11  22020217.274 8    125621.738 8     -2253.597 8        50.113               
G14  21024802.800 9     78502.630 9     -1407.252 9        55.583               
G18  20684031.884 9     82476.036 9     -1488.413 9        55.350               
G22  21775888.959 8   -112315.361 8      1995.784 8        52.651               
G25  24690231.273 7    -60686.893 7      1066.910 7        45.151               
> 2020 02 06 15 07 06.2000000  0  6                                             
G10  24051193.170 7    158280.000 7     -2820.596 7        47.747               
G11  22020260.417 8    125847.848 8     -2252.730 8        50.074               
G14  21024830.522 9     78644.000 9     -1407.727 9        55.258               
G18  20684060.195 9     82625.555 9     -1487.533 9        55.341               
G22  21775851.262 8   -112514.339 8      1997.512 8        52.653               
G25  24690213.090 7    -60792.968 7      1067.883 7        45.100               
> 2020 02 06 15 07 06.3000000  0  6                                             
G10  24051247.971 7    158562.194 7     -2819.091 7        47.594               
G11  22020303.692 8    126073.331 8     -2254.900 8        50.023               
G14  21024857.019 9     78784.736 9     -1406.754 9        55.033               
G18  20684089.408 9     82774.464 9     -1489.573 9        55.460               
G22  21775812.841 8   -112713.951 8      1997.183 8        52.774               
G25  24690193.627 7    -60899.670 7      1065.841 7        45.165               
> 2020 02 06 15 07 06.4000000  0  6                                             
G10  24051299.840 7    158843.453 7     -2827.100 7        47.608               
G11  22020346.091 8    126297.875 8     -2255.389 8        50.091               
G14  21024882.138 9     78924.532 9     -1406.153 9        54.949               
G18  20684116.564 9     82922.418 9     -1488.133 9        55.430               
G22  21775774.453 8   -112914.502 8      1995.934 8        53.011               
G25  24690171.071 7    -61007.311 7      1067.940 7        45.239               
> 2020 02 06 15 07 06.5000000  0  6                                             
G10  24051354.441 7    159126.408 7     -2823.415 7        47.444               
G11  22020389.684 8    126524.125 8     -2254.218 8        50.234               
G14  21024910.543 9     79066.032 9     -1406.522 9        54.968               
G18  20684145.809 9     83072.099 9     -1489.658 9        55.243               
G22  21775737.207 8   -113113.350 8      1996.323 8        53.279               
G25  24690151.069 7    -61113.251 7      1068.040 7        45.191               
> 2020 02 06 15 07 06.6000000  0  6                                             
G10  24051407.438 7    159408.372 7     -2823.483 7        47.405               
G11  22020432.800 8    126749.387 8     -2256.059 8        50.274               
G14  21024936.861 9     79206.539 9     -1407.887 9        55.073               
G18  20684173.450 9     83220.768 9     -1489.125 9        55.183               
G22  21775698.733 8   -113313.193 8      1995.459 8        53.275               
G25  24690130.535 7    -61220.170 7      1063.280 7        45.124               
> 2020 02 06 15 07 06.7000000  0  6                                             
G10  24051461.114 7    159690.646 7     -2820.772 7        47.326               
G11  22020476.237 8    126974.960 8     -2254.385 8        50.252               
G14  21024964.038 9     79347.362 9     -1407.143 9        55.173               
G18  20684202.627 9     83369.775 9     -1490.044 9        55.198               
G22  21775661.456 8   -113512.721 8      1997.384 8        53.224               
G25  24690110.913 7    -61326.784 7      1070.510 7        45.073               
> 2020 02 06 15 07 06.8000000  0  6                                             
G10  24051514.487 7    159972.508 7     -2818.578 7        47.173               
G11  22020518.549 8    127200.124 8     -2254.618 8        50.254               
G14  21024989.660 9     79487.770 9     -1407.164 9        55.151               
G18  20684230.501 9     83518.358 9     -1489.847 9        55.148               
G22  21775622.928 8   -113712.663 8      1995.499 8        53.182               
G25  24690090.147 7    -61433.805 7      1066.416 7        45.172               
> 2020 02 06 15 07 06.9000000  0  6                                             
G10  24051568.471 7    160255.542 7     -2821.611 7        47.211               
G11  22020563.027 8    127426.459 8     -2253.769 8        50.233               
G14  21025018.109 9     79629.348 9     -1407.468 9        55.034               
G18  20684259.522 9     83668.126 9     -1488.993 9        55.038               
G22  21775585.476 8   -113911.437 8      1996.338 8        53.160               
G25  24690070.404 7    -61539.653 7      1064.549 7        45.154               
> 2020 02 06 15 07 07.0000000  0  6                                             
G10  24051622.322 7    160537.241 7     -2821.589 7        47.246               
G11  22020604.673 8    127651.466 8     -2253.781 8        50.203               
G14  21025044.370 9     79769.592 9     -1406.289 9        54.861               
G18  20684287.695 9     83816.556 9     -1488.953 9        55.018               
G22  21775547.623 8   -114111.543 8      1995.278 8        53.068               
G25  24690049.329 7    -61646.833 7      1063.167 7        45.110               
> 2020 02 06 15 07 07.1000000  0  6                                             
G10  24051676.354 7    160820.456 7     -2823.871 7        47.352               
G11  22020648.663 8    127877.988 8     -2253.603 8        50.231               
G14  21025072.296 9     79911.352 9     -1407.946 9        54.747               
G18  20684317.390 9     83966.511 9     -1488.499 9        55.059               
G22  21775510.685 8   -114310.135 8      1996.812 8        53.082               
G25  24690029.992 7    -61752.498 7      1062.717 7        45.053               
> 2020 02 06 15 07 07.2000000  0  6                                             
G10  24051728.859 7    161100.649 7     -2819.030 7        47.423               
G11  22020689.714 8    128101.501 8     -2255.200 8        50.341               
G14  21025096.067 9     80050.104 9     -1407.699 9        54.769               
G18  20684342.680 9     84113.462 9     -1489.338 9        54.982               
G22  21775470.092 8   -114511.739 8      1995.489 8        53.157               
G25  24690007.035 7    -61861.173 7      1070.323 7        44.931               
> 2020 02 06 15 07 07.3000000  0  6                                             
G10  24051783.329 7    161383.303 7     -2820.777 7        47.533               
G11  22020732.373 8    128327.477 8     -2255.848 8        50.411               
G14  21025123.717 9     80191.308 9     -1408.082 9        54.836               
G18  20684372.063 9     84262.866 9     -1489.198 9        54.863               
G22  21775433.126 8   -114710.887 8      1996.341 8        53.327               
G25  24689987.618 7    -61967.375 7      1066.782 7        44.863               
> 2020 02 06 15 07 07.4000000  0  6                                             
G10  24051836.619 7    161664.885 7     -2818.299 7        47.536               
G11  22020775.549 8    128552.376 8     -2254.899 8        50.441               
G14  21025149.917 9     80331.438 9     -1407.360 9        54.879               
G18  20684399.317 9     84411.195 9     -1489.482 9        54.732               
G22  21775393.980 8   -114911.110 8      1995.478 8        53.368               
G25  24689967.483 7    -62074.661 7      1069.192 7        44.869               
> 2020 02 06 15 07 07.5000000  0  6                                             
G10  24051890.982 7    161948.124 7     -2818.736 7        47.542               
G11  22020819.691 8    128778.939 8     -2255.223 8        50.491               
G14  21025177.977 9     80473.232 9     -1407.143 9        54.937               
G18  20684428.825 9     84561.207 9     -1489.828 9        54.509               
G22  21775356.621 8   -115109.672 8      1994.548 8        53.248               
G25  24689947.333 7    -62180.280 7      1066.079 7        44.842               
> 2020 02 06 15 07 07.6000000  0  6                                             
G10  24051943.207 7    162229.569 7     -2823.260 7        47.600               
G11  22020860.712 8    129003.707 8     -2256.344 8        50.426               
G14  21025203.613 9     80613.225 9     -1407.096 9        55.012               
G18  20684455.533 9     84709.404 9     -1491.296 9        54.224               
G22  21775318.661 8   -115310.037 8      1995.786 8        53.162               
G25  24689925.831 7    -62287.694 7      1068.355 7        44.792               
> 2020 02 06 15 07 07.7000000  0  6                                             
G10  24051996.501 7    162512.141 7     -2820.115 7        47.711               
G11  22020903.928 8    129229.612 8     -2257.305 8        50.536               
G14  21025230.246 9     80754.353 9     -1407.664 9        55.200               
G18  20684484.596 9     84858.751 9     -1488.258 9        54.040               
G22  21775281.359 8   -115509.263 8      1995.466 8        53.363               
G25  24689906.290 7    -62393.976 7      1070.875 7        44.850               
> 2020 02 06 15 07 07.8000000  0  6                                             
G10  24052050.832 7    162794.407 7     -2821.362 7        47.817               
G11  22020947.662 8    129455.208 8     -2256.088 8        50.654               
G14  21025257.684 9     80895.171 9     -1408.035 9        55.385               
G18  20684512.803 8     85007.790 8     -1490.102 8        53.928               
G22  21775242.718 8   -115708.801 8      1995.836 8        53.570               
G25  24689886.858 7    -62500.558 7      1067.306 7        44.884               
> 2020 02 06 15 07 07.9000000  0  6                                             
G10  24052104.426 8    163076.397 8     -2823.029 8        48.024               
G11  22020990.088 8    129680.536 8     -2256.212 8        50.670               
G14  21025284.171 9     81035.721 9     -1408.344 9        55.652               
G18  20684541.112 8     85156.562 8     -1489.588 8        53.784               
G22  21775204.876 8   -115908.611 8      1996.129 8        53.573               
G25  24689866.635 7    -62607.411 7      1066.309 7        44.823               
> 2020 02 06 15 07 08.0000000  0  6                                             
G10  24052157.597 8    163358.007 8     -2820.806 8        48.198               
G11  22021032.502 8    129905.488 8     -2256.187 8        50.725               
G14  21025310.199 9     81175.886 9     -1407.287 9        55.752               
G18  20684568.694 8     85304.959 8     -1490.256 8        53.785               
G22  21775166.432 8   -116108.802 8      1996.216 8        53.597               
G25  24689845.435 7    -62714.646 7      1066.517 7        44.931               
> 2020 02 06 15 07 08.1000000  0  6                                             
G10  24052212.733 8    163640.753 8     -2823.422 8        48.213               
G11  22021075.147 8    130131.575 8     -2256.231 8        50.682               
G14  21025337.048 9     81317.194 9     -1408.017 9        55.860               
G18  20684598.028 8     85454.492 8     -1490.371 8        53.832               
G22  21775128.435 8   -116307.853 8      1994.712 8        53.462               
G25  24689824.913 7    -62820.735 7      1064.597 7        44.905               
> 2020 02 06 15 07 08.2000000  0  6                                             
G10  24052265.855 8    163922.540 8     -2824.172 8        48.133               
G11  22021118.138 8    130356.702 8     -2256.546 8        50.669               
G14  21025363.402 9     81457.534 9     -1408.336 9        55.980               
G18  20684625.776 8     85603.069 8     -1489.917 8        53.866               
G22  21775090.050 8   -116507.872 8      1995.429 8        53.337               
G25  24689803.272 7    -62927.792 7      1067.907 7        44.894               
> 2020 02 06 15 07 08.3000000  0  6                                             
G10  24052320.192 8    164205.477 8     -2824.284 8        48.068               
G11  22021162.129 8    130582.988 8     -2256.431 8        50.686               
G14  21025391.293 9     81599.028 9     -1407.434 9        56.164               
G18  20684655.436 8     85752.803 8     -1490.664 8        53.928               
G22  21775052.826 8   -116706.736 8      1995.260 8        53.201               
G25  24689784.221 7    -63033.686 7      1066.126 7        44.878               
> 2020 02 06 15 07 08.4000000  0  6                                             
G10  24052375.226 7    164489.754 7     -2824.790 7        47.863               
G11  22021207.334 8    130810.618 8     -2255.168 8        50.805               
G14  21025421.292 9     81741.871 9     -1408.717 9        56.148               
G18  20684686.346 9     85903.885 9     -1490.514 9        54.128               
G22  21775016.799 8   -116904.252 8      1996.050 8        53.011               
G25  24689767.796 7    -63138.241 7      1067.895 7        44.918               
> 2020 02 06 15 07 08.5000000  0  6                                             
G10  24052428.726 7    164772.025 7     -2823.278 7        47.772               
G11  22021250.899 8    131036.244 8     -2255.916 8        50.848               
G14  21025447.774 9     81882.700 9     -1406.964 9        56.026               
G18  20684715.562 9     86052.962 9     -1490.561 9        54.505               
G22  21774979.185 8   -117103.787 8      1996.610 8        52.824               
G25  24689748.283 7    -63244.787 7      1066.991 7        44.922               
> 2020 02 06 15 07 08.6000000  0  6                                             
G10  24052482.496 7    165053.564 7     -2822.829 7        47.879               
G11  22021292.375 8    131261.143 8     -2255.619 8        50.893               
G14  21025473.776 9     82022.802 9     -1408.304 9        55.986               
G18  20684743.047 9     86201.317 9     -1490.314 9        54.989               
G22  21774940.715 8   -117304.046 8      1995.119 8        52.768               
G25  24689726.020 7    -63352.071 7      1065.593 7        44.948               
> 2020 02 06 15 07 08.7000000  0  6                                             
G10  24052535.964 7    165334.673 7     -2823.343 7        47.930               
G11  22021334.229 8    131485.612 8     -2256.417 8        50.828               
G14  21025499.636 9     82162.477 9     -1408.197 9        56.105               
G18  20684769.568 9     86349.242 9     -1489.668 9        55.312               
G22  21774901.318 8   -117504.734 8      1995.402 8        52.832               
G25  24689704.260 7    -63459.789 7      1071.207 7        44.852               
> 2020 02 06 15 07 08.8000000  0  6                                             
G10  24052589.213 8    165616.217 8     -2818.669 8        48.003               
G11  22021376.488 8    131710.515 8     -2256.182 8        50.994               
G14  21025525.921 9     82302.581 9     -1408.635 9        56.054               
G18  20684796.568 9     86497.605 9     -1491.308 9        55.544               
G22  21774862.541 8   -117704.990 8      1994.020 8        52.926               
G25  24689683.370 7    -63567.054 7      1064.168 7        44.840               
> 2020 02 06 15 07 08.9000000  0  6                                             
G10  24052643.274 8    165898.617 8     -2819.893 8        48.040               
G11  22021419.095 8    131936.283 8     -2256.194 8        51.209               
G14  21025552.267 9     82443.547 9     -1407.756 9        55.826               
G18  20684825.451 9     86646.834 9     -1491.594 9        55.697               
G22  21774824.666 8   -117904.387 8      1995.325 8        52.920               
G25  24689663.453 7    -63673.465 7      1064.703 7        44.826               
> 2020 02 06 15 07 09.0000000  0  6                                             
G10  24052698.452 8    166182.596 8     -2822.783 8        48.051               
G11  22021464.249 8    132163.638 8     -2255.967 8        51.374               
G14  21025580.820 9     82586.093 9     -1407.515 9        55.656               
G18  20684856.774 9     86797.646 9     -1489.994 9        55.601               
G22  21774788.033 8   -118102.206 8      1994.901 8        53.009               
G25  24689645.655 7    -63778.294 7      1066.882 7        44.843               
> 2020 02 06 15 07 09.1000000  0  6                                             
G10  24052751.918 8    166465.018 8     -2820.809 8        48.141               
G11  22021507.475 8    132389.424 8     -2256.137 8        51.677               
G14  21025608.376 9     82727.076 9     -1408.620 9        55.381               
G18  20684885.688 9     86946.900 9     -1490.781 9        55.562               
G22  21774751.028 8   -118301.588 8      1995.155 8        53.239               
G25  24689625.500 7    -63884.682 7      1061.403 7        44.799               
> 2020 02 06 15 07 09.2000000  0  6                                             
G10  24052805.241 8    166746.464 8     -2825.723 8        48.246               
G11  22021549.041 8    132614.246 8     -2254.920 8        51.801               
G14  21025634.252 9     82867.089 9     -1408.894 9        55.101               
G18  20684912.958 9     87095.187 9     -1490.945 9        55.665               
G22  21774712.576 8   -118501.938 8      1995.669 8        53.407               
G25  24689603.737 7    -63992.042 7      1067.251 7        44.741               
> 2020 02 06 15 07 09.3000000  0  6                                             
G10  24052858.288 8    167028.371 8     -2819.834 8        48.209               
G11  22021591.956 8    132839.531 8     -2256.390 8        51.852               
G14  21025660.961 9     83007.564 9     -1408.996 9        54.782               
G18  20684939.684 9     87243.936 9     -1490.839 9        55.781               
G22  21774673.598 8   -118701.830 8      1994.698 8        53.293               
G25  24689582.450 7    -64098.930 7      1063.420 7        44.693               
> 2020 02 06 15 07 09.4000000  0  6                                             
G10  24052910.679 8    167309.087 8     -2820.710 8        48.125               
G11  22021632.840 8    133063.630 8     -2256.570 8        51.727               
G14  21025685.029 9     83146.848 9     -1408.317 9        54.467               
G18  20684965.772 9     87391.500 9     -1490.511 9        55.765               
G22  21774634.071 8   -118902.910 8      1995.637 8        53.195               
G25  24689560.666 7    -64207.016 7      1070.810 7        44.680               
> 2020 02 06 15 07 09.5000000  0  6                                             
G10  24052964.936 8    167591.871 8     -2818.674 8        48.091               
G11  22021675.982 8    133289.802 8     -2255.505 8        51.664               
G14  21025713.269 9     83288.203 9     -1408.079 9        54.416               
G18  20684994.655 9     87541.143 9     -1490.178 9        55.589               
G22  21774596.909 8   -119101.922 8      1994.534 8        53.164               
G25  24689541.463 7    -64313.013 7      1064.636 7        44.652               
> 2020 02 06 15 07 09.6000000  0  6                                             
G10  24053019.412 7    167874.622 7     -2823.136 7        47.972               
G11  22021720.451 8    133515.936 8     -2257.903 8        51.633               
G14  21025740.441 9     83429.523 9     -1408.034 9        54.613               
G18  20685024.168 9     87690.752 9     -1491.876 9        55.234               
G22  21774558.734 8   -119300.974 8      1996.263 8        52.968               
G25  24689522.390 7    -64419.057 7      1065.136 7        44.503               
> 2020 02 06 15 07 09.7000000  0  6                                             
G10  24053072.183 7    168156.151 7     -2824.115 7        47.865               
G11  22021761.983 8    133740.857 8     -2255.978 8        51.423               
G14  21025765.980 9     83569.629 9     -1409.225 9        54.767               
G18  20685050.904 9     87839.144 9     -1491.197 9        55.010               
G22  21774520.034 8   -119501.237 8      1996.541 8        52.747               
G25  24689501.470 7    -64526.308 7      1060.305 7        44.332               
> 2020 02 06 15 07 09.8000000  0  6                                             
G10  24053125.386 7    168438.090 7     -2823.963 7        47.805               
G11  22021804.643 8    133966.190 8     -2256.801 8        51.167               
G14  21025792.040 9     83710.140 9     -1407.949 9        54.708               
G18  20685079.394 9     87987.956 9     -1491.280 9        55.169               
G22  21774482.248 8   -119701.091 8      1993.408 8        52.777               
G25  24689480.123 7    -64633.155 7      1062.957 7        44.145               
> 2020 02 06 15 07 09.9000000  0  6                                             
G10  24053179.461 7    168721.075 7     -2823.649 7        47.732               
G11  22021848.604 8    134192.577 8     -2255.694 8        50.953               
G14  21025820.652 9     83851.698 9     -1407.928 9        54.771               
G18  20685108.202 9     88137.815 9     -1491.470 9        55.309               
G22  21774444.923 8   -119899.902 8      1997.008 8        52.856               
G25  24689459.560 7    -64738.946 7      1065.340 7        44.039               
> 2020 02 06 15 07 10.0000000  0  6                                             
G10  24053234.556 7    169004.869 7     -2824.431 7        47.546               
G11  22021892.942 8    134419.772 8     -2255.690 8        50.730               
G14  21025849.603 9     83994.069 9     -1408.481 9        54.988               
G18  20685139.209 9     88288.488 9     -1490.588 9        55.362               
G22  21774408.778 8   -120097.902 8      1995.738 8        52.879               
G25  24689440.909 7    -64843.926 7      1063.634 7        44.041               
> 2020 02 06 15 07 10.1000000  0  6                                             
G10  24053286.910 7    169286.079 7     -2821.142 7        47.472               
G11  22021935.004 8    134644.382 8     -2256.900 8        50.492               
G14  21025875.190 9     84133.848 9     -1408.144 9        55.181               
G18  20685165.850 9     88436.580 9     -1490.478 9        55.290               
G22  21774370.037 8   -120298.492 8      1996.916 8        52.847               
G25  24689420.215 7    -64951.492 7      1062.896 7        44.070               
> 2020 02 06 15 07 10.2000000  0  6                                             
G10  24053343.370 7    169570.886 7     -2823.780 7        47.426               
G11  22021980.867 8    134872.590 8     -2253.887 8        50.376               
G14  21025904.685 9     84277.233 9     -1408.139 9        55.197               
G18  20685198.740 9     88588.272 9     -1490.986 9        55.222               
G22  21774334.006 8   -120495.479 8      1996.093 8        52.764               
G25  24689402.839 7    -65055.452 7      1065.475 7        44.157               
> 2020 02 06 15 07 10.3000000  0  6                                             
G10  24053395.535 7    169851.797 7     -2821.838 7        47.416               
G11  22022021.935 8    135096.920 8     -2257.461 8        50.238               
G14  21025929.618 9     84416.726 9     -1407.859 9        55.090               
G18  20685224.245 9     88736.081 9     -1490.689 9        55.286               
G22  21774294.557 8   -120696.358 8      1995.793 8        52.694               
G25  24689380.866 7    -65163.305 7      1068.125 7        44.174               
> 2020 02 06 15 07 10.4000000  0  6                                             
G10  24053449.084 7    170134.013 7     -2821.608 7        47.346               
G11  22022065.800 8    135322.544 8     -2256.808 8        50.187               
G14  21025956.793 9     84557.516 9     -1408.764 9        54.982               
G18  20685253.153 9     88885.194 9     -1492.123 9        55.407               
G22  21774256.885 8   -120895.940 8      1994.684 8        52.728               
G25  24689360.759 7    -65269.854 7      1062.646 7        44.225               
> 2020 02 06 15 07 10.5000000  0  6                                             
G10  24053501.643 7    170415.132 7     -2818.393 7        47.185               
G11  22022106.815 8    135547.091 8     -2256.584 8        50.170               
G14  21025981.976 9     84697.225 9     -1407.824 9        54.930               
G18  20685278.766 9     89033.224 9     -1491.128 9        55.547               
G22  21774217.418 8   -121096.602 8      1995.336 8        52.858               
G25  24689339.251 7    -65377.479 7      1067.593 7        44.206               
> 2020 02 06 15 07 10.6000000  0  6                                             
G10  24053556.556 7    170698.240 7     -2819.336 7        47.034               
G11  22022151.025 8    135773.611 8     -2257.019 8        50.152               
G14  21026009.603 9     84838.907 9     -1408.058 9        54.918               
G18  20685309.448 9     89183.230 9     -1491.742 9        55.604               
G22  21774180.377 8   -121295.294 8      1994.306 8        52.959               
G25  24689320.132 7    -65483.132 7      1063.799 7        44.203               
> 2020 02 06 15 07 10.7000000  0  6                                             
G10  24053608.670 7    170977.953 7     -2824.088 7        46.915               
G11  22022191.416 8    135996.749 8     -2255.002 8        50.180               
G14  21026032.680 9     84977.205 9     -1407.302 9        54.906               
G18  20685334.562 9     89329.860 9     -1490.554 9        55.645               
G22  21774139.858 8   -121497.373 8      1995.023 8        53.205               
G25  24689297.304 7    -65592.165 7      1060.699 7        44.160               
> 2020 02 06 15 07 10.8000000  0  6                                             
G10  24053663.610 7    171261.127 7     -2823.425 7        46.869               
G11  22022234.938 8    136223.348 8     -2255.663 8        50.101               
G14  21026061.138 9     85118.960 9     -1408.924 9        54.928               
G18  20685364.325 9     89479.951 9     -1492.308 9        55.658               
G22  21774102.880 8   -121695.992 8      1994.528 8        53.403               
G25  24689278.606 7    -65697.743 7      1067.708 7        44.104               
> 2020 02 06 15 07 10.9000000  0  6                                             
G10  24053716.381 7    171543.489 7     -2821.851 7        46.775               
G11  22022278.257 8    136449.138 8     -2258.701 8        50.077               
G14  21026088.017 9     85259.905 9     -1408.422 9        54.985               
G18  20685392.097 9     89629.232 9     -1491.842 9        55.615               
G22  21774064.912 8   -121895.423 8      1995.287 8        53.405               
G25  24689257.810 7    -65804.121 7      1062.275 7        44.083               
> 2020 02 06 15 07 11.0000000  0  6                                             
G10  24053771.067 7    171826.592 7     -2829.656 7        46.764               
G11  22022322.132 8    136675.667 8     -2257.599 8        50.049               
G14  21026115.936 9     85401.586 9     -1408.449 9        54.995               
G18  20685422.642 9     89779.259 9     -1491.643 9        55.532               
G22  21774028.288 8   -122094.116 8      1994.549 8        53.552               
G25  24689237.464 7    -65909.769 7      1066.300 7        44.062               
> 2020 02 06 15 07 11.1000000  0  6                                             
G10  24053824.775 7    172108.435 7     -2822.067 7        46.634               
G11  22022363.867 8    136900.950 8     -2255.158 8        50.009               
G14  21026141.624 9     85542.019 9     -1408.171 9        54.886               
G18  20685449.867 9     89928.037 9     -1492.050 9        55.591               
G22  21773989.290 8   -122294.061 8      1995.525 8        53.616               
G25  24689217.211 7    -66016.654 7      1064.588 7        44.151               
> 2020 02 06 15 07 11.2000000  0  6                                             
G10  24053879.090 7    172391.368 7     -2824.282 7        46.485               
G11  22022408.569 8    137127.311 8     -2256.280 8        49.959               
G14  21026169.493 9     85683.530 9     -1407.676 9        54.795               
G18  20685479.738 9     90077.900 9     -1491.777 9        55.563               
G22  21773951.848 8   -122492.924 8      1994.866 8        53.646               
G25  24689197.799 7    -66122.460 7      1063.232 7        44.171               
> 2020 02 06 15 07 11.3000000  0  6                                             
G10  24053931.327 7    172673.091 7     -2824.409 7        46.420               
G11  22022450.173 8    137352.482 8     -2256.822 8        49.898               
G14  21026195.605 9     85823.845 9     -1407.910 9        54.668               
G18  20685506.440 9     90226.567 9     -1492.144 9        55.607               
G22  21773913.828 8   -122692.988 8      1995.868 8        53.618               
G25  24689177.934 7    -66229.469 7      1065.939 7        44.188               
> 2020 02 06 15 07 11.4000000  0  6                                             
G10  24053986.905 7    172956.293 7     -2824.109 7        46.296               
G11  22022494.405 8    137579.118 8     -2257.419 8        49.728               
G14  21026223.987 9     85965.627 9     -1408.315 9        54.509               
G18  20685537.466 9     90376.703 9     -1493.190 9        55.535               
G22  21773877.042 8   -122891.584 8      1995.913 8        53.520               
G25  24689158.266 7    -66335.000 7      1067.442 7        44.099               
> 2020 02 06 15 07 11.5000000  0  6                                             
G10  24054039.727 7    173237.468 7     -2820.327 7        46.235               
G11  22022536.488 8    137803.759 8     -2259.120 8        49.624               
G14  21026249.094 9     86105.406 9     -1408.838 9        54.300               
G18  20685563.771 9     90524.845 9     -1492.501 9        55.637               
G22  21773837.338 8   -123092.185 8      1995.454 8        53.375               
G25  24689136.235 7    -66442.534 7      1067.749 7        44.059               
> 2020 02 06 15 07 11.6000000  0  6                                             
G10  24054093.544 7    173521.153 7     -2822.984 7        46.217               
G11  22022580.316 8    138030.892 8     -2256.360 8        49.464               
G14  21026277.823 8     86247.676 8     -1408.077 8        53.916               
G18  20685594.000 9     90675.485 9     -1492.634 9        55.775               
G22  21773801.614 8   -123290.292 8      1993.761 8        53.172               
G25  24689117.665 7    -66547.574 7      1064.521 7        44.030               
> 2020 02 06 15 07 11.7000000  0  6                                             
G10  24054146.980 7    173802.621 7     -2823.641 7        46.371               
G11  22022622.476 8    138255.811 8     -2259.413 8        49.294               
G14  21026304.116 8     86387.734 8     -1408.352 8        53.683               
G18  20685620.222 9     90823.912 9     -1491.817 9        55.789               
G22  21773762.059 8   -123490.613 8      1994.801 8        52.918               
G25  24689096.783 7    -66654.819 7      1063.896 7        44.034               
> 2020 02 06 15 07 11.8000000  0  6                                             
G10  24054203.032 7    174085.912 7     -2826.097 7        46.506               
G11  22022666.502 8    138482.550 8     -2257.296 8        49.287               
G14  21026332.024 8     86529.611 8     -1410.000 8        53.456               
G18  20685651.436 9     90974.156 9     -1492.274 9        55.831               
G22  21773724.906 8   -123689.121 8      1995.631 8        52.739               
G25  24689077.910 7    -66760.249 7      1065.018 7        44.082               
> 2020 02 06 15 07 11.9000000  0  6                                             
G10  24054254.607 7    174366.426 7     -2822.028 7        46.549               
G11  22022706.999 8    138706.523 8     -2258.828 8        49.351               
G14  21026356.367 8     86668.717 8     -1409.432 8        53.361               
G18  20685676.529 9     91121.638 9     -1493.206 9        55.830               
G22  21773685.492 8   -123890.397 8      1996.240 8        52.696               
G25  24689055.561 7    -66868.439 7      1059.588 7        44.108               
> 2020 02 06 15 07 12.0000000  0  6                                             
G10  24054308.325 7    174649.472 7     -2822.179 7        46.612               
G11  22022751.300 8    138933.037 8     -2256.940 8        49.387               
G14  21026383.371 8     86810.363 8     -1408.910 8        53.485               
G18  20685706.553 9     91271.672 9     -1492.061 9        55.825               
G22  21773648.329 8   -124089.130 8      1994.549 8        52.711               
G25  24689036.803 7    -66974.097 7      1063.810 7        44.074               
> 2020 02 06 15 07 12.1000000  0  6                                             
G10  24054361.523 7    174931.102 7     -2822.724 7        46.573               
G11  22022793.365 8    139158.123 8     -2258.208 8        49.325               
G14  21026409.908 8     86950.576 8     -1408.118 8        53.534               
G18  20685733.161 9     91420.267 9     -1493.014 9        55.743               
G22  21773609.501 8   -124289.300 8      1996.139 8        52.696               
G25  24689015.272 7    -67081.177 7      1062.868 7        44.111               
> 2020 02 06 15 07 12.2000000  0  6                                             
G10  24054415.552 7    175213.228 7     -2820.860 7        46.593               
G11  22022836.262 8    139383.731 8     -2258.178 8        49.266               
G14  21026436.455 8     87091.310 8     -1410.057 8        53.638               
G18  20685761.995 9     91569.386 9     -1493.064 9        55.585               
G22  21773571.558 8   -124488.950 8      1994.759 8        52.671               
G25  24688993.840 7    -67187.739 7      1063.061 7        44.184               
> 2020 02 06 15 07 12.3000000  0  6                                             
G10  24054468.627 7    175495.461 7     -2820.760 7        46.706               
G11  22022879.670 8    139609.426 8     -2257.853 8        49.347               
G14  21026463.227 8     87232.127 8     -1407.872 8        53.801               
G18  20685789.678 9     91718.598 9     -1493.395 9        55.480               
G22  21773533.161 8   -124688.514 8      1994.167 8        52.582               
G25  24688973.420 7    -67294.210 7      1060.984 7        44.211               
> 2020 02 06 15 07 12.4000000  0  6                                             
G10  24054523.711 7    175779.151 7     -2822.171 7        46.744               
G11  22022923.461 8    139836.598 8     -2257.106 8        49.296               
G14  21026491.185 8     87374.421 8     -1410.224 8        53.894               
G18  20685820.568 9     91869.290 9     -1493.248 9        55.397               
G22  21773496.613 8   -124886.605 8      1994.183 8        52.616               
G25  24688955.688 7    -67399.214 7      1067.727 7        44.215               
> 2020 02 06 15 07 12.5000000  0  6                                             
G10  24054575.754 7    176060.036 7     -2822.554 7        46.836               
G11  22022965.068 8    140060.960 8     -2257.636 8        49.127               
G14  21026516.997 8     87513.904 8     -1409.081 8        53.995               
G18  20685846.397 9     92017.174 9     -1492.228 9        55.321               
G22  21773457.774 8   -125087.508 8      1995.498 8        52.617               
G25  24688933.664 7    -67507.010 7      1059.552 7        44.164               
> 2020 02 06 15 07 12.6000000  0  6                                             
G10  24054631.534 7    176343.753 7     -2823.722 7        46.892               
G11  22023009.716 8    140288.155 8     -2258.227 8        48.971               
G14  21026545.580 9     87656.216 9     -1409.339 9        54.099               
G18  20685877.768 9     92167.888 9     -1493.770 9        55.478               
G22  21773421.028 8   -125285.580 8      1995.616 8        52.639               
G25  24688914.447 7    -67611.988 7      1064.480 7        44.208               
> 2020 02 06 15 07 12.7000000  0  6                                             
G10  24054685.412 7    176627.830 7     -2827.301 7        47.100               
G11  22023054.284 8    140515.723 8     -2257.544 8        48.880               
G14  21026574.996 9     87798.900 9     -1409.583 9        54.274               
G18  20685907.755 9     92318.976 9     -1492.774 9        55.669               
G22  21773385.043 8   -125483.285 8      1995.148 8        52.603               
G25  24688896.242 7    -67716.585 7      1060.218 7        44.202               
> 2020 02 06 15 07 12.8000000  0  6                                             
G10  24054738.542 7    176909.490 7     -2825.632 7        47.193               
G11  22023097.157 8    140740.860 8     -2257.746 8        48.861               
G14  21026600.267 9     87939.151 9     -1409.570 9        54.588               
G18  20685936.547 9     92467.637 9     -1493.124 9        55.875               
G22  21773346.969 8   -125683.420 8      1992.910 8        52.521               
G25  24688875.143 7    -67823.608 7      1064.254 7        44.208               
> 2020 02 06 15 07 12.9000000  0  6                                             
G10  24054791.803 7    177191.503 7     -2821.603 7        47.259               
G11  22023139.625 8    140966.369 8     -2259.863 8        48.846               
G14  21026626.868 9     88079.768 9     -1408.426 9        54.860               
G18  20685963.255 9     92616.670 9     -1493.687 9        55.744               
G22  21773307.990 8   -125883.189 8      1994.061 8        52.387               
G25  24688855.195 7    -67930.276 7      1065.096 7        44.247               
> 2020 02 06 15 07 13.0000000  0  6                                             
G10  24054846.332 7    177472.985 7     -2822.257 7        47.214               
G11  22023181.592 8    141191.343 8     -2260.224 8        48.806               
G14  21026652.967 9     88219.849 9     -1408.937 9        54.940               
G18  20685991.105 9     92765.172 9     -1493.985 9        55.500               
G22  21773269.046 8   -126083.497 8      1995.152 8        52.337               
G25  24688834.049 7    -68037.463 7      1064.976 7        44.302               
> 2020 02 06 15 07 13.1000000  0  6                                             
G10  24054896.970 7    177752.741 7     -2822.052 7        47.332               
G11  22023222.581 8    141414.587 8     -2255.597 8        48.668               
G14  21026676.444 9     88358.204 9     -1408.617 9        55.045               
G18  20686015.386 9     92911.949 9     -1493.910 9        55.250               
G22  21773228.803 8   -126285.529 8      1994.809 8        52.305               
G25  24688811.084 7    -68146.387 7      1065.510 7        44.306               
> 2020 02 06 15 07 13.2000000  0  6                                             
G10  24054952.249 7    178035.985 7     -2821.828 7        47.228               
G11  22023265.959 8    141641.334 8     -2258.610 8        48.558               
G14  21026704.151 9     88500.053 9     -1407.756 9        54.937               
G18  20686045.488 9     93062.226 9     -1493.543 9        55.087               
G22  21773191.484 8   -126484.066 8      1994.217 8        52.211               
G25  24688791.617 7    -68251.804 7      1062.344 7        44.353               
> 2020 02 06 15 07 13.3000000  0  6                                             
G10  24055008.276 7    178320.738 7     -2824.455 7        47.224               
G11  22023311.801 8    141869.592 8     -2257.758 8        48.547               
G14  21026733.661 9     88643.414 9     -1408.514 9        54.676               
G18  20686078.875 9     93214.017 9     -1493.467 9        54.874               
G22  21773156.237 8   -126681.098 8      1995.409 8        52.139               
G25  24688773.935 7    -68355.711 7      1061.328 7        44.452               
> 2020 02 06 15 07 13.4000000  0  6                                             
G10  24055061.289 7    178602.286 7     -2824.547 7        47.077               
G11  22023353.932 8    142094.649 8     -2258.535 8        48.595               
G14  21026760.121 9     88783.570 9     -1410.404 9        54.373               
G18  20686106.103 9     93362.608 9     -1492.728 9        54.651               
G22  21773118.011 8   -126881.333 8      1995.092 8        52.025               
G25  24688753.381 7    -68462.823 7      1068.438 7        44.440               
> 2020 02 06 15 07 13.5000000  0  6                                             
G10  24055113.235 7    178883.508 7     -2821.349 7        46.993               
G11  22023395.156 8    142319.384 8     -2257.252 8        48.661               
G14  21026785.603 9     88923.402 9     -1408.831 9        54.292               
G18  20686130.763 9     93510.877 9     -1493.695 9        54.593               
G22  21773078.217 8   -127081.889 8      1994.880 8        51.952               
G25  24688731.385 7    -68570.247 7      1064.448 7        44.374               
> 2020 02 06 15 07 13.6000000  0  6                                             
G10  24055167.809 7    179168.156 7     -2820.291 7        46.890               
G11  22023441.046 8    142547.531 8     -2258.017 8        48.787               
G14  21026815.249 9     89066.647 9     -1409.088 9        54.269               
G18  20686162.304 9     93662.563 9     -1493.423 9        54.507               
G22  21773042.480 8   -127279.037 8      1995.268 8        51.977               
G25  24688714.340 7    -68674.263 7      1061.113 7        44.358               
> 2020 02 06 15 07 13.7000000  0  6                                             
G10  24055219.578 7    179447.561 7     -2822.017 7        46.950               
G11  22023480.379 8    142770.458 8     -2258.392 8        48.773               
G14  21026837.964 9     89204.664 9     -1408.634 9        54.256               
G18  20686186.644 9     93809.028 9     -1494.688 9        54.450               
G22  21773001.903 8   -127481.410 8      1993.464 8        52.085               
G25  24688689.362 7    -68783.506 7      1067.355 7        44.239               
> 2020 02 06 15 07 13.8000000  0  6                                             
G10  24055276.614 7    179732.364 7     -2826.848 7        46.942               
G11  22023526.013 8    142998.779 8     -2259.159 8        48.833               
G14  21026868.606 9     89348.074 9     -1409.414 9        54.252               
G18  20686220.039 9     93960.890 9     -1494.615 9        54.380               
G22  21772966.716 8   -127678.394 8      1993.593 8        52.116               
G25  24688670.221 7    -68887.346 7      1066.116 7        44.161               
> 2020 02 06 15 07 13.9000000  0  6                                             
G10  24055328.020 7    180012.531 7     -2818.681 7        46.895               
G11  22023566.734 8    143222.467 8     -2258.595 8        48.846               
G14  21026892.691 9     89486.855 9     -1409.389 9        54.170               
G18  20686243.980 9     94108.124 9     -1494.106 9        54.409               
G22  21772926.115 8   -127880.006 8      1994.938 8        52.100               
G25  24688646.667 7    -68995.822 7      1061.502 7        44.034               
> 2020 02 06 15 07 14.0000000  0  6                                             
G10  24055382.294 7    180296.062 7     -2825.933 7        46.951               
G11  22023610.769 8    143449.519 8     -2257.496 8        48.886               
G14  21026921.144 9     89628.993 9     -1408.441 9        54.143               
G18  20686274.917 9     94258.714 9     -1493.961 9        54.451               
G22  21772890.383 8   -128078.263 8      1995.810 8        52.168               
G25  24688629.644 7    -69100.930 7      1061.986 7        43.889               
> 2020 02 06 15 07 14.1000000  0  6                                             
G10  24055435.548 7    180577.141 7     -2822.611 7        47.041               
G11  22023652.301 8    143674.122 8     -2258.563 8        49.064               
G14  21026945.647 9     89768.683 9     -1409.316 9        54.118               
G18  20686301.065 9     94406.866 9     -1494.064 9        54.550               
G22  21772850.147 8   -128278.967 8      1995.276 8        52.188               
G25  24688610.493 7    -69208.488 7      1062.503 7        43.833               
> 2020 02 06 15 07 14.2000000  0  6                                             
G10  24055491.574 7    180861.612 7     -2824.424 7        47.038               
G11  22023698.446 8    143902.127 8     -2259.017 8        49.208               
G14  21026975.477 8     89911.768 8     -1409.540 8        53.931               
G18  20686333.396 9     94558.413 9     -1494.428 9        54.554               
G22  21772813.986 8   -128476.276 8      1993.337 8        52.293               
G25  24688592.898 7    -69312.649 7      1064.379 7        43.801               
> 2020 02 06 15 07 14.3000000  0  6                                             
G10  24055544.584 7    181143.414 7     -2823.186 7        47.148               
G11  22023740.324 8    144127.464 8     -2259.897 8        49.197               
G14  21027002.023 8     90052.184 8     -1409.263 8        53.717               
G18  20686360.782 9     94707.306 9     -1494.217 9        54.545               
G22  21772776.097 8   -128676.256 8      1994.500 8        52.255               
G25  24688572.342 7    -69419.471 7      1056.534 7        43.676               
> 2020 02 06 15 07 14.4000000  0  6                                             
G10  24055597.952 7    181425.921 7     -2821.703 7        47.327               
G11  22023784.149 8    144353.505 8     -2259.610 8        49.351               
G14  21027029.070 8     90193.305 8     -1408.502 8        53.561               
G18  20686389.687 9     94856.899 9     -1493.849 9        54.499               
G22  21772738.493 8   -128875.530 8      1996.460 8        52.104               
G25  24688550.266 7    -69525.596 7      1062.775 7        43.604               
> 2020 02 06 15 07 14.5000000  0  6                                             
G10  24055651.194 7    181707.337 7     -2822.088 7        47.493               
G11  22023826.008 8    144578.463 8     -2258.579 8        49.496               
G14  21027054.293 8     90333.340 8     -1409.387 8        53.611               
G18  20686416.787 9     95005.412 9     -1493.538 9        54.451               
G22  21772699.370 8   -129075.894 8      1994.648 8        51.985               
G25  24688528.673 7    -69632.796 7      1066.635 7        43.597               
> 2020 02 06 15 07 14.6000000  0  6                                             
G10  24055704.598 7    181989.626 7     -2824.398 7        47.641               
G11  22023868.744 8    144804.291 8     -2257.821 8        49.540               
G14  21027080.911 8     90474.243 8     -1409.159 8        53.813               
G18  20686445.406 9     95154.797 9     -1494.141 9        54.458               
G22  21772661.838 8   -129275.388 8      1994.568 8        51.911               
G25  24688509.260 7    -69739.125 7      1059.456 7        43.578               
> 2020 02 06 15 07 14.7000000  0  6                                             
G10  24055757.121 7    182270.537 7     -2823.907 7        47.845               
G11  22023911.064 8    145028.746 8     -2258.791 8        49.561               
G14  21027106.363 8     90613.770 8     -1409.230 8        53.956               
G18  20686471.465 9     95302.801 9     -1494.849 9        54.505               
G22  21772622.211 8   -129476.257 8      1994.395 8        51.939               
G25  24688487.681 7    -69846.830 7      1056.201 7        43.559               
> 2020 02 06 15 07 14.8000000  0  6                                             
G10  24055812.925 8    182555.055 8     -2821.623 8        48.190               
G11  22023955.843 8    145256.817 8     -2257.244 8        49.571               
G14  21027135.881 8     90756.911 8     -1410.025 8        53.966               
G18  20686502.967 9     95454.429 9     -1495.423 9        54.412               
G22  21772586.061 8   -129673.516 8      1995.560 8        51.898               
G25  24688470.293 7    -69950.924 7      1062.528 7        43.430               
> 2020 02 06 15 07 14.9000000  0  6                                             
G10  24055865.652 8    182836.674 8     -2821.603 8        48.306               
G11  22023998.277 8    145481.990 8     -2259.068 8        49.592               
G14  21027161.769 9     90897.152 9     -1409.869 9        54.144               
G18  20686530.606 9     95603.159 9     -1494.334 9        54.399               
G22  21772547.888 8   -129873.673 8      1994.837 8        51.885               
G25  24688447.541 7    -70057.904 7      1057.111 7        43.303               
> 2020 02 06 15 07 15.0000000  0  6                                             
G10  24055918.798 8    183118.460 8     -2824.636 8        48.422               
G11  22024040.863 8    145707.329 8     -2258.912 8        49.715               
G14  21027187.486 9     91037.552 9     -1409.222 9        54.419               
G18  20686558.021 9     95752.062 9     -1494.719 9        54.443               
G22  21772509.009 8   -130073.673 8      1994.475 8        52.060               
G25  24688426.406 7    -70164.725 7      1064.586 7        43.200               
> 2020 02 06 15 07 15.1000000  0  6                                             
G10  24055975.599 8    183403.092 8     -2821.666 8        48.560               
G11  22024085.316 8    145935.514 8     -2260.710 8        49.848               
G14  21027217.662 9     91180.803 9     -1409.595 9        54.502               
G18  20686589.180 9     95903.810 9     -1494.939 9        54.426               
G22  21772472.390 8   -130270.823 8      1994.976 8        52.223               
G25  24688409.551 7    -70268.706 7      1067.073 7        43.270               
> 2020 02 06 15 07 15.2000000  0  6                                             
G10  24056027.436 8    183683.183 8     -2824.473 8        48.647               
G11  22024126.200 8    146159.166 8     -2259.291 8        49.811               
G14  21027241.481 9     91319.517 9     -1410.616 9        54.656               
G18  20686615.107 9     96051.024 9     -1495.306 9        54.287               
G22  21772432.970 8   -130472.509 8      1993.138 8        52.273               
G25  24688387.785 7    -70377.210 7      1059.324 7        43.257               
> 2020 02 06 15 07 15.3000000  0  6                                             
G10  24056081.126 8    183965.585 8     -2823.622 8        48.560               
G11  22024169.043 8    146385.134 8     -2258.910 8        49.785               
G14  21027268.367 9     91460.544 9     -1410.124 9        54.845               
G18  20686643.673 9     96200.564 9     -1495.426 9        54.097               
G22  21772395.278 8   -130671.886 8      1995.519 8        52.280               
G25  24688368.552 7    -70483.393 7      1062.628 7        43.297               
> 2020 02 06 15 07 15.4000000  0  6                                             
G10  24056135.106 8    184248.196 8     -2825.737 8        48.641               
G11  22024211.945 8    146611.307 8     -2258.671 8        49.865               
G14  21027294.651 9     91601.773 9     -1409.939 9        55.085               
G18  20686672.583 8     96350.304 8     -1495.042 8        53.900               
G22  21772357.269 8   -130871.057 8      1995.009 8        52.186               
G25  24688348.608 7    -70589.379 7      1062.541 7        43.265               
> 2020 02 06 15 07 15.5000000  0  6                                             
G10  24056188.569 8    184530.781 8     -2819.972 8        48.686               
G11  22024255.366 8    146837.471 8     -2259.882 8        50.102               
G14  21027322.490 9     91742.991 9     -1410.018 9        55.310               
G18  20686701.315 8     96500.031 8     -1494.509 8        53.963               
G22  21772320.154 8   -131070.242 8      1994.108 8        52.139               
G25  24688327.325 7    -70695.372 7      1062.380 7        43.265               
> 2020 02 06 15 07 15.6000000  0  6                                             
G10  24056242.842 8    184815.328 8     -2821.887 8        48.658               
G11  22024300.882 8    147065.584 8     -2258.474 8        50.312               
G14  21027351.799 9     91886.158 9     -1409.977 9        55.493               
G18  20686732.965 9     96651.720 9     -1494.842 9        54.153               
G22  21772284.741 8   -131267.476 8      1994.882 8        52.208               
G25  24688309.192 7    -70799.424 7      1066.397 7        43.367               
> 2020 02 06 15 07 15.7000000  0  6                                             
G10  24056297.192 8    185097.507 8     -2821.155 8        48.657               
G11  22024343.457 8    147291.349 8     -2258.657 8        50.319               
G14  21027378.845 9     92026.971 9     -1409.241 9        55.699               
G18  20686760.745 9     96801.058 9     -1495.439 9        54.296               
G22  21772246.101 8   -131467.070 8      1994.402 8        52.220               
G25  24688288.832 7    -70905.808 7      1062.435 7        43.418               
> 2020 02 06 15 07 15.8000000  0  6                                             
G10  24056350.057 8    185377.899 8     -2823.614 8        48.592               
G11  22024384.492 8    147515.308 8     -2259.293 8        50.597               
G14  21027402.726 9     92165.978 9     -1409.907 9        55.916               
G18  20686787.306 9     96948.588 9     -1495.290 9        54.384               
G22  21772206.422 8   -131668.465 8      1993.167 8        52.341               
G25  24688265.789 7    -71014.006 7      1059.983 7        43.467               
> 2020 02 06 15 07 15.9000000  0  6                                             
G10  24056404.621 8    185661.684 8     -2824.062 8        48.634               
G11  22024428.460 8    147742.681 8     -2259.774 8        50.877               
G14  21027431.612 9     92308.395 9     -1409.228 9        55.902               
G18  20686817.371 9     97099.538 9     -1493.701 9        54.408               
G22  21772169.997 8   -131866.452 8      1995.088 8        52.415               
G25  24688248.341 7    -71118.788 7      1060.307 7        43.473               
> 2020 02 06 15 07 16.0000000  0  6                                             
G10  24056459.271 8    185944.622 8     -2821.848 8        48.627               
G11  22024472.639 8    147969.203 8     -2259.065 8        50.988               
G14  21027459.442 9     92449.964 9     -1410.511 9        55.849               
G18  20686846.666 9     97249.636 9     -1495.562 9        54.354               
G22  21772132.050 8   -132065.293 8      1993.592 8        52.339               
G25  24688229.603 7    -71224.423 7      1058.387 7        43.453               
> 2020 02 06 15 07 16.1000000  0  6                                             
G10  24056512.370 8    186226.556 8     -2824.839 8        48.576               
G11  22024515.571 8    148194.734 8     -2259.613 8        50.990               
G14  21027485.773 9     92590.534 9     -1410.525 9        55.735               
G18  20686874.570 9     97398.748 9     -1494.810 9        54.240               
G22  21772093.821 8   -132265.130 8      1994.656 8        52.244               
G25  24688208.600 7    -71331.054 7      1061.347 7        43.430               
> 2020 02 06 15 07 16.2000000  0  6                                             
G10  24056565.561 8    186508.718 8     -2821.210 8        48.645               
G11  22024558.183 8    148420.480 8     -2260.058 8        51.092               
G14  21027511.803 9     92731.319 9     -1410.055 9        55.559               
G18  20686902.940 9     97548.072 9     -1494.091 9        54.172               
G22  21772055.933 8   -132464.748 8      1993.411 8        52.144               
G25  24688188.027 7    -71437.467 7      1062.750 7        43.450               
> 2020 02 06 15 07 16.3000000  0  6                                             
G10  24056618.816 8    186788.728 8     -2820.965 8        48.760               
G11  22024598.680 8    148644.088 8     -2258.921 8        51.175               
G14  21027535.556 9     92869.964 9     -1410.712 9        55.261               
G18  20686928.231 9     97695.260 9     -1495.803 9        54.018               
G22  21772015.055 8   -132666.511 8      1995.376 8        52.117               
G25  24688165.714 7    -71546.010 7      1062.200 7        43.536               
> 2020 02 06 15 07 16.4000000  0  6                                             
G10  24056672.623 8    187071.410 8     -2822.411 8        48.835               
G11  22024641.908 8    148870.372 8     -2260.040 8        51.118               
G14  21027563.310 9     93011.282 9     -1409.584 9        55.009               
G18  20686957.217 8     97845.134 8     -1496.060 8        53.782               
G22  21771977.961 8   -132865.602 8      1993.906 8        52.184               
G25  24688146.025 7    -71651.882 7      1066.039 7        43.605               
> 2020 02 06 15 07 16.5000000  0  6                                             
G10  24056726.509 8    187354.050 8     -2821.480 8        48.753               
G11  22024685.269 8    149096.609 8     -2258.653 8        51.090               
G14  21027590.518 9     93152.554 9     -1410.254 9        54.794               
G18  20686985.979 8     97994.953 8     -1495.882 8        53.594               
G22  21771940.197 8   -133064.738 8      1995.080 8        52.290               
G25  24688126.506 7    -71757.796 7      1062.345 7        43.614               
> 2020 02 06 15 07 16.6000000  0  6                                             
G10  24056780.122 8    187636.253 8     -2825.748 8        48.670               
G11  22024728.071 8    149322.416 8     -2260.413 8        51.059               
G14  21027617.702 9     93293.387 9     -1409.794 9        54.726               
G18  20687013.843 8     98144.347 8     -1495.323 8        53.453               
G22  21771902.142 8   -133264.312 8      1994.860 8        52.107               
G25  24688104.925 7    -71864.146 7      1059.340 7        43.752               
> 2020 02 06 15 07 16.7000000  0  6                                             
G10  24056832.700 8    187917.918 8     -2825.509 8        48.617               
G11  22024769.481 8    149547.686 8     -2259.486 8        51.077               
G14  21027643.155 9     93433.689 9     -1410.454 9        54.752               
G18  20687040.761 8     98293.207 8     -1496.594 8        53.341               
G22  21771863.749 8   -133464.422 8      1993.309 8        52.075               
G25  24688083.687 7    -71971.028 7      1064.283 7        43.813               
> 2020 02 06 15 07 16.8000000  0  6                                             
G10  24056886.146 8    188200.234 8     -2824.030 8        48.560               
G11  22024812.616 8    149773.617 8     -2260.884 8        51.107               
G14  21027670.423 9     93574.644 9     -1411.188 9        54.752               
G18  20687068.511 8     98442.727 8     -1495.672 8        53.339               
G22  21771825.580 8   -133663.878 8      1993.276 8        52.094               
G25  24688063.280 7    -72077.251 7      1060.482 7        43.938               
> 2020 02 06 15 07 16.9000000  0  6                                             
G10  24056941.717 8    188483.890 8     -2825.624 8        48.519               
G11  22024856.895 8    150000.879 8     -2259.684 8        51.130               
G14  21027698.601 9     93716.932 9     -1410.511 9        54.657               
G18  20687098.602 8     98593.585 8     -1496.180 8        53.431               
G22  21771787.804 8   -133862.003 8      1994.395 8        52.201               
G25  24688043.748 7    -72182.136 7      1060.834 7        44.178               
> 2020 02 06 15 07 17.0000000  0  6                                             
G10  24056994.614 8    188765.827 8     -2823.317 8        48.452               
G11  22024899.320 8    150226.434 8     -2260.531 8        51.067               
G14  21027724.998 9     93857.506 9     -1409.701 9        54.567               
G18  20687126.303 8     98742.731 8     -1494.621 8        53.469               
G22  21771749.872 8   -134061.839 8      1994.649 8        52.335               
G25  24688023.828 7    -72288.738 7      1060.827 7        44.400               
> 2020 02 06 15 07 17.1000000  0  6                                             
G10  24057047.456 8    189046.703 8     -2822.854 8        48.407               
G11  22024941.512 8    150450.929 8     -2260.763 8        50.952               
G14  21027749.303 9     93997.024 9     -1410.821 9        54.427               
G18  20687153.789 8     98890.826 8     -1496.866 8        53.496               
G22  21771710.635 8   -134262.733 8      1992.826 8        52.432               
G25  24688002.281 7    -72396.393 7      1060.125 7        44.546               
> 2020 02 06 15 07 17.2000000  0  6                                             
G10  24057101.985 8    189330.404 8     -2823.601 8        48.386               
G11  22024985.713 8    150678.246 8     -2260.700 8        50.932               
G14  21027777.904 9     94139.358 9     -1409.749 9        54.257               
G18  20687183.873 8     99041.737 8     -1495.419 8        53.336               
G22  21771673.943 8   -134460.811 8      1993.140 8        52.492               
G25  24687982.296 7    -72501.227 7      1060.109 7        44.690               
> 2020 02 06 15 07 17.3000000  0  6                                             
G10  24057156.034 8    189613.094 8     -2825.210 8        48.227               
G11  22025029.094 8    150904.572 8     -2258.012 8        50.912               
G14  21027805.043 9     94280.698 9     -1409.695 9        54.218               
G18  20687213.120 8     99191.662 8     -1495.948 8        53.106               
G22  21771636.431 8   -134659.886 8      1994.305 8        52.684               
G25  24687962.726 7    -72607.055 7      1061.379 7        44.730               
> 2020 02 06 15 07 17.4000000  0  6                                             
G10  24057208.618 8    189894.421 8     -2823.785 8        48.094               
G11  22025071.421 8    151129.527 8     -2260.299 8        50.800               
G14  21027830.680 9     94420.663 9     -1410.657 9        54.163               
G18  20687240.026 8     99340.216 8     -1496.759 8        52.886               
G22  21771597.615 8   -134860.332 8      1992.386 8        52.770               
G25  24687940.813 7    -72714.257 7      1064.890 7        44.725               
> 2020 02 06 15 07 17.5000000  0  6                                             
G10  24057263.798 8    190177.636 8     -2824.826 8        48.044               
G11  22025114.504 8    151356.372 8     -2262.298 8        50.644               
G14  21027858.591 9     94562.521 9     -1410.016 9        54.183               
G18  20687270.153 8     99490.663 8     -1497.321 8        52.605               
G22  21771560.680 8   -135058.890 8      1992.911 8        52.665               
G25  24687921.640 7    -72819.558 7      1060.136 7        44.916               
> 2020 02 06 15 07 17.6000000  0  6                                             
G10  24057316.689 8    190460.490 8     -2827.282 8        48.049               
G11  22025157.978 8    151582.860 8     -2261.264 8        50.544               
G14  21027885.894 9     94704.021 9     -1410.915 9        54.172               
G18  20687298.671 8     99640.759 8     -1496.474 8        52.508               
G22  21771523.440 8   -135257.808 8      1994.232 8        52.562               
G25  24687903.091 7    -72925.216 7      1060.819 7        45.115               
> 2020 02 06 15 07 17.7000000  0  6                                             
G10  24057371.402 7    190743.737 7     -2825.136 7        47.857               
G11  22025201.952 8    151809.747 8     -2259.338 8        50.516               
G14  21027914.376 9     94845.910 9     -1409.854 9        54.226               
G18  20687328.958 8     99791.248 8     -1495.540 8        52.556               
G22  21771486.842 8   -135456.330 8      1991.816 8        52.425               
G25  24687883.809 7    -73030.490 7      1065.068 7        45.051               
> 2020 02 06 15 07 17.8000000  0  6                                             
G10  24057424.881 7    191026.045 7     -2824.817 7        47.850               
G11  22025245.138 8    152035.690 8     -2261.305 8        50.469               
G14  21027941.140 9     94986.861 9     -1409.247 9        54.178               
G18  20687356.472 8     99940.802 8     -1496.730 8        52.758               
G22  21771448.099 8   -135655.796 8      1993.430 8        52.390               
G25  24687862.487 7    -73136.687 7      1057.250 7        44.959               
> 2020 02 06 15 07 17.9000000  0  6                                             
G10  24057478.669 7    191308.354 7     -2822.841 7        47.876               
G11  22025288.634 8    152261.645 8     -2260.427 8        50.473               
G14  21027967.767 8     95127.819 8     -1410.527 8        53.996               
G18  20687385.780 8    100090.365 8     -1496.398 8        53.015               
G22  21771410.183 8   -135855.256 8      1992.675 8        52.428               
G25  24687842.298 7    -73242.885 7      1058.192 7        44.853               
> 2020 02 06 15 07 18.0000000  0 13                                             
G01  21034867.495 8    -32431.590 8       454.598 8        53.774               
G03  23051398.190 8   -191210.961 8      2811.878 8        49.255               
G08  25682176.479 7    186705.393 7     -2737.261 7        45.058               
G10  24057532.523 7    191590.856 7     -2823.463 7        47.834               
G11  22025331.034 8    152487.798 8     -2260.110 8        50.526               
G14  21027993.728 8     95268.970 8     -1411.444 8        53.805               
G17  25619817.145 7    -57039.925 7       821.402 7        43.979               
G18  20687413.653 8    100240.125 8     -1497.108 8        53.292               
G22  21771372.655 8   -136054.524 8      1994.008 8        52.404               
G23  25055885.879 7   -184016.335 7      2703.998 7        43.478               
G25  24687822.818 7    -73348.884 7      1063.052 7        44.818               
G31  20674244.612 8    -84878.556 8      1225.741 8        53.447               
G32  22216981.612 8    168666.280 8     -2485.480 8        50.040               
> 2020 02 06 15 07 18.1000000  0 13                                             
G01  21034857.555 8    -32477.693 8       454.805 8        53.748               
G03  23051344.793 8   -191492.657 8      2809.959 8        49.383               
G08  25682229.152 7    186978.926 7     -2742.848 7        44.937               
G10  24057586.251 7    191872.598 7     -2820.376 7        47.853               
G11  22025373.468 8    152713.188 8     -2261.127 8        50.535               
G14  21028020.635 8     95409.359 8     -1410.337 8        53.771               
G17  25619799.718 7    -57122.708 7       825.139 7        43.997               
G18  20687441.453 8    100389.129 8     -1496.644 8        53.425               
G22  21771333.697 8   -136254.552 8      1993.255 8        52.313               
G23  25055833.340 7   -184287.243 7      2702.142 7        43.467               
G25  24687801.978 7    -73455.644 7      1062.154 7        44.735               
G31  20674221.002 8    -85001.758 8      1225.670 8        53.654               
G32  22217028.085 8    168914.173 8     -2485.980 8        50.274               
> 2020 02 06 15 07 18.2000000  0 13                                             
G01  21034847.627 8    -32523.507 8       454.926 8        53.731               
G03  23051290.335 8   -191774.069 8      2812.868 8        49.511               
G08  25682280.622 7    187252.745 7     -2739.515 7        44.880               
G10  24057640.079 7    192154.619 7     -2821.410 7        47.790               
G11  22025416.343 8    152938.865 8     -2260.735 8        50.519               
G14  21028046.980 8     95550.030 8     -1410.806 8        53.953               
G17  25619783.946 7    -57205.216 7       818.750 7        44.013               
G18  20687468.781 8    100538.416 8     -1496.472 8        53.553               
G22  21771294.928 8   -136454.299 8      1993.454 8        52.136               
G23  25055781.276 7   -184557.882 7      2702.810 7        43.653               
G25  24687781.703 7    -73562.117 7      1062.784 7        44.603               
G31  20674197.297 8    -85124.677 8      1225.207 8        53.840               
G32  22217074.927 8    169162.347 8     -2485.394 8        50.532               
> 2020 02 06 15 07 18.3000000  0 13                                             
G01  21034837.886 8    -32569.053 8       453.554 8        53.589               
G03  23051237.227 8   -192055.221 8      2810.315 8        49.502               
G08  25682332.655 7    187526.812 7     -2739.369 7        44.824               
G10  24057693.792 7    192436.903 7     -2822.115 7        47.702               
G11  22025458.458 8    153164.807 8     -2260.245 8        50.390               
G14  21028073.818 9     95690.965 9     -1409.632 9        54.042               
G17  25619768.988 7    -57287.453 7       824.420 7        44.003               
G18  20687497.602 8    100687.975 8     -1496.445 8        53.680               
G22  21771257.472 8   -136653.784 8      1995.192 8        51.947               
G23  25055729.276 7   -184828.239 7      2701.354 7        43.872               
G25  24687760.187 7    -73668.321 7      1066.772 7        44.516               
G31  20674173.637 9    -85247.325 9      1225.112 9        54.035               
G32  22217122.099 8    169410.778 8     -2484.880 8        50.743               
> 2020 02 06 15 07 18.4000000  0 13                                             
G01  21034828.242 8    -32614.887 8       454.868 8        53.425               
G03  23051182.927 8   -192336.663 8      2810.494 8        49.704               
G08  25682384.033 7    187800.591 7     -2744.504 7        44.821               
G10  24057746.671 7    192718.899 7     -2824.840 7        47.696               
G11  22025501.563 8    153390.461 8     -2259.991 8        50.356               
G14  21028099.321 9     95831.610 9     -1411.160 9        54.166               
G17  25619752.714 7    -57369.983 7       822.629 7        44.045               
G18  20687524.785 8    100837.246 8     -1496.234 8        53.721               
G22  21771218.397 8   -136853.559 8      1995.426 8        51.757               
G23  25055677.728 7   -185098.896 7      2702.849 7        44.115               
G25  24687739.017 7    -73774.816 7      1062.942 7        44.458               
G31  20674149.321 9    -85370.261 9      1224.471 9        54.144               
G32  22217168.992 8    169658.923 8     -2485.277 8        50.915               
> 2020 02 06 15 07 18.5000000  0 13                                             
G01  21034820.537 8    -32659.794 8       453.774 8        53.367               
G03  23051130.229 8   -192617.185 8      2810.487 8        49.750               
G08  25682437.744 7    188075.287 7     -2741.729 7        44.854               
G10  24057800.722 7    193001.819 7     -2825.842 7        47.624               
G11  22025545.125 8    153617.040 8     -2261.501 8        50.352               
G14  21028127.266 9     95973.178 9     -1410.377 9        54.287               
G17  25619737.076 7    -57451.584 7       818.787 7        44.074               
G18  20687554.642 8    100987.445 8     -1495.834 8        53.702               
G22  21771180.923 8   -137052.411 8      1995.084 8        51.635               
G23  25055626.584 7   -185368.633 7      2702.237 7        44.345               
G25  24687720.324 7    -73880.381 7      1058.212 7        44.398               
G31  20674126.661 9    -85492.270 9      1225.583 9        54.188               
G32  22217216.592 8    169907.988 8     -2485.722 8        50.961               
> 2020 02 06 15 07 18.6000000  0 13                                             
G01  21034812.328 8    -32705.418 8       454.642 8        53.349               
G03  23051076.883 8   -192898.428 8      2810.050 8        49.560               
G08  25682491.184 7    188349.257 7     -2743.233 7        44.881               
G10  24057854.554 7    193284.017 7     -2820.614 7        47.416               
G11  22025587.664 8    153842.899 8     -2261.395 8        50.323               
G14  21028154.062 9     96114.028 9     -1411.052 9        54.327               
G17  25619721.183 7    -57533.900 7       822.982 7        44.133               
G18  20687581.974 8    101136.930 8     -1496.310 8        53.584               
G22  21771142.998 8   -137251.981 8      1993.276 8        51.715               
G23  25055575.222 7   -185639.082 7      2702.642 7        44.448               
G25  24687699.517 7    -73986.667 7      1058.133 7        44.339               
G31  20674103.245 9    -85614.993 9      1224.669 9        54.237               
G32  22217263.241 8    170156.336 8     -2485.429 8        50.978               
> 2020 02 06 15 07 18.7000000  0 13                                             
G01  21034804.754 8    -32750.651 8       455.078 8        53.388               
G03  23051023.332 8   -193179.287 8      2812.402 8        49.334               
G08  25682543.256 7    188623.617 7     -2742.654 7        44.953               
G10  24057908.539 7    193566.594 7     -2820.345 7        47.329               
G11  22025631.285 8    154069.151 8     -2260.682 8        50.373               
G14  21028181.386 9     96255.261 9     -1410.640 9        54.445               
G17  25619705.765 7    -57615.828 7       818.915 7        44.311               
G18  20687611.210 8    101286.802 8     -1496.938 8        53.359               
G22  21771104.921 8   -137451.170 8      1992.827 8        51.992               
G23  25055524.887 7   -185909.168 7      2700.949 7        44.453               
G25  24687680.721 7    -74092.566 7      1063.077 7        44.352               
G31  20674080.125 9    -85737.328 9      1225.614 9        54.196               
G32  22217311.293 8    170405.063 8     -2483.987 8        50.971               
> 2020 02 06 15 07 18.8000000  0 13                                             
G01  21034796.798 8    -32795.882 8       453.214 8        53.371               
G03  23050969.988 8   -193460.153 8      2812.289 8        49.110               
G08  25682595.197 7    188897.959 7     -2742.499 7        44.807               
G10  24057962.159 7    193849.172 7     -2827.516 7        47.231               
G11  22025674.273 8    154295.397 8     -2261.861 8        50.394               
G14  21028207.775 9     96396.493 9     -1411.221 9        54.496               
G17  25619690.358 7    -57697.766 7       819.984 7        44.385               
G18  20687639.493 8    101436.674 8     -1498.321 8        53.191               
G22  21771067.035 8   -137650.362 8      1994.137 8        52.253               
G23  25055473.241 7   -186179.237 7      2701.687 7        44.403               
G25  24687660.900 7    -74198.468 7      1064.430 7        44.389               
G31  20674057.034 9    -85859.660 9      1225.207 9        54.172               
G32  22217358.410 8    170653.786 8     -2484.927 8        50.871               
> 2020 02 06 15 07 18.9000000  0 13                                             
G01  21034788.510 8    -32840.938 8       454.012 8        53.327               
G03  23050916.992 8   -193740.844 8      2811.940 8        48.995               
G08  25682647.342 7    189172.478 7     -2741.998 7        44.587               
G10  24058015.716 7    194131.923 7     -2823.541 7        47.166               
G11  22025717.555 8    154521.824 8     -2261.308 8        50.451               
G14  21028234.957 9     96537.898 9     -1410.545 9        54.642               
G17  25619674.886 7    -57779.517 7       820.553 7        44.454               
G18  20687669.123 8    101586.721 8     -1497.496 8        53.141               
G22  21771030.139 8   -137849.378 8      1992.860 8        52.478               
G23  25055422.407 7   -186449.147 7      2702.267 7        44.444               
G25  24687640.336 7    -74304.184 7      1060.645 7        44.394               
G31  20674033.915 9    -85981.816 9      1225.078 9        54.161               
G32  22217406.517 8    170902.694 8     -2487.043 8        50.721               
> 2020 02 06 15 07 19.0000000  0 13                                             
G01  21034779.880 8    -32886.270 8       453.980 8        53.267               
G03  23050863.690 8   -194021.825 8      2811.916 8        48.970               
G08  25682698.020 7    189446.699 7     -2737.961 7        44.497               
G10  24058069.092 7    194414.388 7     -2824.579 7        47.045               
G11  22025761.049 8    154747.966 8     -2259.866 8        50.444               
G14  21028262.244 9     96679.019 9     -1411.799 9        54.651               
G17  25619658.680 7    -57861.554 7       816.423 7        44.451               
G18  20687696.946 8    101736.493 8     -1497.708 8        53.249               
G22  21770991.918 8   -138048.682 8      1993.773 8        52.611               
G23  25055370.498 7   -186719.343 7      2702.724 7        44.611               
G25  24687619.680 7    -74410.185 7      1057.668 7        44.447               
G31  20674010.704 9    -86104.250 9      1224.723 9        54.205               
G32  22217453.942 8    171151.299 8     -2486.125 8        50.647               
> 2020 02 06 15 07 19.1000000  0 13                                             
G01  21034772.320 8    -32930.959 8       454.731 8        53.261               
G03  23050810.813 8   -194302.160 8      2808.506 8        48.994               
G08  25682749.052 7    189721.568 7     -2742.781 7        44.375               
G10  24058123.590 7    194697.492 7     -2822.604 7        46.966               
G11  22025804.380 8    154974.757 8     -2260.496 8        50.437               
G14  21028289.921 9     96820.783 9     -1410.129 9        54.666               
G17  25619644.168 7    -57942.941 7       821.393 7        44.495               
G18  20687727.357 8    101886.911 8     -1498.339 8        53.437               
G22  21770954.641 8   -138247.341 8      1992.652 8        52.723               
G23  25055319.463 7   -186988.891 7      2700.818 7        44.850               
G25  24687600.451 7    -74515.549 7      1060.783 7        44.510               
G31  20673988.670 9    -86226.036 9      1224.674 9        54.293               
G32  22217501.865 8    171400.559 8     -2486.644 8        50.488               
> 2020 02 06 15 07 19.2000000  0 13                                             
G01  21034761.898 8    -32977.942 8       454.304 8        53.236               
G03  23050756.505 8   -194584.800 8      2809.392 8        49.121               
G08  25682800.760 7    189994.120 7     -2740.975 7        44.252               
G10  24058176.692 7    194978.302 7     -2823.499 7        46.810               
G11  22025845.206 8    155199.246 8     -2262.929 8        50.453               
G14  21028314.629 9     96960.247 9     -1411.826 9        54.744               
G17  25619626.813 7    -58026.630 7       819.175 7        44.497               
G18  20687753.227 8    102035.032 8     -1498.037 8        53.741               
G22  21770915.342 8   -138448.302 8      1993.534 8        52.871               
G23  25055266.083 7   -187260.739 7      2702.696 7        45.222               
G25  24687578.950 7    -74623.203 7      1065.126 7        44.525               
G31  20673963.487 9    -86350.121 9      1224.498 9        54.560               
G32  22217548.284 8    171647.508 8     -2486.956 8        50.384               
> 2020 02 06 15 07 19.3000000  0 13                                             
G01  21034754.272 8    -33022.609 8       454.181 8        53.318               
G03  23050703.652 8   -194865.133 8      2809.756 8        49.170               
G08  25682854.550 7    190268.989 7     -2736.604 7        44.111               
G10  24058230.393 7    195261.414 7     -2823.459 7        46.610               
G11  22025889.168 8    155426.048 8     -2259.859 8        50.441               
G14  21028341.597 9     97102.021 9     -1410.283 9        54.608               
G17  25619610.931 7    -58108.014 7       824.570 7        44.529               
G18  20687783.358 8    102185.467 8     -1497.920 8        53.924               
G22  21770877.965 8   -138646.952 8      1994.516 8        52.962               
G23  25055216.215 7   -187530.280 7      2701.251 7        45.499               
G25  24687560.085 7    -74728.540 7      1059.472 7        44.635               
G31  20673940.905 9    -86471.891 9      1223.997 9        54.742               
G32  22217595.337 8    171896.766 8     -2483.029 8        50.244               
> 2020 02 06 15 07 19.4000000  0 13                                             
G01  21034744.835 8    -33068.441 8       454.727 8        53.505               
G03  23050649.722 8   -195146.634 8      2812.816 8        49.015               
G08  25682907.673 7    190542.691 7     -2739.688 7        44.001               
G10  24058284.159 7    195543.364 7     -2827.079 7        46.518               
G11  22025931.409 8    155651.688 8     -2262.493 8        50.557               
G14  21028368.489 9     97242.628 9     -1411.573 9        54.599               
G17  25619596.206 7    -58190.542 7       820.500 7        44.519               
G18  20687810.446 9    102334.736 9     -1498.686 9        54.032               
G22  21770839.133 8   -138846.771 8      1993.818 8        53.181               
G23  25055164.750 7   -187800.993 7      2704.067 7        45.687               
G25  24687539.176 7    -74835.054 7      1060.580 7        44.791               
G31  20673916.530 9    -86594.825 9      1223.442 9        54.850               
G32  22217642.402 8    172144.868 8     -2486.829 8        50.177               
> 2020 02 06 15 07 19.5000000  0 13                                             
G01  21034735.612 8    -33113.459 8       453.361 8        53.553               
G03  23050596.095 8   -195427.325 8      2810.052 8        48.931               
G08  25682959.973 7    190817.191 7     -2745.192 7        43.979               
G10  24058337.996 7    195826.114 7     -2819.416 7        46.366               
G11  22025975.578 8    155878.135 8     -2261.378 8        50.608               
G14  21028395.665 9     97384.045 9     -1410.887 9        54.597               
G17  25619581.158 7    -58272.274 7       822.647 7        44.539               
G18  20687840.374 9    102484.820 9     -1497.532 9        54.161               
G22  21770802.214 8   -139045.778 8      1992.529 8        53.213               
G23  25055113.339 7   -188070.902 7      2704.600 7        45.944               
G25  24687518.767 7    -74940.748 7      1062.583 7        44.816               
G31  20673893.745 9    -86716.945 9      1224.400 9        54.805               
G32  22217689.681 8    172393.772 8     -2487.239 8        50.173               
> 2020 02 06 15 07 19.6000000  0 13                                             
G01  21034725.265 8    -33159.264 8       453.295 8        53.686               
G03  23050542.665 8   -195708.810 8      2812.896 8        48.878               
G08  25683010.970 7    191090.887 7     -2740.963 7        43.851               
G10  24058391.227 7    196108.080 7     -2824.610 7        46.160               
G11  22026018.016 8    156103.799 8     -2261.989 8        50.639               
G14  21028422.056 9     97524.674 9     -1411.284 9        54.742               
G17  25619563.805 7    -58354.792 7       820.049 7        44.454               
G18  20687867.766 9    102634.120 9     -1497.436 9        54.314               
G22  21770763.383 8   -139245.578 8      1993.601 8        53.151               
G23  25055060.588 7   -188341.588 7      2702.630 7        46.236               
G25  24687498.074 7    -75047.226 7      1055.357 7        44.864               
G31  20673870.245 9    -86839.849 9      1224.722 9        54.722               
G32  22217736.425 8    172641.879 8     -2485.688 8        50.269               
> 2020 02 06 15 07 19.7000000  0 13                                             
G01  21034716.091 8    -33204.572 8       453.571 8        53.918               
G03  23050488.765 8   -195989.802 8      2809.874 8        48.793               
G08  25683063.730 7    191365.095 7     -2742.785 7        43.744               
G10  24058444.844 7    196390.537 7     -2823.822 7        45.934               
G11  22026061.109 8    156329.955 8     -2261.505 8        50.723               
G14  21028448.192 9     97665.792 9     -1410.492 9        54.770               
G17  25619547.931 7    -58436.813 7       822.947 7        44.373               
G18  20687896.796 9    102783.918 9     -1497.275 9        54.518               
G22  21770725.226 8   -139444.887 8      1992.064 8        53.057               
G23  25055009.065 7   -188611.791 7      2699.909 7        46.581               
G25  24687477.910 7    -75153.216 7      1057.189 7        44.858               
G31  20673847.044 9    -86962.258 9      1224.164 9        54.617               
G32  22217784.146 8    172890.477 8     -2487.416 8        50.328               
> 2020 02 06 15 07 19.8000000  0 13                                             
G01  21034706.559 8    -33250.651 8       453.198 8        53.954               
G03  23050434.597 8   -196271.571 8      2810.071 8        48.746               
G08  25683114.364 7    191638.512 7     -2739.530 7        43.713               
G10  24058498.248 7    196672.227 7     -2823.989 7        45.758               
G11  22026103.987 8    156555.337 8     -2261.158 8        50.762               
G14  21028474.791 9     97806.138 9     -1411.933 9        54.734               
G17  25619532.681 7    -58519.601 7       817.422 7        44.255               
G18  20687923.056 9    102932.942 9     -1497.060 9        54.584               
G22  21770686.871 8   -139644.970 8      1993.029 8        52.962               
G23  25054957.362 7   -188882.777 7      2701.719 7        46.687               
G25  24687457.157 7    -75259.973 7      1060.173 7        44.920               
G31  20673822.914 9    -87085.437 9      1224.139 9        54.535               
G32  22217830.849 8    173138.305 8     -2486.038 8        50.222               
> 2020 02 06 15 07 19.9000000  0 13                                             
G01  21034699.798 8    -33294.748 8       453.397 8        53.895               
G03  23050382.144 8   -196551.370 8      2811.783 8        48.640               
G08  25683168.142 7    191913.895 7     -2738.615 7        43.645               
G10  24058552.205 7    196955.880 7     -2822.536 7        45.717               
G11  22026147.902 8    156782.699 8     -2262.084 8        50.848               
G14  21028503.231 9     97948.456 9     -1411.200 9        54.622               
G17  25619518.450 7    -58600.417 7       814.241 7        44.082               
G18  20687953.730 9    103083.943 9     -1498.459 9        54.734               
G22  21770650.268 8   -139843.079 8      1993.687 8        52.900               
G23  25054907.429 7   -189151.779 7      2702.312 7        46.596               
G25  24687439.334 7    -75364.756 7      1061.672 7        44.973               
G31  20673800.928 9    -87206.637 9      1223.738 9        54.433               
G32  22217880.428 8    173388.106 8     -2488.019 8        50.138               
> 2020 02 06 15 07 20.0000000  0 13                                             
G01  21034692.026 8    -33339.911 8       453.448 8        53.833               
G03  23050329.181 8   -196832.236 8      2811.966 8        48.450               
G08  25683219.981 7    192188.215 7     -2745.985 7        43.560               
G10  24058605.956 7    197238.468 7     -2825.416 7        45.690               
G11  22026191.200 8    157008.997 8     -2261.870 8        50.945               
G14  21028530.501 9     98089.712 9     -1410.867 9        54.486               
G17  25619502.744 7    -58682.302 7       822.475 7        43.864               
G18  20687981.732 9    103233.883 9     -1497.963 9        54.901               
G22  21770612.101 8   -140042.255 8      1993.933 8        52.997               
G23  25054855.431 7   -189421.850 7      2701.664 7        46.527               
G25  24687418.911 7    -75470.603 7      1061.888 7        44.994               
G31  20673777.824 9    -87328.899 9      1223.705 9        54.434               
G32  22217926.871 8    173636.841 8     -2486.957 8        50.125               
> 2020 02 06 15 07 20.1000000  0 13                                             
G01  21034683.926 8    -33385.145 8       454.257 8        53.781               
G03  23050275.747 8   -197113.178 8      2811.172 8        48.232               
G08  25683272.904 7    192462.448 7     -2738.258 7        43.512               
G10  24058659.844 7    197520.980 7     -2823.951 7        45.703               
G11  22026234.491 8    157235.220 8     -2262.036 8        51.169               
G14  21028556.924 9     98230.888 9     -1411.848 9        54.310               
G17  25619487.104 7    -58764.258 7       822.182 7        43.594               
G18  20688011.175 9    103383.752 9     -1497.405 9        55.082               
G22  21770575.161 8   -140241.509 8      1993.932 8        53.174               
G23  25054803.927 7   -189692.008 7      2704.127 7        46.464               
G25  24687398.553 7    -75576.518 7      1060.362 7        45.153               
G31  20673754.857 9    -87451.234 9      1223.296 9        54.578               
G32  22217973.914 8    173885.492 8     -2487.110 8        50.133               
> 2020 02 06 15 07 20.2000000  0 13                                             
G01  21034675.716 8    -33430.046 8       452.973 8        53.745               
G03  23050222.562 8   -197393.794 8      2810.473 8        48.021               
G08  25683326.039 7    192737.006 7     -2738.138 7        43.498               
G10  24058713.711 7    197803.821 7     -2822.921 7        45.702               
G11  22026277.352 8    157461.775 8     -2262.657 8        51.333               
G14  21028584.363 9     98372.392 9     -1409.953 9        54.088               
G17  25619472.747 7    -58845.874 7       818.587 7        43.411               
G18  20688039.382 9    103533.956 9     -1497.570 9        55.118               
G22  21770537.253 8   -140440.432 8      1992.964 8        53.357               
G23  25054752.136 7   -189961.837 7      2701.145 7        46.477               
G25  24687378.747 7    -75682.105 7      1056.119 7        45.395               
G31  20673731.924 9    -87573.238 9      1223.521 9        54.567               
G32  22218021.832 8    174134.467 8     -2483.920 8        50.176               
> 2020 02 06 15 07 20.3000000  0 13                                             
G01  21034668.275 8    -33474.599 8       453.580 8        53.747               
G03  23050169.590 8   -197674.067 8      2811.662 8        48.019               
G08  25683379.335 7    193011.914 7     -2743.563 7        43.528               
G10  24058768.276 7    198087.006 7     -2823.748 7        45.759               
G11  22026321.069 8    157688.677 8     -2260.566 8        51.337               
G14  21028612.803 8     98514.248 8     -1410.807 8        53.930               
G17  25619457.980 7    -58927.146 7       821.816 7        43.305               
G18  20688069.609 9    103684.504 9     -1497.444 9        55.188               
G22  21770500.060 8   -140639.010 8      1992.455 8        53.538               
G23  25054702.059 7   -190231.314 7      2701.125 7        46.436               
G25  24687360.012 7    -75787.346 7      1058.454 7        45.485               
G31  20673709.169 9    -87694.890 9      1222.818 9        54.580               
G32  22218069.516 8    174383.798 8     -2486.499 8        50.063               
> 2020 02 06 15 07 20.4000000  0 13                                             
G01  21034659.853 8    -33520.202 8       453.212 8        53.855               
G03  23050115.245 8   -197955.397 8      2813.095 8        48.052               
G08  25683432.918 7    193285.751 7     -2735.337 7        43.537               
G10  24058822.663 7    198369.133 7     -2826.210 7        45.929               
G11  22026363.020 8    157914.526 8     -2261.947 8        51.376               
G14  21028639.493 8     98655.042 8     -1411.575 8        53.777               
G17  25619442.374 7    -59009.473 7       822.084 7        43.226               
G18  20688096.889 9    103834.003 9     -1498.433 9        55.340               
G22  21770462.190 8   -140838.645 8      1993.429 8        53.806               
G23  25054650.519 7   -190501.859 7      2699.704 7        46.336               
G25  24687340.083 7    -75893.649 7      1061.908 7        45.524               
G31  20673684.575 9    -87817.593 9      1224.041 9        54.464               
G32  22218116.578 8    174632.070 8     -2484.568 8        50.132               
> 2020 02 06 15 07 20.5000000  0 13                                             
G01  21034651.738 9    -33565.855 9       451.991 9        54.019               
G03  23050061.813 8   -198236.784 8      2810.443 8        48.199               
G08  25683482.859 7    193559.543 7     -2747.252 7        43.434               
G10  24058876.589 7    198651.203 7     -2822.900 7        46.074               
G11  22026405.527 8    158140.319 8     -2261.260 8        51.367               
G14  21028665.436 8     98795.784 8     -1411.580 8        53.719               
G17  25619426.396 7    -59091.858 7       822.908 7        43.201               
G18  20688125.638 9    103983.452 9     -1499.513 9        55.408               
G22  21770423.339 9   -141038.336 9      1995.048 9        54.066               
G23  25054598.499 7   -190772.451 7      2698.215 7        46.126               
G25  24687320.263 7    -75999.983 7      1057.688 7        45.574               
G31  20673661.396 9    -87940.348 9      1223.109 9        54.444               
G32  22218163.231 8    174880.282 8     -2486.542 8        50.145               
> 2020 02 06 15 07 20.6000000  0 13                                             
G01  21034643.078 9    -33611.495 9       452.025 9        54.129               
G03  23050007.713 8   -198518.164 8      2811.273 8        48.381               
G08  25683533.882 7    193833.328 7     -2739.607 7        43.363               
G10  24058929.667 7    198933.282 7     -2822.853 7        46.329               
G11  22026449.135 8    158366.128 8     -2261.737 8        51.218               
G14  21028691.336 8     98936.537 8     -1411.281 8        53.651               
G17  25619410.375 7    -59174.220 7       816.688 7        43.157               
G18  20688152.770 9    104132.916 9     -1498.678 9        55.499               
G22  21770384.589 8   -141238.016 8      1992.489 8        53.861               
G23  25054546.489 7   -191043.030 7      2698.716 7        45.925               
G25  24687298.666 7    -76106.320 7      1057.381 7        45.686               
G31  20673638.013 9    -88063.088 9      1224.205 9        54.590               
G32  22218210.376 8    175128.504 8     -2485.961 8        50.133               
> 2020 02 06 15 07 20.7000000  0 13                                             
G01  21034634.589 9    -33656.357 9       452.786 9        54.147               
G03  23049955.409 8   -198798.772 8      2811.054 8        48.695               
G08  25683585.915 7    194107.885 7     -2746.396 7        43.252               
G10  24058983.416 7    199216.137 7     -2824.186 7        46.414               
G11  22026492.162 8    158592.715 8     -2260.349 8        51.135               
G14  21028719.121 8     99078.062 8     -1411.854 8        53.686               
G17  25619394.345 7    -59255.810 7       821.156 7        43.140               
G18  20688182.538 9    104283.153 9     -1498.078 9        55.610               
G22  21770347.795 8   -141436.924 8      1993.736 8        53.641               
G23  25054496.330 7   -191312.845 7      2700.196 7        45.937               
G25  24687277.383 7    -76211.873 7      1062.059 7        45.850               
G31  20673615.604 9    -88185.051 9      1223.733 9        54.820               
G32  22218258.228 8    175377.498 8     -2486.197 8        50.169               
> 2020 02 06 15 07 20.8000000  0 13                                             
G01  21034625.597 9    -33701.334 9       452.873 9        54.126               
G03  23049902.066 8   -199079.498 8      2809.447 8        49.014               
G08  25683638.571 7    194382.313 7     -2741.784 7        43.204               
G10  24059036.500 7    199498.869 7     -2824.784 7        46.615               
G11  22026535.830 8    158819.181 8     -2262.606 8        51.037               
G14  21028745.902 8     99219.467 8     -1410.583 8        53.852               
G17  25619379.438 7    -59337.514 7       816.430 7        43.177               
G18  20688210.856 9    104433.275 9     -1497.824 9        55.578               
G22  21770310.051 8   -141635.952 8      1993.280 8        53.565               
G23  25054446.382 7   -191582.781 7      2702.013 7        45.977               
G25  24687257.723 7    -76317.548 7      1062.540 7        45.978               
G31  20673592.620 9    -88307.128 9      1223.293 9        54.783               
G32  22218305.916 8    175626.372 8     -2486.011 8        50.279               
> 2020 02 06 15 07 20.9000000  0 13                                             
G01  21034614.996 9    -33747.203 9       452.131 9        54.126               
G03  23049848.007 8   -199361.124 8      2809.474 8        49.442               
G08  25683689.636 7    194655.857 7     -2744.784 7        43.149               
G10  24059089.656 7    199780.709 7     -2824.054 7        46.714               
G11  22026578.729 8    159044.756 8     -2260.228 8        51.014               
G14  21028772.093 9     99359.981 9     -1411.962 9        54.065               
G17  25619363.369 7    -59420.109 7       813.376 7        43.167               
G18  20688239.246 9    104582.510 9     -1497.820 9        55.482               
G22  21770270.860 8   -141835.877 8      1992.138 8        53.508               
G23  25054393.502 7   -191853.613 7      2702.736 7        45.881               
G25  24687237.115 7    -76424.116 7      1060.391 7        45.998               
G31  20673568.206 9    -88430.098 9      1224.226 9        54.648               
G32  22218353.068 8    175874.354 8     -2485.862 8        50.397               
> 2020 02 06 15 07 21.0000000  0 13                                             
G01  21034604.473 9    -33793.120 9       452.705 9        54.141               
G03  23049793.544 8   -199642.803 8      2810.280 8        49.687               
G08  25683740.243 7    194929.342 7     -2745.892 7        43.151               
G10  24059143.426 7    200062.498 7     -2825.440 7        46.964               
G11  22026620.633 8    159270.279 8     -2261.527 8        51.066               
G14  21028797.594 9     99500.440 9     -1411.446 9        54.226               
G17  25619347.700 7    -59502.766 7       820.292 7        43.098               
G18  20688266.158 9    104731.698 9     -1499.452 9        55.448               
G22  21770233.033 8   -142035.850 8      1993.557 8        53.434               
G23  25054341.631 7   -192124.497 7      2701.479 7        45.763               
G25  24687216.907 7    -76530.729 7      1058.030 7        45.921               
G31  20673544.388 9    -88553.114 9      1222.794 9        54.483               
G32  22218399.547 8    176122.277 8     -2487.268 8        50.507               
> 2020 02 06 15 07 21.1000000  0 13                                             
G01  21034595.212 9    -33838.540 9       452.381 9        54.204               
G03  23049740.827 8   -199923.987 8      2807.477 8        49.700               
G08  25683791.934 7    195203.302 7     -2746.711 7        43.151               
G10  24059197.029 7    200344.777 7     -2830.556 7        46.975               
G11  22026663.819 8    159496.299 8     -2261.345 8        51.022               
G14  21028825.090 9     99641.392 9     -1411.192 9        54.226               
G17  25619330.684 7    -59584.919 7       818.762 7        43.016               
G18  20688295.638 9    104881.378 9     -1498.658 9        55.475               
G22  21770194.575 8   -142235.337 8      1991.599 8        53.347               
G23  25054289.574 7   -192394.891 7      2700.324 7        45.699               
G25  24687196.461 7    -76636.851 7      1061.287 7        46.002               
G31  20673521.244 9    -88675.635 9      1223.502 9        54.506               
G32  22218446.556 8    176370.693 8     -2485.143 8        50.583               
> 2020 02 06 15 07 21.2000000  0 13                                             
G01  21034587.288 9    -33883.659 9       452.320 9        54.241               
G03  23049687.140 8   -200204.887 8      2812.808 8        49.504               
G08  25683845.533 7    195477.561 7     -2737.920 7        43.088               
G10  24059251.217 7    200627.345 7     -2821.635 7        46.864               
G11  22026706.750 8    159722.619 8     -2261.966 8        51.036               
G14  21028851.939 9     99782.641 9     -1410.769 9        54.070               
G17  25619315.148 7    -59666.767 7       821.531 7        43.000               
G18  20688323.720 9    105031.358 9     -1498.049 9        55.546               
G22  21770156.237 8   -142434.522 8      1993.773 8        53.281               
G23  25054237.638 7   -192664.992 7      2702.034 7        45.610               
G25  24687175.546 7    -76742.669 7      1063.014 7        46.244               
G31  20673498.149 9    -88797.853 9      1223.639 9        54.487               
G32  22218493.561 8    176619.408 8     -2486.456 8        50.640               
> 2020 02 06 15 07 21.3000000  0 13                                             
G01  21034579.379 9    -33928.727 9       452.347 9        54.169               
G03  23049633.968 8   -200485.736 8      2812.898 8        49.443               
G08  25683897.646 7    195751.864 7     -2742.323 7        43.007               
G10  24059304.938 7    200909.957 7     -2817.817 7        46.720               
G11  22026750.035 8    159948.986 8     -2262.359 8        51.139               
G14  21028879.196 8     99923.936 8     -1412.365 8        53.990               
G17  25619300.073 7    -59748.573 7       820.578 7        42.867               
G18  20688352.782 9    105181.392 9     -1498.217 9        55.631               
G22  21770119.434 8   -142633.663 8      1992.464 8        53.254               
G23  25054186.790 7   -192935.045 7      2702.145 7        45.574               
G25  24687155.003 7    -76848.438 7      1059.825 7        46.394               
G31  20673474.837 9    -88920.023 9      1223.041 9        54.411               
G32  22218541.296 8    176868.161 8     -2485.734 8        50.621               
> 2020 02 06 15 07 21.4000000  0 13                                             
G01  21034570.870 9    -33974.442 9       453.096 9        54.143               
G03  23049579.358 8   -200767.236 8      2810.593 8        49.362               
G08  25683948.909 7    196025.515 7     -2744.130 7        43.038               
G10  24059358.381 7    201191.935 7     -2830.069 7        46.645               
G11  22026792.864 8    160174.706 8     -2262.747 8        51.172               
G14  21028904.746 8    100064.582 8     -1411.151 8        53.956               
G17  25619284.453 7    -59831.020 7       816.328 7        42.687               
G18  20688379.725 9    105330.779 9     -1497.978 9        55.801               
G22  21770080.548 8   -142833.454 8      1993.130 8        53.254               
G23  25054134.931 7   -193205.750 7      2701.575 7        45.514               
G25  24687134.594 7    -76954.860 7      1060.609 7        46.557               
G31  20673450.389 9    -89042.837 9      1223.627 9        54.341               
G32  22218588.271 8    177116.269 8     -2486.343 8        50.642               
> 2020 02 06 15 07 21.5000000  0 13                                             
G01  21034563.732 9    -34018.629 9       452.858 9        54.066               
G03  23049527.619 8   -201047.209 8      2808.683 8        49.144               
G08  25684001.811 7    196300.689 7     -2742.015 7        43.104               
G10  24059412.820 7    201475.421 7     -2820.327 7        46.507               
G11  22026836.081 8    160401.952 8     -2262.947 8        51.188               
G14  21028933.328 8    100206.753 8     -1413.167 8        53.813               
G17  25619269.435 7    -59911.952 7       819.959 7        42.546               
G18  20688410.416 9    105481.694 9     -1498.739 9        55.904               
G22  21770043.336 8   -143031.722 8      1991.796 8        53.413               
G23  25054085.086 7   -193474.926 7      2700.354 7        45.643               
G25  24687116.609 7    -77059.749 7      1062.459 7        46.578               
G31  20673428.545 9    -89164.123 9      1223.671 9        54.233               
G32  22218635.705 8    177365.900 8     -2486.315 8        50.598               
> 2020 02 06 15 07 21.6000000  0 13                                             
G01  21034555.228 9    -34063.698 9       451.344 9        54.138               
G03  23049474.173 8   -201328.080 8      2811.812 8        48.992               
G08  25684055.008 7    196574.965 7     -2741.098 7        43.183               
G10  24059466.732 7    201758.023 7     -2824.038 7        46.360               
G11  22026879.504 8    160628.312 8     -2263.298 8        51.252               
G14  21028960.562 8    100348.034 8     -1411.123 8        53.768               
G17  25619254.479 7    -59993.770 7       815.005 7        42.512               
G18  20688438.811 9    105631.726 9     -1499.615 9        56.093               
G22  21770006.313 8   -143230.878 8      1992.641 8        53.591               
G23  25054033.177 7   -193744.997 7      2700.583 7        45.671               
G25  24687097.526 7    -77165.526 7      1062.404 7        46.526               
G31  20673405.852 9    -89286.293 9      1222.515 9        54.122               
G32  22218683.023 8    177614.640 8     -2483.795 8        50.526               
> 2020 02 06 15 07 21.7000000  0 13                                             
G01  21034547.184 9    -34108.687 9       451.098 9        54.241               
G03  23049420.278 8   -201608.872 8      2810.077 8        48.865               
G08  25684106.432 7    196849.301 7     -2739.970 7        43.223               
G10  24059520.980 7    202040.704 7     -2829.303 7        46.339               
G11  22026923.477 8    160854.751 8     -2263.590 8        51.218               
G14  21028987.684 8    100489.392 8     -1411.477 8        53.789               
G17  25619238.823 7    -60075.501 7       820.240 7        42.589               
G18  20688468.453 9    105781.837 9     -1499.470 9        56.197               
G22  21769968.285 8   -143429.959 8      1992.230 8        53.630               
G23  25053982.320 7   -194014.996 7      2703.471 7        45.611               
G25  24687077.082 7    -77271.224 7      1057.516 7        46.561               
G31  20673382.834 9    -89408.383 9      1222.173 9        54.048               
G32  22218730.284 8    177863.449 8     -2487.958 8        50.369               
> 2020 02 06 15 07 21.8000000  0 13                                             
G01  21034538.490 9    -34154.470 9       451.933 9        54.327               
G03  23049366.232 8   -201890.462 8      2809.635 8        48.806               
G08  25684158.743 7    197122.857 7     -2740.002 7        43.260               
G10  24059574.559 7    202322.584 7     -2828.432 7        46.330               
G11  22026965.442 8    161080.395 8     -2261.145 8        51.229               
G14  21029013.317 8    100629.954 8     -1411.351 8        53.958               
G17  25619221.731 7    -60158.026 7       819.040 7        42.649               
G18  20688495.372 9    105931.154 9     -1500.022 9        56.151               
G22  21769929.106 8   -143629.839 8      1992.025 8        53.679               
G23  25053930.329 7   -194285.794 7      2704.356 7        45.652               
G25  24687055.290 7    -77377.712 7      1058.054 7        46.558               
G31  20673358.701 8    -89531.265 8      1223.196 8        53.997               
G32  22218777.199 8    178111.470 8     -2487.014 8        50.316               
> 2020 02 06 15 07 21.9000000  0 13                                             
G01  21034530.810 9    -34199.412 9       452.336 9        54.366               
G03  23049312.682 8   -202171.218 8      2812.043 8        48.701               
G08  25684211.854 7    197397.229 7     -2739.553 7        43.169               
G10  24059628.277 7    202605.296 7     -2820.199 7        46.397               
G11  22027009.242 8    161306.878 8     -2262.626 8        51.176               
G14  21029040.392 9    100771.353 9     -1412.106 9        54.070               
G17  25619206.153 7    -60239.716 7       821.270 7        42.714               
G18  20688525.038 9    106081.311 9     -1499.700 9        56.029               
G22  21769892.318 8   -143828.880 8      1991.103 8        53.510               
G23  25053879.603 7   -194555.758 7      2703.774 7        45.718               
G25  24687035.048 7    -77483.367 7      1055.811 7        46.537               
G31  20673335.171 8    -89653.306 8      1222.392 8        53.892               
G32  22218825.145 8    178360.324 8     -2489.307 8        50.234               
> 2020 02 06 15 07 22.0000000  0 13                                             
G01  21034522.323 9    -34244.544 9       451.793 9        54.303               
G03  23049259.647 8   -202452.172 8      2808.660 8        48.638               
G08  25684264.031 7    197671.415 7     -2742.457 7        43.114               
G10  24059681.956 7    202887.824 7     -2823.483 7        46.324               
G11  22027052.057 8    161533.168 8     -2261.476 8        51.083               
G14  21029067.714 8    100912.556 8     -1411.172 8        53.970               
G17  25619191.197 7    -60321.597 7       817.894 7        42.800               
G18  20688552.932 9    106231.277 9     -1498.635 9        55.886               
G22  21769854.168 8   -144028.119 8      1994.483 8        53.282               
G23  25053827.068 7   -194825.913 7      2702.476 7        45.890               
G25  24687015.303 7    -77589.212 7      1056.856 7        46.453               
G31  20673312.103 8    -89775.538 8      1222.889 8        53.761               
G32  22218872.480 8    178608.980 8     -2487.358 8        50.143               
> 2020 02 06 15 07 22.1000000  0 13                                             
G01  21034513.864 9    -34289.166 9       450.186 9        54.191               
G03  23049206.338 8   -202732.619 8      2807.453 8        48.498               
G08  25684317.793 7    197946.096 7     -2738.432 7        43.025               
G10  24059735.718 7    203170.848 7     -2825.451 7        46.226               
G11  22027095.687 8    161759.969 8     -2262.267 8        51.057               
G14  21029095.190 8    101054.267 8     -1412.103 8        53.997               
G17  25619177.020 7    -60402.968 7       819.331 7        42.840               
G18  20688582.588 9    106381.755 9     -1499.017 9        55.692               
G22  21769816.368 8   -144226.851 8      1993.684 8        53.215               
G23  25053777.243 7   -195095.562 7      2702.910 7        45.925               
G25  24686996.301 7    -77694.548 7      1053.587 7        46.291               
G31  20673289.707 8    -89897.262 8      1221.825 8        53.651               
G32  22218921.381 8    178858.137 8     -2487.170 8        50.023               
> 2020 02 06 15 07 22.2000000  0 13                                             
G01  21034502.931 8    -34335.448 8       452.061 8        53.948               
G03  23049152.483 8   -203014.735 8      2808.575 8        48.313               
G08  25684369.187 7    198219.103 7     -2741.260 7        42.859               
G10  24059788.577 7    203452.199 7     -2823.162 7        46.100               
G11  22027138.307 8    161985.106 8     -2262.737 8        50.993               
G14  21029120.567 9    101194.313 9     -1411.745 9        54.029               
G17  25619158.814 7    -60486.004 7       821.282 7        42.799               
G18  20688609.359 9    106530.573 9     -1499.550 9        55.448               
G22  21769777.613 8   -144427.246 8      1993.876 8        53.112               
G23  25053723.674 7   -195366.884 7      2702.003 7        46.083               
G25  24686975.862 7    -77801.549 7      1057.613 7        46.029               
G31  20673265.247 8    -90020.645 8      1222.500 8        53.744               
G32  22218966.307 8    179105.630 8     -2486.025 8        50.072               
> 2020 02 06 15 07 22.3000000  0 13                                             
G01  21034493.823 8    -34380.242 8       451.434 8        53.742               
G03  23049099.042 7   -203295.370 7      2810.596 7        47.971               
G08  25684422.209 7    198493.599 7     -2738.016 7        42.658               
G10  24059842.117 7    203735.053 7     -2827.963 7        46.056               
G11  22027181.233 8    162211.730 8     -2262.282 8        51.042               
G14  21029147.322 9    101335.842 9     -1411.359 9        54.081               
G17  25619143.863 7    -60567.550 7       820.527 7        42.791               
G18  20688638.865 9    106680.878 9     -1499.069 9        55.146               
G22  21769740.075 8   -144626.158 8      1991.654 8        52.930               
G23  25053670.876 7   -195636.716 7      2703.851 7        46.157               
G25  24686956.247 7    -77907.057 7      1055.327 7        45.862               
G31  20673242.218 8    -90142.539 8      1222.430 8        53.956               
G32  22219015.041 8    179354.612 8     -2487.984 8        50.158               
> 2020 02 06 15 07 22.4000000  0 13                                             
G01  21034482.924 8    -34426.800 8       451.606 8        53.567               
G03  23049044.399 7   -203577.769 7      2812.187 7        47.789               
G08  25684472.958 7    198766.329 7     -2740.119 7        42.455               
G10  24059895.975 7    204016.120 7     -2824.607 7        46.002               
G11  22027222.208 8    162436.588 8     -2262.224 8        51.176               
G14  21029173.143 9    101475.608 9     -1412.347 9        54.009               
G17  25619127.031 7    -60650.853 7       817.633 7        42.854               
G18  20688665.187 9    106829.425 9     -1499.075 9        54.874               
G22  21769700.335 8   -144826.836 8      1993.200 8        52.761               
G23  25053618.664 7   -195908.317 7      2704.400 7        46.242               
G25  24686933.375 7    -78014.332 7      1058.695 7        45.755               
G31  20673216.666 9    -90266.190 9      1221.777 9        54.159               
G32  22219061.251 8    179601.820 8     -2486.132 8        50.160               
> 2020 02 06 15 07 22.5000000  0 13                                             
G01  21034476.300 8    -34470.372 8       452.251 8        53.490               
G03  23048991.512 7   -203857.189 7      2810.878 7        47.707               
G08  25684527.661 7    199042.041 7     -2747.403 7        42.238               
G10  24059950.821 7    204300.190 7     -2822.914 7        46.064               
G11  22027267.315 8    162664.434 8     -2262.559 8        51.183               
G14  21029201.757 8    101618.355 8     -1412.060 8        53.945               
G17  25619113.689 7    -60731.184 7       818.556 7        43.066               
G18  20688696.267 9    106980.957 9     -1499.865 9        54.658               
G22  21769664.567 8   -145024.534 8      1992.464 8        52.850               
G23  25053569.797 7   -196176.940 7      2701.058 7        46.366               
G25  24686914.725 7    -78118.627 7      1060.556 7        45.711               
G31  20673195.837 9    -90386.864 9      1222.637 9        54.223               
G32  22219109.002 8    179852.019 8     -2486.884 8        50.169               
> 2020 02 06 15 07 22.6000000  0 13                                             
G01  21034468.450 8    -34515.258 8       451.068 8        53.457               
G03  23048938.758 7   -204137.934 7      2812.586 7        47.586               
G08  25684579.190 7    199316.410 7     -2742.145 7        42.079               
G10  24060004.387 7    204582.923 7     -2823.564 7        46.149               
G11  22027310.142 8    162890.959 8     -2263.447 8        51.119               
G14  21029229.252 8    101759.778 8     -1412.116 8        53.852               
G17  25619098.530 7    -60812.827 7       817.914 7        43.289               
G18  20688724.084 9    107131.169 9     -1500.041 9        54.456               
G22  21769626.554 8   -145223.552 8      1991.529 8        52.914               
G23  25053518.115 7   -196446.890 7      2705.213 7        46.571               
G25  24686894.832 7    -78224.233 7      1058.049 7        45.661               
G31  20673173.316 9    -90508.849 9      1223.116 9        54.241               
G32  22219157.208 8    180100.883 8     -2486.428 8        50.232               
> 2020 02 06 15 07 22.7000000  0 13                                             
G01  21034459.653 8    -34561.380 8       450.611 8        53.340               
G03  23048883.894 7   -204419.916 7      2810.619 7        47.560               
G08  25684629.825 6    199589.543 6     -2750.502 6        41.901               
G10  24060058.149 7    204864.412 7     -2822.884 7        46.100               
G11  22027352.485 8    163116.253 8     -2263.499 8        51.033               
G14  21029254.120 8    101899.966 8     -1411.348 8        53.720               
G17  25619081.067 7    -60895.704 7       815.799 7        43.468               
G18  20688751.453 9    107280.143 9     -1500.358 9        54.365               
G22  21769587.201 8   -145423.811 8      1994.282 8        53.012               
G23  25053465.807 7   -196718.074 7      2700.473 7        46.558               
G25  24686873.884 7    -78331.078 7      1058.455 7        45.582               
G31  20673148.634 9    -90632.069 9      1222.974 9        54.194               
G32  22219203.447 8    180348.516 8     -2487.022 8        50.212               
> 2020 02 06 15 07 22.8000000  0 13                                             
G01  21034452.693 8    -34605.598 8       451.115 8        53.310               
G03  23048831.475 7   -204700.005 7      2807.749 7        47.549               
G08  25684682.083 6    199864.560 6     -2740.823 6        41.620               
G10  24060112.140 7    205147.816 7     -2823.664 7        46.119               
G11  22027396.613 8    163343.439 8     -2263.122 8        50.836               
G14  21029282.720 8    102042.051 8     -1411.339 8        53.623               
G17  25619067.852 7    -60976.681 7       819.220 7        43.676               
G18  20688780.982 9    107431.024 9     -1500.503 9        54.426               
G22  21769551.186 8   -145622.173 8      1992.130 8        53.171               
G23  25053416.175 7   -196987.359 7      2704.238 7        46.436               
G25  24686854.505 7    -78436.019 7      1053.909 7        45.551               
G31  20673126.253 9    -90753.389 9      1222.377 9        54.306               
G32  22219251.095 8    180598.046 8     -2487.885 8        50.324               
> 2020 02 06 15 07 22.9000000  0 13                                             
G01  21034444.172 8    -34650.488 8       452.094 8        53.508               
G03  23048778.515 7   -204980.769 7      2809.665 7        47.583               
G08  25684734.228 6    200138.917 6     -2735.487 6        41.332               
G10  24060165.679 7    205430.535 7     -2824.240 7        46.102               
G11  22027439.662 8    163569.954 8     -2261.130 8        50.634               
G14  21029309.705 8    102183.462 8     -1410.908 8        53.572               
G17  25619052.131 7    -61058.329 7       816.079 7        43.795               
G18  20688810.594 9    107581.232 9     -1499.529 9        54.538               
G22  21769513.503 8   -145821.208 8      1992.975 8        53.169               
G23  25053364.930 7   -197257.321 7      2699.772 7        46.453               
G25  24686833.744 7    -78541.637 7      1059.826 7        45.490               
G31  20673102.919 9    -90875.379 9      1222.340 9        54.541               
G32  22219298.772 8    180846.891 8     -2486.544 8        50.543               
> 2020 02 06 15 07 23.0000000  0 13                                             
G01  21034433.993 8    -34696.892 8       450.099 8        53.692               
G03  23048723.699 7   -205263.054 7      2811.001 7        47.682               
G08  25684784.446 6    200411.744 6     -2741.704 6        41.125               
G10  24060218.828 7    205711.732 7     -2826.563 7        46.056               
G11  22027482.376 8    163794.956 8     -2264.020 8        50.395               
G14  21029335.014 8    102323.354 8     -1411.091 8        53.528               
G17  25619034.733 7    -61141.504 7       819.981 7        43.818               
G18  20688836.653 9    107729.923 9     -1499.874 9        54.601               
G22  21769473.823 8   -146021.764 8      1991.810 8        53.183               
G23  25053311.329 7   -197528.809 7      2702.195 7        46.470               
G25  24686812.040 7    -78648.765 7      1055.799 7        45.666               
G31  20673078.266 9    -90998.882 9      1221.128 9        54.641               
G32  22219344.881 8    181094.224 8     -2485.242 8        50.624               
> 2020 02 06 15 07 23.1000000  0 13                                             
G01  21034426.970 8    -34740.906 8       450.269 8        53.751               
G03  23048672.342 7   -205542.950 7      2811.543 7        47.824               
G08  25684836.265 6    200686.946 6     -2743.263 6        40.944               
G10  24060272.488 7    205995.327 7     -2829.347 7        46.127               
G11  22027525.850 8    164022.345 8     -2261.008 8        50.323               
G14  21029362.906 8    102465.634 8     -1411.276 8        53.531               
G17  25619019.704 7    -61222.284 7       819.227 7        43.992               
G18  20688867.352 9    107881.013 9     -1500.860 9        54.597               
G22  21769437.673 8   -146219.931 8      1993.333 8        53.276               
G23  25053261.027 7   -197797.906 7      2701.581 7        46.524               
G25  24686793.562 7    -78753.512 7      1061.098 7        45.959               
G31  20673057.197 9    -91119.995 9      1221.819 9        54.762               
G32  22219393.037 8    181343.940 8     -2485.729 8        50.652               
> 2020 02 06 15 07 23.2000000  0 13                                             
G01  21034420.905 9    -34784.484 9       450.915 9        54.026               
G03  23048620.515 7   -205822.420 7      2807.854 7        47.958               
G08  25684889.436 6    200962.579 6     -2736.235 6        40.825               
G10  24060326.141 7    206279.337 7     -2823.760 7        46.141               
G11  22027570.802 8    164250.169 8     -2261.967 8        50.175               
G14  21029391.847 8    102608.346 8     -1411.908 8        53.624               
G17  25619007.135 7    -61302.616 7       816.929 7        44.192               
G18  20688897.418 9    108032.531 9     -1499.596 9        54.569               
G22  21769401.999 8   -146417.668 8      1993.544 8        53.189               
G23  25053212.041 7   -198066.578 7      2699.948 7        46.456               
G25  24686775.597 7    -78857.824 7      1059.052 7        46.187               
G31  20673035.980 9    -91240.673 9      1222.942 9        54.990               
G32  22219441.580 8    181594.090 8     -2485.109 8        50.781               
> 2020 02 06 15 07 23.3000000  0 13                                             
G01  21034411.247 9    -34830.643 9       450.342 9        54.170               
G03  23048565.345 8   -206104.477 8      2806.442 8        48.009               
G08  25684940.140 6    201235.635 6     -2739.182 6        40.766               
G10  24060380.312 7    206560.778 7     -2820.663 7        46.083               
G11  22027612.982 8    164475.410 8     -2262.765 8        50.037               
G14  21029417.874 8    102748.472 8     -1412.480 8        53.809               
G17  25618990.204 7    -61385.545 7       813.759 7        44.300               
G18  20688924.963 9    108181.470 9     -1499.728 9        54.425               
G22  21769361.535 8   -146617.991 8      1992.986 8        52.921               
G23  25053160.105 7   -198337.819 7      2698.366 7        46.525               
G25  24686754.788 7    -78964.705 7      1058.905 7        46.172               
G31  20673010.758 9    -91363.933 9      1222.434 9        54.983               
G32  22219488.638 8    181841.652 8     -2485.158 8        50.757               
> 2020 02 06 15 07 23.4000000  0 13                                             
G01  21034401.396 9    -34876.613 9       451.092 9        54.217               
G03  23048510.714 7   -206386.350 7      2809.440 7        47.996               
G08  25684993.277 6    201508.853 6     -2735.954 6        40.850               
G10  24060434.610 7    206842.392 7     -2829.626 7        45.873               
G11  22027654.558 8    164700.840 8     -2263.819 8        49.938               
G14  21029443.689 9    102888.784 9     -1412.729 9        54.070               
G17  25618972.437 7    -61468.285 7       817.690 7        44.219               
G18  20688952.119 9    108330.602 9     -1499.563 9        54.288               
G22  21769322.111 8   -146818.127 8      1992.480 8        52.693               
G23  25053107.869 7   -198608.900 7      2702.601 7        46.642               
G25  24686734.520 7    -79071.416 7      1059.746 7        46.147               
G31  20672985.611 9    -91486.999 9      1221.542 9        54.819               
G32  22219534.146 8    182089.397 8     -2487.063 8        50.700               
> 2020 02 06 15 07 23.5000000  0 13                                             
G01  21034390.837 9    -34922.553 9       451.262 9        54.150               
G03  23048456.680 8   -206668.204 8      2808.302 8        48.251               
G08  25685043.348 6    201782.108 6     -2741.529 6        40.912               
G10  24060487.933 7    207124.027 7     -2824.311 7        45.634               
G11  22027696.945 8    164926.294 8     -2264.220 8        49.924               
G14  21029469.190 9    103029.117 9     -1412.347 9        54.157               
G17  25618955.267 7    -61550.993 7       817.837 7        44.147               
G18  20688979.746 9    108479.753 9     -1499.643 9        54.118               
G22  21769283.372 8   -147018.245 8      1993.467 8        52.611               
G23  25053055.121 7   -198879.950 7      2702.897 7        46.681               
G25  24686712.364 7    -79178.087 7      1055.389 7        46.048               
G31  20672961.757 9    -91610.041 9      1221.680 9        54.750               
G32  22219580.446 8    182337.169 8     -2487.017 8        50.609               
> 2020 02 06 15 07 23.6000000  0 13                                             
G01  21034384.709 9    -34964.903 9       450.849 9        54.114               
G03  23048406.111 8   -206946.469 8      2810.281 8        48.564               
G08  25685098.511 6    202058.956 6     -2743.266 6        40.981               
G10  24060540.505 7    207409.244 7     -2829.426 7        45.598               
G11  22027743.066 8    165155.342 8     -2263.306 8        49.895               
G14  21029499.175 9    103173.041 9     -1412.242 9        54.333               
G17  25618943.903 7    -61630.118 7       812.526 7        44.116               
G18  20689011.179 8    108632.504 8     -1500.586 8        53.934               
G22  21769248.654 8   -147214.768 8      1991.138 8        52.499               
G23  25053006.500 7   -199147.411 7      2702.641 7        46.666               
G25  24686695.246 7    -79281.173 7      1059.662 7        46.056               
G31  20672942.585 9    -91729.488 9      1221.463 9        54.627               
G32  22219632.070 8    182588.523 8     -2487.450 8        50.602               
> 2020 02 06 15 07 23.7000000  0 13                                             
G01  21034374.949 9    -35010.416 9       449.941 9        54.003               
G03  23048352.876 8   -207227.901 8      2809.653 8        48.892               
G08  25685149.684 6    202332.603 6     -2740.198 6        41.074               
G10  24060594.484 7    207691.309 7     -2828.345 7        45.535               
G11  22027785.126 8    165381.218 8     -2261.691 8        49.857               
G14  21029526.244 9    103313.795 9     -1412.362 9        54.475               
G17  25618926.835 7    -61712.413 7       819.612 7        44.057               
G18  20689039.355 8    108782.089 8     -1499.518 8        53.661               
G22  21769210.786 8   -147414.465 8      1991.521 8        52.458               
G23  25052954.212 7   -199418.043 7      2704.074 7        46.669               
G25  24686674.426 7    -79387.424 7      1056.682 7        46.089               
G31  20672918.798 9    -91852.103 9      1221.324 9        54.517               
G32  22219678.491 8    182836.702 8     -2487.914 8        50.552               
> 2020 02 06 15 07 23.8000000  0 13                                             
G01  21034365.449 8    -35056.065 8       449.301 8        53.983               
G03  23048297.971 8   -207509.479 8      2808.299 8        49.097               
G08  25685200.456 6    202606.119 6     -2738.422 6        41.268               
G10  24060648.132 7    207973.220 7     -2822.995 7        45.497               
G11  22027828.214 8    165606.961 8     -2261.968 8        49.861               
G14  21029552.249 9    103454.411 9     -1411.094 9        54.495               
G17  25618911.259 7    -61794.829 7       817.397 7        44.054               
G18  20689066.933 8    108931.536 8     -1500.057 8        53.451               
G22  21769172.355 8   -147614.301 8      1993.849 8        52.312               
G23  25052902.291 7   -199688.814 7      2699.786 7        46.621               
G25  24686653.953 7    -79493.816 7      1062.280 7        45.985               
G31  20672894.484 9    -91974.852 9      1222.624 9        54.302               
G32  22219725.957 8    183084.753 8     -2486.720 8        50.513               
> 2020 02 06 15 07 23.9000000  0 13                                             
G01  21034356.871 9    -35101.478 9       450.823 9        54.025               
G03  23048244.327 8   -207790.824 8      2810.263 8        49.262               
G08  25685252.025 6    202879.860 6     -2741.542 6        41.401               
G10  24060702.239 7    208255.380 7     -2827.837 7        45.484               
G11  22027870.188 8    165832.940 8     -2262.926 8        49.861               
G14  21029578.587 9    103595.264 9     -1411.998 9        54.468               
G17  25618896.302 7    -61877.008 7       820.278 7        44.084               
G18  20689095.254 8    109081.229 8     -1500.862 8        53.397               
G22  21769133.615 8   -147813.901 8      1992.456 8        52.222               
G23  25052850.505 7   -199959.354 7      2703.534 7        46.432               
G25  24686633.475 7    -79599.959 7      1057.120 7        45.813               
G31  20672870.378 9    -92097.358 9      1221.418 9        54.257               
G32  22219772.558 8    183333.025 8     -2484.548 8        50.559               
> 2020 02 06 15 07 24.0000000  0 13                                             
G01  21034349.787 9    -35145.616 9       450.974 9        54.046               
G03  23048191.016 8   -208070.898 8      2808.435 8        49.233               
G08  25685304.785 6    203154.874 6     -2744.327 6        41.614               
G10  24060756.642 7    208538.795 7     -2824.935 7        45.493               
G11  22027914.173 8    166060.192 8     -2263.634 8        49.826               
G14  21029605.651 9    103737.382 9     -1412.200 9        54.513               
G17  25618882.195 7    -61957.933 7       825.025 7        44.010               
G18  20689125.034 8    109232.187 8     -1501.024 8        53.562               
G22  21769097.226 8   -148012.236 8      1992.378 8        52.246               
G23  25052800.429 7   -200228.625 7      2698.949 7        46.278               
G25  24686614.401 7    -79704.841 7      1060.455 7        45.638               
G31  20672849.053 9    -92218.596 9      1221.452 9        54.520               
G32  22219820.297 8    183582.574 8     -2485.207 8        50.529               
> 2020 02 06 15 07 24.1000000  0 13                                             
G01  21034340.703 9    -35191.599 9       450.005 9        54.049               
G03  23048136.259 8   -208352.824 8      2809.323 8        49.078               
G08  25685355.598 6    203428.029 6     -2741.368 6        41.795               
G10  24060810.886 7    208820.361 7     -2826.682 7        45.453               
G11  22027956.999 8    166285.593 8     -2264.823 8        49.923               
G14  21029631.894 9    103877.653 9     -1412.567 9        54.615               
G17  25618864.731 7    -62040.693 7       816.808 7        43.914               
G18  20689152.743 8    109381.305 8     -1501.522 8        53.724               
G22  21769058.193 8   -148212.418 8      1991.876 8        52.325               
G23  25052747.369 7   -200499.745 7      2702.428 7        46.186               
G25  24686592.058 7    -79811.572 7      1059.105 7        45.539               
G31  20672824.816 9    -92341.676 9      1221.200 9        55.019               
G32  22219866.803 8    183830.270 8     -2485.684 8        50.556               
> 2020 02 06 15 07 24.2000000  0 13                                             
G01  21034332.876 9    -35236.075 9       449.774 9        54.047               
G03  23048083.331 8   -208633.251 8      2811.428 8        48.940               
G08  25685408.508 6    203702.680 6     -2744.063 6        41.987               
G10  24060864.618 7    209103.430 7     -2825.634 7        45.478               
G11  22028000.778 8    166512.500 8     -2263.168 8        49.989               
G14  21029659.037 9    104019.426 9     -1411.724 9        54.778               
G17  25618849.864 7    -62121.948 7       817.418 7        43.869               
G18  20689181.941 8    109531.922 8     -1499.652 8        53.701               
G22  21769020.347 8   -148411.101 8      1993.282 8        52.422               
G23  25052696.496 7   -200769.381 7      2703.591 7        46.097               
G25  24686572.634 7    -79916.786 7      1056.514 7        45.547               
G31  20672802.444 9    -92463.253 9      1221.799 9        55.203               
G32  22219913.888 8    184079.467 8     -2487.585 8        50.587               
> 2020 02 06 15 07 24.3000000  0 13                                             
G01  21034323.719 9    -35281.657 9       450.257 9        54.150               
G03  23048029.144 8   -208914.789 8      2811.683 8        48.781               
G08  25685460.856 7    203976.222 7     -2739.950 7        42.113               
G10  24060917.842 7    209385.388 7     -2826.119 7        45.448               
G11  22028043.459 8    166738.299 8     -2264.576 8        49.999               
G14  21029685.296 9    104160.088 9     -1412.674 9        54.788               
G17  25618834.327 7    -62204.320 7       818.359 7        43.824               
G18  20689209.486 8    109681.436 8     -1500.714 8        53.579               
G22  21768982.242 8   -148610.892 8      1991.362 8        52.589               
G23  25052644.239 7   -201040.109 7      2703.237 7        45.986               
G25  24686551.434 7    -80023.115 7      1057.787 7        45.654               
G31  20672778.116 9    -92585.933 9      1220.616 9        55.167               
G32  22219962.108 8    184327.552 8     -2486.295 8        50.625               
> 2020 02 06 15 07 24.4000000  0 13                                             
G01  21034314.837 9    -35327.168 9       451.070 9        54.406               
G03  23047975.535 8   -209196.262 8      2810.770 8        48.659               
G08  25685513.175 7    204249.827 7     -2741.442 7        42.312               
G10  24060971.448 7    209667.418 7     -2825.969 7        45.383               
G11  22028085.807 8    166964.171 8     -2262.280 8        49.947               
G14  21029711.097 9    104300.819 9     -1412.575 9        54.789               
G17  25618816.993 7    -62286.611 7       815.171 7        43.737               
G18  20689237.611 8    109831.025 8     -1501.689 8        53.677               
G22  21768943.804 8   -148810.616 8      1993.485 8        52.560               
G23  25052592.596 7   -201310.774 7      2705.128 7        45.892               
G25  24686531.740 7    -80129.377 7      1058.503 7        45.747               
G31  20672753.812 9    -92708.544 9      1221.158 9        54.910               
G32  22220007.959 8    184575.700 8     -2488.440 8        50.566               
> 2020 02 06 15 07 24.5000000  0 13                                             
G01  21034307.244 9    -35371.817 9       450.274 9        54.588               
G03  23047922.715 8   -209476.883 8      2813.256 8        48.384               
G08  25685567.051 7    204524.280 7     -2740.141 7        42.488               
G10  24061025.699 7    209950.296 7     -2820.854 7        45.272               
G11  22028128.890 8    167190.898 8     -2262.142 8        49.884               
G14  21029738.956 9    104442.406 9     -1412.209 9        54.676               
G17  25618800.894 7    -62368.036 7       817.303 7        43.699               
G18  20689266.756 8    109981.470 8     -1501.701 8        53.848               
G22  21768905.887 8   -149009.484 8      1992.914 8        52.460               
G23  25052541.349 7   -201580.592 7      2704.655 7        45.923               
G25  24686512.640 7    -80234.770 7      1057.269 7        45.725               
G31  20672731.209 9    -92830.291 9      1221.116 9        54.643               
G32  22220055.492 8    184824.715 8     -2486.918 8        50.656               
> 2020 02 06 15 07 24.6000000  0 13                                             
G01  21034298.903 9    -35416.981 9       449.652 9        54.751               
G03  23047869.309 8   -209758.019 8      2807.805 8        48.209               
G08  25685618.125 7    204798.216 7     -2740.476 7        42.631               
G10  24061079.364 7    210232.665 7     -2827.240 7        45.238               
G11  22028172.352 8    167417.113 8     -2264.372 8        49.927               
G14  21029766.193 9    104583.477 9     -1412.058 9        54.759               
G17  25618786.335 7    -62449.996 7       816.532 7        43.727               
G18  20689294.905 8    110131.405 8     -1500.967 8        53.962               
G22  21768868.313 8   -149208.870 8      1992.389 8        52.322               
G23  25052490.212 7   -201850.918 7      2704.387 7        46.022               
G25  24686491.773 7    -80340.684 7      1058.056 7        45.732               
G31  20672707.930 9    -92952.554 9      1220.588 9        54.572               
G32  22220102.617 8    185073.201 8     -2487.519 8        50.657               
> 2020 02 06 15 07 24.7000000  0 13                                             
G01  21034291.409 9    -35460.803 9       450.296 9        54.704               
G03  23047816.732 7   -210037.821 7      2808.368 7        47.936               
G08  25685672.118 7    205073.490 7     -2740.684 7        42.691               
G10  24061134.108 7    210516.366 7     -2825.365 7        45.140               
G11  22028215.696 8    167644.668 8     -2264.041 8        49.974               
G14  21029794.866 9    104725.886 9     -1411.927 9        54.882               
G17  25618772.355 7    -62530.604 7       819.654 7        43.752               
G18  20689325.150 8    110282.680 8     -1502.544 8        53.961               
G22  21768832.103 8   -149406.916 8      1990.574 8        52.113               
G23  25052440.172 7   -202119.913 7      2701.518 7        46.178               
G25  24686472.575 7    -80445.259 7      1052.793 7        45.754               
G31  20672686.409 9    -93073.474 9      1221.011 9        54.509               
G32  22220151.124 8    185323.023 8     -2485.840 8        50.622               
> 2020 02 06 15 07 24.8000000  0 13                                             
G01  21034281.449 9    -35506.587 9       449.270 9        54.557               
G03  23047762.528 7   -210319.591 7      2810.101 7        47.749               
G08  25685724.682 7    205346.786 7     -2743.085 7        42.825               
G10  24061187.243 7    210798.084 7     -2823.022 7        45.038               
G11  22028257.698 8    167870.253 8     -2267.076 8        49.911               
G14  21029820.179 9    104866.323 9     -1411.821 9        54.993               
G17  25618755.390 7    -62613.173 7       811.682 7        43.618               
G18  20689352.428 8    110431.989 8     -1502.457 8        53.818               
G22  21768792.980 8   -149606.938 8      1993.024 8        51.959               
G23  25052387.683 7   -202390.878 7      2699.846 7        46.550               
G25  24686451.553 7    -80551.802 7      1056.484 7        45.783               
G31  20672661.867 9    -93196.357 9      1221.319 9        54.379               
G32  22220198.219 8    185570.877 8     -2485.600 8        50.582               
> 2020 02 06 15 07 24.9000000  0 13                                             
G01  21034271.626 9    -35551.777 9       449.879 9        54.309               
G03  23047708.730 7   -210600.770 7      2808.999 7        47.771               
G08  25685777.437 7    205620.674 7     -2739.438 7        43.114               
G10  24061240.695 7    211080.415 7     -2826.099 7        44.963               
G11  22028300.768 8    168096.438 8     -2264.605 8        49.683               
G14  21029846.506 9    105007.358 9     -1411.820 9        54.988               
G17  25618740.546 7    -62695.160 7       816.337 7        43.502               
G18  20689380.453 8    110581.896 8     -1501.281 8        53.785               
G22  21768754.729 8   -149806.360 8      1991.912 8        52.018               
G23  25052336.851 7   -202661.248 7      2704.031 7        46.722               
G25  24686432.707 7    -80657.745 7      1060.156 7        45.785               
G31  20672637.893 9    -93318.645 9      1220.398 9        54.216               
G32  22220244.309 8    185819.328 8     -2484.715 8        50.428               
> 2020 02 06 15 07 25.0000000  0 13                                             
G01  21034261.613 9    -35597.400 9       450.203 9        54.101               
G03  23047654.598 7   -210882.392 7      2808.938 7        47.927               
G08  25685829.304 7    205894.112 7     -2740.911 7        43.358               
G10  24061294.778 7    211362.301 7     -2828.671 7        44.987               
G11  22028342.754 8    168322.183 8     -2265.345 8        49.550               
G14  21029873.035 9    105147.952 9     -1413.014 9        54.886               
G17  25618723.457 7    -62777.574 7       817.937 7        43.504               
G18  20689408.322 8    110731.370 8     -1501.408 8        53.860               
G22  21768715.714 8   -150006.227 8      1991.299 8        52.207               
G23  25052285.828 7   -202932.072 7      2702.217 7        46.710               
G25  24686411.347 7    -80764.122 7      1058.970 7        45.790               
G31  20672613.960 9    -93441.366 9      1220.403 9        54.091               
G32  22220291.495 8    186067.331 8     -2485.278 8        50.344               
> 2020 02 06 15 07 25.1000000  0 13                                             
G01  21034251.623 8    -35642.833 8       449.756 8        53.996               
G03  23047600.578 8   -211163.831 8      2811.488 8        48.030               
G08  25685879.604 7    206167.726 7     -2743.674 7        43.523               
G10  24061347.901 7    211644.370 7     -2823.677 7        45.004               
G11  22028386.514 8    168548.117 8     -2263.767 8        49.431               
G14  21029899.140 9    105288.732 9     -1412.914 9        54.644               
G17  25618705.497 7    -62859.803 7       822.389 7        43.625               
G18  20689436.518 9    110881.036 9     -1501.698 9        54.007               
G22  21768677.240 8   -150205.907 8      1992.115 8        52.379               
G23  25052231.934 7   -203202.698 7      2704.695 7        46.757               
G25  24686391.386 7    -80870.316 7      1059.128 7        45.645               
G31  20672590.639 9    -93563.898 9      1219.892 9        54.092               
G32  22220338.364 8    186315.525 8     -2486.156 8        50.288               
> 2020 02 06 15 07 25.2000000  0 13                                             
G01  21034242.287 8    -35688.373 8       450.540 8        53.947               
G03  23047546.588 8   -211445.377 8      2809.304 8        48.124               
G08  25685931.434 7    206441.255 7     -2739.898 7        43.651               
G10  24061401.857 7    211926.327 7     -2828.800 7        45.056               
G11  22028428.623 8    168773.948 8     -2262.893 8        49.252               
G14  21029925.042 9    105429.404 9     -1412.121 9        54.412               
G17  25618689.603 7    -62942.128 7       816.060 7        43.766               
G18  20689464.564 9    111030.593 9     -1501.322 9        54.150               
G22  21768638.850 8   -150405.692 8      1990.940 8        52.432               
G23  25052181.732 7   -203473.443 7      2701.991 7        46.726               
G25  24686368.648 7    -80976.606 7      1057.421 7        45.263               
G31  20672566.758 9    -93686.534 9      1220.472 9        54.147               
G32  22220384.905 8    186563.608 8     -2486.737 8        50.260               
> 2020 02 06 15 07 25.3000000  0 13                                             
G01  21034234.250 8    -35732.996 8       449.142 8        53.928               
G03  23047492.842 8   -211726.011 8      2809.157 8        48.222               
G08  25685982.954 7    206715.662 7     -2743.563 7        43.730               
G10  24061455.701 7    212209.204 7     -2827.922 7        45.131               
G11  22028471.798 8    169000.686 8     -2263.684 8        49.068               
G14  21029951.956 9    105570.986 9     -1412.271 9        54.324               
G17  25618675.026 7    -63023.548 7       813.194 7        43.853               
G18  20689493.748 9    111181.067 9     -1501.595 9        54.257               
G22  21768601.775 8   -150604.570 8      1990.790 8        52.430               
G23  25052129.862 7   -203743.258 7      2702.915 7        46.577               
G25  24686347.888 7    -81081.989 7      1054.384 7        44.883               
G31  20672543.532 9    -93808.256 9      1220.503 9        54.169               
G32  22220433.566 8    186812.606 8     -2489.093 8        50.230               
> 2020 02 06 15 07 25.4000000  0 13                                             
G01  21034226.503 8    -35777.788 8       448.887 8        53.797               
G03  23047440.297 8   -212006.827 8      2812.029 8        48.297               
G08  25686035.855 7    206989.897 7     -2745.366 7        43.904               
G10  24061509.441 7    212491.895 7     -2829.166 7        45.286               
G11  22028515.157 8    169227.259 8     -2265.429 8        49.005               
G14  21029979.983 9    105712.396 9     -1412.729 9        54.354               
G17  25618660.078 7    -63105.142 7       816.367 7        43.922               
G18  20689522.543 9    111331.369 9     -1502.202 9        54.221               
G22  21768563.544 8   -150803.622 8      1993.019 8        52.338               
G23  25052078.497 7   -204013.277 7      2701.527 7        46.417               
G25  24686327.544 7    -81187.549 7      1057.285 7        44.600               
G31  20672519.900 9    -93930.144 9      1220.951 9        54.070               
G32  22220480.123 8    187061.415 8     -2485.094 8        50.094               
> 2020 02 06 15 07 25.5000000  0 13                                             
G01  21034218.651 8    -35822.780 8       449.341 8        53.694               
G03  23047386.754 8   -212287.847 8      2809.882 8        48.343               
G08  25686087.667 7    207263.923 7     -2740.090 7        43.953               
G10  24061564.006 7    212774.387 7     -2825.401 7        45.453               
G11  22028556.910 8    169453.625 8     -2264.271 8        48.964               
G14  21030006.958 9    105853.601 9     -1412.538 9        54.487               
G17  25618644.024 7    -63186.933 7       814.794 7        43.922               
G18  20689550.626 8    111481.470 8     -1503.262 8        53.998               
G22  21768525.440 8   -151002.877 8      1992.079 8        52.157               
G23  25052027.402 7   -204283.479 7      2698.371 7        46.376               
G25  24686308.238 7    -81293.303 7      1056.195 7        44.529               
G31  20672496.877 8    -94052.237 8      1220.582 8        53.956               
G32  22220528.076 8    187310.031 8     -2488.491 8        50.002               
> 2020 02 06 15 07 25.6000000  0 13                                             
G01  21034211.096 8    -35866.917 8       450.468 8        53.514               
G03  23047334.026 8   -212568.018 8      2809.012 8        48.407               
G08  25686138.973 7    207538.815 7     -2741.064 7        44.036               
G10  24061618.009 7    213057.725 7     -2828.350 7        45.677               
G11  22028601.264 8    169680.844 8     -2263.259 8        48.956               
G14  21030035.034 9    105995.654 9     -1413.508 9        54.584               
G17  25618629.733 7    -63267.881 7       816.460 7        43.969               
G18  20689580.471 8    111632.422 8     -1502.489 8        53.808               
G22  21768489.169 8   -151201.285 8      1991.271 8        52.050               
G23  25051975.353 7   -204552.842 7      2698.773 7        46.179               
G25  24686289.247 7    -81398.211 7      1058.762 7        44.673               
G31  20672475.009 8    -94173.475 8      1220.986 8        53.811               
G32  22220575.629 8    187559.486 8     -2486.160 8        49.906               
> 2020 02 06 15 07 25.7000000  0 13                                             
G01  21034201.920 8    -35912.735 8       450.279 8        53.391               
G03  23047279.445 8   -212849.877 8      2809.083 8        48.479               
G08  25686189.033 7    207811.989 7     -2738.976 7        44.088               
G10  24061670.607 7    213339.379 7     -2826.012 7        45.850               
G11  22028644.980 8    169906.383 8     -2264.372 8        48.991               
G14  21030059.559 9    106136.025 9     -1411.436 9        54.597               
G17  25618613.873 7    -63350.497 7       820.715 7        44.050               
G18  20689607.497 8    111781.699 8     -1500.910 8        53.627               
G22  21768449.884 8   -151401.377 8      1991.074 8        52.077               
G23  25051923.345 7   -204823.898 7      2703.313 7        46.050               
G25  24686267.652 7    -81504.792 7      1057.928 7        44.858               
G31  20672450.894 8    -94296.392 8      1220.979 8        53.693               
G32  22220621.704 8    187807.262 8     -2487.464 8        49.823               
> 2020 02 06 15 07 25.8000000  0 13                                             
G01  21034193.499 8    -35958.051 8       448.480 8        53.207               
G03  23047226.441 8   -213131.229 8      2807.274 8        48.597               
G08  25686241.241 7    208085.674 7     -2740.242 7        44.115               
G10  24061724.066 7    213621.536 7     -2822.777 7        46.004               
G11  22028687.253 8    170132.423 8     -2263.929 8        49.117               
G14  21030086.233 9    106276.896 9     -1412.765 9        54.583               
G17  25618597.125 7    -63432.620 7       819.215 7        44.151               
G18  20689636.065 8    111931.482 8     -1501.391 8        53.553               
G22  21768411.282 8   -151600.972 8      1991.591 8        52.043               
G23  25051870.716 7   -205094.439 7      2699.261 7        45.874               
G25  24686247.509 7    -81610.875 7      1057.131 7        44.968               
G31  20672426.552 8    -94418.804 8      1219.769 8        53.689               
G32  22220668.641 8    188055.543 8     -2489.600 8        49.728               
> 2020 02 06 15 07 25.9000000  0 13                                             
G01  21034185.984 8    -36002.735 8       448.069 8        53.185               
G03  23047173.163 8   -213411.969 8      2808.413 8        48.612               
G08  25686294.623 7    208359.985 7     -2742.992 7        44.159               
G10  24061777.662 7    213904.310 7     -2827.326 7        46.117               
G11  22028730.790 8    170359.094 8     -2263.773 8        49.179               
G14  21030113.580 9    106418.395 9     -1413.049 9        54.609               
G17  25618581.480 7    -63514.112 7       817.512 7        44.331               
G18  20689664.359 8    112081.895 8     -1500.431 8        53.482               
G22  21768374.158 8   -151799.937 8      1991.104 8        52.036               
G23  25051821.262 7   -205364.370 7      2700.528 7        45.715               
G25  24686228.235 7    -81716.328 7      1056.198 7        45.133               
G31  20672403.437 8    -94540.586 8      1219.111 8        53.642               
G32  22220716.573 8    188304.434 8     -2488.761 8        49.663               
> 2020 02 06 15 07 26.0000000  0 13                                             
G01  21034179.174 8    -36046.438 8       448.458 8        53.086               
G03  23047120.733 8   -213691.726 8      2809.913 8        48.716               
G08  25686349.068 7    208635.269 7     -2740.922 7        44.228               
G10  24061831.804 7    214188.069 7     -2825.942 7        46.263               
G11  22028775.264 8    170586.746 8     -2265.658 8        49.278               
G14  21030142.133 9    106560.873 9     -1412.998 9        54.596               
G17  25618568.630 7    -63594.611 7       814.607 7        44.511               
G18  20689695.092 8    112233.290 8     -1500.681 8        53.465               
G22  21768337.256 8   -151997.924 8      1993.820 8        52.022               
G23  25051771.513 7   -205633.314 7      2705.369 7        45.565               
G25  24686209.936 7    -81820.801 7      1059.821 7        45.307               
G31  20672382.225 8    -94661.385 8      1220.891 8        53.556               
G32  22220765.479 8    188554.315 8     -2485.813 8        49.630               
> 2020 02 06 15 07 26.1000000  0 13                                             
G01  21034170.296 8    -36091.442 8       449.222 8        52.996               
G03  23047067.343 8   -213972.793 8      2810.013 8        48.829               
G08  25686401.695 7    208909.238 7     -2740.932 7        44.303               
G10  24061885.646 7    214470.517 7     -2823.796 7        46.464               
G11  22028817.777 8    170813.090 8     -2264.772 8        49.333               
G14  21030168.546 9    106702.042 9     -1413.876 9        54.625               
G17  25618553.712 7    -63676.428 7       816.334 7        44.722               
G18  20689723.006 8    112383.383 8     -1502.112 8        53.539               
G22  21768299.055 8   -152197.218 8      1992.179 8        51.972               
G23  25051720.035 7   -205903.574 7      2702.543 7        45.354               
G25  24686190.336 7    -81926.576 7      1055.139 7        45.446               
G31  20672359.301 8    -94783.486 8      1220.376 8        53.484               
G32  22220812.138 8    188802.883 8     -2486.990 8        49.603               
> 2020 02 06 15 07 26.2000000  0 13                                             
G01  21034161.410 8    -36135.848 8       449.070 8        52.959               
G03  23047014.303 8   -214253.265 8      2810.521 8        49.068               
G08  25686454.297 7    209183.799 7     -2738.414 7        44.416               
G10  24061939.087 7    214753.563 7     -2824.604 7        46.629               
G11  22028861.694 8    171040.031 8     -2264.530 8        49.561               
G14  21030195.970 9    106843.805 9     -1411.615 9        54.559               
G17  25618537.715 7    -63757.648 7       816.697 7        44.915               
G18  20689752.575 8    112534.072 8     -1502.554 8        53.735               
G22  21768262.222 8   -152395.918 8      1992.161 8        51.928               
G23  25051668.800 7   -206173.228 7      2699.752 7        45.239               
G25  24686171.015 7    -82031.753 7      1058.564 7        45.574               
G31  20672336.746 8    -94904.989 8      1218.745 8        53.443               
G32  22220860.093 8    189052.044 8     -2487.198 8        49.652               
> 2020 02 06 15 07 26.3000000  0 13                                             
G01  21034151.281 8    -36181.286 8       448.997 8        53.007               
G03  23046960.413 8   -214534.776 8      2808.313 8        49.348               
G08  25686506.281 7    209457.315 7     -2740.168 7        44.451               
G10  24061992.840 7    215035.563 7     -2823.570 7        46.676               
G11  22028903.564 8    171265.939 8     -2262.828 8        49.681               
G14  21030222.705 9    106984.533 9     -1412.255 9        54.432               
G17  25618519.723 7    -63839.897 7       817.848 7        44.956               
G18  20689779.989 9    112683.726 9     -1502.895 9        54.075               
G22  21768223.253 8   -152595.658 8      1991.890 8        51.993               
G23  25051616.464 7   -206443.936 7      2700.185 7        45.208               
G25  24686150.075 7    -82137.968 7      1055.634 7        45.663               
G31  20672312.357 8    -95027.527 8      1220.680 8        53.482               
G32  22220907.235 8    189300.167 8     -2485.951 8        49.733               
> 2020 02 06 15 07 26.4000000  0 13                                             
G01  21034142.730 8    -36225.607 8       448.975 8        53.193               
G03  23046906.975 8   -214815.181 8      2809.849 8        49.661               
G08  25686558.628 7    209731.948 7     -2739.468 7        44.433               
G10  24062047.063 7    215318.693 7     -2827.630 7        46.725               
G11  22028947.155 8    171492.965 8     -2264.904 8        49.746               
G14  21030250.339 9    107126.375 9     -1411.948 9        54.293               
G17  25618506.562 7    -63921.026 7       816.433 7        44.953               
G18  20689809.785 9    112834.498 9     -1502.820 9        54.279               
G22  21768185.826 8   -152794.284 8      1992.312 8        52.080               
G23  25051565.707 7   -206713.523 7      2702.891 7        45.392               
G25  24686129.677 7    -82243.066 7      1057.720 7        45.743               
G31  20672289.440 8    -95148.945 8      1219.579 8        53.433               
G32  22220954.775 8    189549.401 8     -2487.011 8        49.733               
> 2020 02 06 15 07 26.5000000  0 13                                             
G01  21034133.376 8    -36270.908 8       448.514 8        53.343               
G03  23046852.913 8   -215096.567 8      2810.230 8        49.655               
G08  25686610.868 7    210005.585 7     -2738.466 7        44.346               
G10  24062100.393 7    215600.812 7     -2822.265 7        46.741               
G11  22028990.229 8    171719.006 8     -2266.534 8        49.793               
G14  21030276.472 9    107267.233 9     -1413.736 9        54.145               
G17  25618492.294 7    -64003.145 7       815.408 7        45.087               
G18  20689837.348 9    112984.288 9     -1501.882 9        54.440               
G22  21768147.988 8   -152993.895 8      1992.865 8        52.103               
G23  25051513.860 7   -206984.103 7      2701.516 7        45.340               
G25  24686109.137 7    -82349.148 7      1057.254 7        45.888               
G31  20672266.094 8    -95271.344 8      1219.277 8        53.234               
G32  22221002.333 8    189797.660 8     -2488.150 8        49.791               
> 2020 02 06 15 07 26.6000000  0 13                                             
G01  21034125.676 8    -36315.461 8       449.332 8        53.338               
G03  23046800.111 8   -215377.203 8      2809.930 8        49.592               
G08  25686663.226 7    210279.968 7     -2739.384 7        44.235               
G10  24062154.342 7    215883.699 7     -2826.479 7        46.647               
G11  22029032.955 8    171945.794 8     -2264.222 8        49.784               
G14  21030303.313 8    107408.834 8     -1413.740 8        53.903               
G17  25618475.124 7    -64084.529 7       816.208 7        45.165               
G18  20689866.708 9    113134.835 9     -1502.191 9        54.612               
G22  21768110.233 8   -153192.761 8      1990.580 8        52.053               
G23  25051462.595 7   -207253.929 7      2703.752 7        45.414               
G25  24686089.876 7    -82454.471 7      1055.118 7        46.036               
G31  20672243.456 8    -95392.994 8      1219.930 8        52.923               
G32  22221049.724 8    190046.644 8     -2486.149 8        49.852               
> 2020 02 06 15 07 26.7000000  0 13                                             
G01  21034117.188 8    -36360.682 8       448.964 8        53.318               
G03  23046746.915 8   -215658.527 8      2808.929 8        49.542               
G08  25686715.171 7    210553.672 7     -2742.302 7        44.269               
G10  24062208.056 7    216165.894 7     -2824.578 7        46.552               
G11  22029075.823 8    172171.912 8     -2265.259 8        49.689               
G14  21030330.510 8    107549.763 8     -1412.073 8        53.657               
G17  25618458.916 7    -64166.559 7       819.373 7        45.287               
G18  20689894.548 9    113284.705 9     -1502.419 9        54.887               
G22  21768071.743 8   -153392.301 8      1994.499 8        52.066               
G23  25051410.990 7   -207524.442 7      2702.795 7        45.425               
G25  24686069.487 7    -82560.477 7      1053.404 7        46.073               
G31  20672219.940 8    -95515.312 8      1219.762 8        52.681               
G32  22221096.469 8    190294.974 8     -2487.174 8        50.030               
> 2020 02 06 15 07 26.8000000  0 13                                             
G01  21034109.924 8    -36404.915 8       447.241 8        53.343               
G03  23046693.388 8   -215938.871 8      2809.517 8        49.534               
G08  25686768.000 7    210828.357 7     -2743.487 7        44.413               
G10  24062262.386 7    216449.088 7     -2826.481 7        46.471               
G11  22029119.700 8    172399.015 8     -2263.315 8        49.751               
G14  21030358.018 8    107691.674 8     -1412.710 8        53.453               
G17  25618445.451 7    -64247.594 7       816.996 7        45.295               
G18  20689924.219 9    113435.568 9     -1502.368 9        55.050               
G22  21768035.209 8   -153590.856 8      1990.433 8        51.951               
G23  25051360.214 7   -207793.962 7      2700.540 7        45.419               
G25  24686050.358 7    -82665.493 7      1055.599 7        45.944               
G31  20672197.398 8    -95636.645 8      1219.621 8        52.596               
G32  22221144.402 8    190544.266 8     -2486.196 8        50.187               
> 2020 02 06 15 07 26.9000000  0 13                                             
G01  21034101.546 8    -36449.598 8       448.137 8        53.316               
G03  23046640.410 8   -216219.654 8      2808.986 8        49.650               
G08  25686820.663 7    211102.581 7     -2742.841 7        44.444               
G10  24062315.889 7    216731.813 7     -2823.364 7        46.503               
G11  22029162.767 8    172625.672 8     -2265.311 8        49.713               
G14  21030385.201 8    107833.137 8     -1412.732 8        53.296               
G17  25618429.426 7    -64329.112 7       818.189 7        45.153               
G18  20689952.670 9    113585.979 9     -1502.329 9        55.235               
G22  21767996.954 8   -153789.865 8      1991.886 8        51.913               
G23  25051309.398 7   -208063.936 7      2699.662 7        45.407               
G25  24686030.616 7    -82770.961 7      1057.931 7        45.825               
G31  20672174.136 8    -95758.423 8      1219.531 8        52.501               
G32  22221191.704 8    190793.121 8     -2487.904 8        50.256               
> 2020 02 06 15 07 27.0000000  0 13                                             
G01  21034092.588 8    -36494.833 8       448.259 8        53.240               
G03  23046585.689 8   -216500.996 8      2808.012 8        49.764               
G08  25686871.834 7    211376.249 7     -2739.500 7        44.405               
G10  24062369.937 7    217013.995 7     -2822.510 7        46.495               
G11  22029205.933 8    172851.769 8     -2265.275 8        49.805               
G14  21030410.819 8    107974.041 8     -1413.621 8        53.193               
G17  25618412.891 7    -64411.187 7       817.825 7        45.078               
G18  20689980.951 9    113735.839 9     -1502.728 9        55.339               
G22  21767958.244 8   -153989.431 8      1992.235 8        51.969               
G23  25051257.268 7   -208334.480 7      2707.219 7        45.349               
G25  24686008.810 7    -82876.972 7      1051.146 7        45.613               
G31  20672150.972 8    -95880.755 8      1218.618 8        52.379               
G32  22221238.801 8    191041.410 8     -2487.450 8        50.340               
> 2020 02 06 15 07 27.1000000  0 13                                             
G01  21034084.850 8    -36539.175 8       448.899 8        53.070               
G03  23046532.849 8   -216781.471 8      2807.484 8        49.830               
G08  25686924.208 7    211650.794 7     -2736.999 7        44.313               
G10  24062424.115 7    217297.057 7     -2826.775 7        46.469               
G11  22029249.175 8    173078.759 8     -2266.010 8        49.928               
G14  21030438.962 8    108115.832 8     -1413.258 8        53.169               
G17  25618397.255 7    -64492.323 7       816.803 7        45.171               
G18  20690009.755 9    113886.590 9     -1503.587 9        55.284               
G22  21767921.469 8   -154188.111 8      1992.375 8        52.076               
G23  25051206.162 7   -208604.126 7      2699.939 7        45.341               
G25  24685989.332 7    -82982.108 7      1055.078 7        45.323               
G31  20672128.241 8    -96002.196 8      1219.555 8        52.251               
G32  22221286.296 8    191290.588 8     -2485.537 8        50.367               
> 2020 02 06 15 07 27.2000000  0 13                                             
G01  21034076.407 8    -36584.518 8       448.187 8        52.917               
G03  23046479.734 8   -217062.939 8      2807.517 8        49.717               
G08  25686975.787 7    211924.339 7     -2742.199 7        44.183               
G10  24062477.374 7    217579.114 7     -2823.761 7        46.330               
G11  22029291.712 8    173304.746 8     -2265.314 8        49.994               
G14  21030465.274 8    108256.619 8     -1412.857 8        53.302               
G17  25618380.503 7    -64574.496 7       815.057 7        45.232               
G18  20690038.479 9    114036.338 9     -1501.201 9        55.084               
G22  21767882.577 8   -154387.793 8      1989.761 8        52.183               
G23  25051154.493 7   -208874.781 7      2699.909 7        45.297               
G25  24685969.166 7    -83088.237 7      1052.141 7        45.050               
G31  20672104.234 8    -96124.635 8      1218.893 8        52.237               
G32  22221333.551 8    191538.763 8     -2487.402 8        50.467               
> 2020 02 06 15 07 27.3000000  0 13                                             
G01  21034068.704 8    -36629.190 8       448.366 8        52.788               
G03  23046425.410 8   -217343.739 8      2811.278 8        49.477               
G08  25687027.927 7    212198.537 7     -2744.143 7        44.252               
G10  24062531.516 7    217861.833 7     -2828.375 7        46.303               
G11  22029335.758 8    173531.400 8     -2265.215 8        50.083               
G14  21030492.451 8    108398.073 8     -1412.825 8        53.544               
G17  25618368.100 7    -64656.011 7       814.784 7        45.306               
G18  20690066.496 9    114186.761 9     -1503.421 9        54.930               
G22  21767844.640 8   -154586.814 8      1991.723 8        52.244               
G23  25051103.601 7   -209144.774 7      2700.434 7        45.397               
G25  24685950.063 7    -83193.701 7      1054.347 7        44.812               
G31  20672080.842 8    -96246.406 8      1219.203 8        52.272               
G32  22221380.706 8    191787.595 8     -2486.211 8        50.629               
> 2020 02 06 15 07 27.4000000  0 13                                             
G01  21034060.370 8    -36673.860 8       448.595 8        52.727               
G03  23046372.351 8   -217624.555 8      2808.135 8        49.310               
G08  25687080.884 7    212472.736 7     -2740.561 7        44.247               
G10  24062585.277 7    218144.558 7     -2825.790 7        46.389               
G11  22029378.316 8    173758.058 8     -2264.330 8        50.195               
G14  21030518.891 8    108539.525 8     -1413.508 8        53.821               
G17  25618352.851 7    -64737.498 7       816.669 7        45.366               
G18  20690095.795 9    114337.181 9     -1501.129 9        54.900               
G22  21767807.644 8   -154785.833 8      1992.036 8        52.330               
G23  25051051.989 7   -209414.766 7      2701.924 7        45.598               
G25  24685929.739 7    -83299.161 7      1056.018 7        44.683               
G31  20672057.534 8    -96368.173 8      1218.767 8        52.326               
G32  22221427.784 8    192036.432 8     -2487.355 8        50.725               
> 2020 02 06 15 07 27.5000000  0 13                                             
G01  21034050.223 8    -36719.429 8       447.496 8        52.768               
G03  23046318.781 8   -217906.266 8      2808.255 8        49.173               
G08  25687131.580 7    212746.027 7     -2745.033 7        44.302               
G10  24062638.243 7    218426.374 7     -2824.501 7        46.519               
G11  22029420.667 8    173983.815 8     -2265.356 8        50.437               
G14  21030544.946 8    108680.075 8     -1413.360 8        53.957               
G17  25618332.626 7    -64819.892 7       814.529 7        45.302               
G18  20690122.993 9    114486.709 9     -1502.585 9        54.802               
G22  21767768.495 8   -154985.756 8      1991.022 8        52.331               
G23  25051000.117 7   -209685.663 7      2701.283 7        45.893               
G25  24685908.227 7    -83405.522 7      1056.202 7        44.743               
G31  20672033.896 8    -96490.839 8      1220.144 8        52.273               
G32  22221475.103 8    192284.362 8     -2487.904 8        50.808               
> 2020 02 06 15 07 27.6000000  0 13                                             
G01  21034041.186 8    -36763.613 8       447.666 8        52.767               
G03  23046265.036 8   -218186.595 8      2808.847 8        49.196               
G08  25687184.889 7    213020.692 7     -2742.090 7        44.269               
G10  24062692.927 7    218709.571 7     -2824.994 7        46.597               
G11  22029464.594 8    174210.954 8     -2263.989 8        50.707               
G14  21030572.880 9    108822.006 9     -1413.841 9        54.146               
G17  25618320.622 7    -64900.920 7       817.845 7        45.311               
G18  20690152.982 9    114637.617 9     -1501.178 9        54.784               
G22  21767731.064 8   -155184.300 8      1992.409 8        52.339               
G23  25050949.070 7   -209955.183 7      2703.587 7        46.180               
G25  24685888.558 7    -83510.502 7      1057.241 7        44.872               
G31  20672011.707 8    -96612.120 8      1218.165 8        52.102               
G32  22221522.586 8    192533.670 8     -2486.769 8        50.808               
> 2020 02 06 15 07 27.7000000  0 13                                             
G01  21034031.959 8    -36808.368 8       447.930 8        52.831               
G03  23046211.369 8   -218467.509 8      2809.574 8        49.065               
G08  25687236.792 7    213294.775 7     -2742.133 7        44.274               
G10  24062746.688 7    218992.194 7     -2826.906 7        46.793               
G11  22029507.580 8    174437.520 8     -2265.029 8        51.008               
G14  21030599.945 9    108963.361 9     -1413.226 9        54.256               
G17  25618304.623 7    -64982.503 7       815.117 7        45.263               
G18  20690181.227 9    114787.954 9     -1503.407 9        54.672               
G22  21767693.908 8   -155383.417 8      1991.099 8        52.446               
G23  25050898.101 7   -210225.280 7      2701.402 7        46.391               
G25  24685868.413 7    -83616.049 7      1058.725 7        44.945               
G31  20671988.650 8    -96733.971 8      1218.886 8        51.985               
G32  22221570.451 8    192782.409 8     -2487.218 8        50.791               
> 2020 02 06 15 07 27.8000000  0 13                                             
G01  21034021.207 8    -36854.512 8       447.149 8        52.986               
G03  23046158.214 8   -218749.813 8      2809.774 8        48.960               
G08  25687287.635 7    213567.466 7     -2737.971 7        44.350               
G10  24062798.710 7    219273.423 7     -2826.084 7        46.883               
G11  22029549.667 8    174662.697 8     -2265.178 8        51.326               
G14  21030624.860 9    109103.325 9     -1413.789 9        54.327               
G17  25618285.259 7    -65065.484 7       814.621 7        45.130               
G18  20690208.608 9    114936.907 9     -1502.358 9        54.621               
G22  21767653.923 8   -155583.929 8      1992.067 8        52.636               
G23  25050844.642 7   -210496.770 7      2701.318 7        46.563               
G25  24685847.530 7    -83722.993 7      1058.626 7        45.032               
G31  20671963.442 8    -96857.211 8      1218.744 8        52.009               
G32  22221616.004 8    193029.746 8     -2486.945 8        50.876               
> 2020 02 06 15 07 27.9000000  0 13                                             
G01  21034013.812 8    -36898.646 8       448.727 8        53.101               
G03  23046104.270 8   -219030.118 8      2809.031 8        48.783               
G08  25687340.244 7    213842.157 7     -2740.535 7        44.473               
G10  24062853.071 7    219556.650 7     -2825.972 7        47.003               
G11  22029593.467 8    174889.879 8     -2265.799 8        51.478               
G14  21030652.274 9    109245.292 9     -1412.908 9        54.325               
G17  25618272.628 7    -65146.452 7       815.279 7        45.187               
G18  20690237.183 9    115087.861 9     -1502.664 9        54.550               
G22  21767616.472 8   -155782.439 8      1991.938 8        52.817               
G23  25050794.040 7   -210766.254 7      2700.725 7        46.689               
G25  24685828.699 7    -83827.923 7      1058.119 7        45.108               
G31  20671940.840 8    -96978.443 8      1218.263 8        51.970               
G32  22221663.878 8    193279.089 8     -2487.825 8        50.958               
> 2020 02 06 15 07 28.0000000  0 13                                             
G01  21034006.020 8    -36943.257 8       447.211 8        53.197               
G03  23046050.948 8   -219310.905 8      2813.357 8        48.566               
G08  25687392.509 7    214116.358 7     -2742.228 7        44.501               
G10  24062907.570 7    219839.402 7     -2827.528 7        47.097               
G11  22029636.655 8    175116.583 8     -2264.059 8        51.501               
G14  21030679.844 9    109386.780 9     -1412.902 9        54.245               
G17  25618257.742 7    -65227.895 7       816.501 7        45.074               
G18  20690266.773 9    115238.343 9     -1503.615 9        54.482               
G22  21767579.410 8   -155981.425 8      1990.592 8        53.049               
G23  25050742.147 7   -211036.224 7      2705.155 7        46.720               
G25  24685808.809 7    -83933.332 7      1055.123 7        45.098               
G31  20671918.270 8    -97100.150 8      1218.138 8        51.880               
G32  22221711.605 8    193527.952 8     -2488.017 8        51.062               
> 2020 02 06 15 07 28.1000000  0 13                                             
G01  21033998.110 8    -36987.914 8       447.431 8        53.179               
G03  23045997.829 8   -219591.738 8      2810.575 8        48.439               
G08  25687445.050 7    214390.510 7     -2740.730 7        44.466               
G10  24062960.772 7    220122.103 7     -2825.150 7        47.065               
G11  22029680.476 8    175343.239 8     -2264.678 8        51.403               
G14  21030706.833 9    109528.216 9     -1412.423 9        54.228               
G17  25618240.665 7    -65309.404 7       816.357 7        44.916               
G18  20690294.905 9    115388.778 9     -1502.854 9        54.470               
G22  21767541.391 8   -156180.466 8      1992.118 8        53.044               
G23  25050690.976 7   -211306.248 7      2700.728 7        46.733               
G25  24685787.765 7    -84038.787 7      1051.548 7        44.993               
G31  20671895.386 8    -97221.904 8      1217.924 8        51.878               
G32  22221759.000 8    193776.757 8     -2486.397 8        51.102               
> 2020 02 06 15 07 28.2000000  0 13                                             
G01  21033990.089 8    -37032.569 8       446.594 8        53.105               
G03  23045944.260 8   -219872.579 8      2810.863 8        48.567               
G08  25687496.712 7    214664.652 7     -2738.788 7        44.452               
G10  24063015.382 7    220404.793 7     -2825.958 7        46.976               
G11  22029723.007 8    175569.900 8     -2264.504 8        51.385               
G14  21030733.924 9    109669.654 9     -1413.902 9        54.054               
G17  25618226.551 7    -65390.890 7       816.955 7        44.726               
G18  20690324.337 9    115539.216 9     -1503.220 9        54.403               
G22  21767503.297 8   -156379.505 8      1990.078 8        52.933               
G23  25050639.927 7   -211576.264 7      2699.797 7        46.793               
G25  24685767.468 7    -84144.250 7      1053.775 7        44.880               
G31  20671872.409 8    -97343.658 8      1219.261 8        51.835               
G32  22221806.677 8    194025.568 8     -2485.908 8        51.059               
> 2020 02 06 15 07 28.3000000  0 13                                             
G01  21033981.078 8    -37077.552 8       446.428 8        53.076               
G03  23045890.648 8   -220153.754 8      2809.314 8        48.682               
G08  25687548.920 7    214938.468 7     -2742.498 7        44.485               
G10  24063068.376 7    220687.170 7     -2828.933 7        46.899               
G11  22029766.048 8    175796.227 8     -2266.382 8        51.462               
G14  21030759.901 8    109810.759 8     -1413.265 8        53.866               
G17  25618211.303 7    -65472.715 7       811.948 7        44.623               
G18  20690352.047 9    115689.326 9     -1502.570 9        54.446               
G22  21767465.713 8   -156578.878 8      1993.100 8        52.822               
G23  25050588.012 7   -211846.623 7      2701.871 7        46.810               
G25  24685747.021 7    -84250.033 7      1053.983 7        44.869               
G31  20671848.334 8    -97465.735 8      1217.801 8        51.845               
G32  22221853.327 8    194274.044 8     -2488.368 8        51.038               
> 2020 02 06 15 07 28.4000000  0 13                                             
G01  21033972.819 8    -37122.199 8       448.172 8        53.038               
G03  23045837.734 8   -220434.589 8      2806.545 8        48.753               
G08  25687600.718 7    215212.604 7     -2739.639 7        44.627               
G10  24063122.123 7    220969.857 7     -2825.290 7        46.890               
G11  22029809.341 8    176022.888 8     -2264.586 8        51.416               
G14  21030787.648 8    109952.197 8     -1413.556 8        53.715               
G17  25618195.593 7    -65554.210 7       814.039 7        44.541               
G18  20690381.456 9    115839.773 9     -1503.358 9        54.507               
G22  21767427.684 8   -156777.919 8      1990.352 8        52.880               
G23  25050537.028 7   -212116.652 7      2702.126 7        46.641               
G25  24685728.023 7    -84355.485 7      1056.346 7        44.995               
G31  20671824.993 8    -97587.478 8      1219.072 8        51.989               
G32  22221901.034 8    194522.847 8     -2486.541 8        51.021               
> 2020 02 06 15 07 28.5000000  0 13                                             
G01  21033965.074 8    -37166.721 8       448.233 8        53.070               
G03  23045784.584 8   -220715.324 8      2807.344 8        48.732               
G08  25687654.032 7    215486.863 7     -2737.229 7        44.762               
G10  24063176.258 7    221252.674 7     -2824.472 7        46.968               
G11  22029852.148 8    176249.675 8     -2264.326 8        51.372               
G14  21030814.658 8    110093.753 8     -1413.286 8        53.641               
G17  25618180.754 7    -65635.565 7       816.444 7        44.495               
G18  20690409.806 9    115990.341 9     -1504.288 9        54.555               
G22  21767389.651 8   -156976.843 8      1992.368 8        52.880               
G23  25050485.343 7   -212386.555 7      2702.779 7        46.583               
G25  24685708.627 7    -84460.816 7      1058.025 7        45.092               
G31  20671802.686 8    -97709.097 8      1219.030 8        52.101               
G32  22221948.433 8    194771.776 8     -2487.222 8        51.003               
> 2020 02 06 15 07 28.6000000  0 13                                             
G01  21033957.487 8    -37211.388 8       448.707 8        53.133               
G03  23045731.252 8   -220996.196 8      2811.414 8        48.637               
G08  25687706.252 7    215760.961 7     -2743.079 7        44.732               
G10  24063230.069 7    221535.341 7     -2827.371 7        47.069               
G11  22029895.969 8    176476.312 8     -2266.167 8        51.298               
G14  21030841.754 8    110235.161 8     -1415.082 8        53.634               
G17  25618164.125 7    -65717.091 7       816.852 7        44.427               
G18  20690438.904 9    116140.763 9     -1503.101 9        54.460               
G22  21767352.562 8   -157175.914 8      1990.721 8        52.899               
G23  25050434.656 7   -212656.613 7      2700.952 7        46.632               
G25  24685687.960 7    -84566.288 7      1057.192 7        45.164               
G31  20671779.784 8    -97830.861 8      1218.261 8        52.242               
G32  22221995.704 8    195020.547 8     -2486.772 8        50.930               
> 2020 02 06 15 07 28.7000000  0 13                                             
G01  21033949.057 8    -37256.424 8       447.799 8        53.239               
G03  23045677.310 8   -221277.451 8      2811.558 8        48.527               
G08  25687757.666 7    216034.677 7     -2739.174 7        44.810               
G10  24063283.627 7    221817.624 7     -2825.079 7        47.223               
G11  22029938.323 8    176702.579 8     -2267.114 8        51.218               
G14  21030867.508 8    110376.194 8     -1414.636 8        53.673               
G17  25618149.763 7    -65798.979 7       818.112 7        44.467               
G18  20690466.427 9    116290.818 9     -1503.411 9        54.362               
G22  21767314.058 8   -157375.362 8      1990.377 8        53.029               
G23  25050382.482 7   -212927.047 7      2704.712 7        46.606               
G25  24685667.004 7    -84672.135 7      1055.214 7        45.338               
G31  20671756.237 8    -97952.996 8      1218.806 8        52.414               
G32  22222043.222 8    195268.944 8     -2488.543 8        51.032               
> 2020 02 06 15 07 28.8000000  0 13                                             
G01  21033940.918 8    -37300.641 8       446.409 8        53.293               
G03  23045624.016 8   -221557.891 8      2808.426 8        48.401               
G08  25687810.211 7    216309.214 7     -2740.711 7        44.790               
G10  24063338.226 7    222100.738 7     -2828.926 7        47.346               
G11  22029981.916 8    176929.660 8     -2265.846 8        51.092               
G14  21030895.590 8    110518.041 8     -1413.690 8        53.675               
G17  25618135.245 7    -65880.033 7       817.896 7        44.434               
G18  20690496.653 9    116441.690 9     -1502.949 9        54.299               
G22  21767276.400 8   -157573.994 8      1991.784 8        53.030               
G23  25050331.708 7   -213196.670 7      2701.746 7        46.525               
G25  24685647.304 7    -84777.164 7      1056.260 7        45.671               
G31  20671733.285 8    -98074.310 8      1218.337 8        52.669               
G32  22222090.513 8    195518.157 8     -2488.322 8        51.048               
> 2020 02 06 15 07 28.9000000  0 13                                             
G01  21033930.417 8    -37346.084 8       447.500 8        53.324               
G03  23045570.272 8   -221839.553 8      2807.852 8        48.244               
G08  25687861.858 7    216582.517 7     -2741.073 7        44.830               
G10  24063390.749 7    222382.606 7     -2823.897 7        47.379               
G11  22030024.825 8    177155.520 8     -2266.387 8        50.970               
G14  21030921.845 8    110658.664 8     -1413.571 8        53.863               
G17  25618116.595 7    -65962.344 7       817.108 7        44.401               
G18  20690523.694 9    116591.340 9     -1502.059 9        54.218               
G22  21767238.309 8   -157773.852 8      1990.465 8        53.025               
G23  25050279.662 7   -213467.517 7      2699.566 7        46.382               
G25  24685626.582 7    -84883.419 7      1055.884 7        46.023               
G31  20671708.882 8    -98196.849 8      1218.054 8        52.885               
G32  22222137.800 8    195766.140 8     -2485.037 8        51.046               
> 2020 02 06 15 07 29.0000000  0 13                                             
G01  21033921.600 8    -37390.214 8       445.885 8        53.391               
G03  23045516.782 8   -222119.924 8      2811.023 8        48.161               
G08  25687914.260 7    216857.128 7     -2743.141 7        44.754               
G10  24063445.599 7    222665.794 7     -2823.777 7        47.383               
G11  22030067.846 8    177382.688 8     -2266.159 8        50.814               
G14  21030949.517 8    110800.593 8     -1413.859 8        53.980               
G17  25618102.453 7    -66043.309 7       816.448 7        44.409               
G18  20690553.635 9    116742.303 9     -1504.330 9        54.066               
G22  21767200.777 8   -157972.406 8      1992.658 8        52.947               
G23  25050228.638 7   -213737.057 7      2699.810 7        46.231               
G25  24685607.883 7    -84988.364 7      1056.508 7        46.162               
G31  20671686.895 8    -98318.075 8      1217.455 8        53.220               
G32  22222185.610 8    196015.431 8     -2488.534 8        51.042               
> 2020 02 06 15 07 29.1000000  0 13                                             
G01  21033911.705 8    -37435.392 8       447.450 8        53.370               
G03  23045463.125 8   -222401.333 8      2811.335 8        48.103               
G08  25687966.406 7    217130.672 7     -2740.232 7        44.675               
G10  24063498.567 7    222947.923 7     -2829.012 7        47.316               
G11  22030110.735 8    177608.808 8     -2265.411 8        50.723               
G14  21030975.342 9    110941.473 9     -1413.736 9        54.079               
G17  25618085.339 7    -66125.342 7       813.883 7        44.403               
G18  20690580.925 8    116892.220 8     -1503.136 8        53.922               
G22  21767161.773 8   -158172.007 8      1989.569 8        52.893               
G23  25050176.911 7   -214007.660 7      2706.523 7        46.087               
G25  24685587.373 7    -85094.352 7      1056.184 7        46.301               
G31  20671663.241 8    -98440.347 8      1217.584 8        53.537               
G32  22222231.966 8    196263.671 8     -2486.907 8        51.063               
> 2020 02 06 15 07 29.2000000  0 13                                             
G01  21033903.295 8    -37479.824 8       446.171 8        53.397               
G03  23045409.472 8   -222682.009 8      2808.853 8        48.122               
G08  25688019.198 7    217404.959 7     -2739.705 7        44.589               
G10  24063552.574 7    223230.800 7     -2825.996 7        47.278               
G11  22030154.379 8    177835.672 8     -2267.890 8        50.590               
G14  21031002.545 9    111083.090 9     -1413.488 9        54.056               
G17  25618070.211 7    -66206.640 7       813.332 7        44.382               
G18  20690610.595 8    117042.876 8     -1503.575 8        53.788               
G22  21767124.809 8   -158370.873 8      1992.414 8        52.830               
G23  25050125.867 7   -214277.511 7      2699.176 7        45.940               
G25  24685566.974 7    -85199.605 7      1054.424 7        46.394               
G31  20671640.411 8    -98561.875 8      1217.639 8        53.792               
G32  22222280.041 8    196512.647 8     -2486.747 8        51.017               
> 2020 02 06 15 07 29.3000000  0 13                                             
G01  21033895.309 8    -37524.494 8       446.730 8        53.522               
G03  23045356.545 8   -222962.933 8      2808.850 8        48.078               
G08  25688070.466 7    217678.993 7     -2739.065 7        44.527               
G10  24063606.380 7    223513.418 7     -2826.794 7        47.221               
G11  22030196.944 8    178062.293 8     -2266.634 8        50.544               
G14  21031029.886 9    111224.468 9     -1413.263 9        54.120               
G17  25618054.470 7    -66288.151 7       817.748 7        44.385               
G18  20690638.633 8    117193.296 8     -1503.062 8        53.850               
G22  21767086.731 8   -158569.979 8      1990.256 8        52.756               
G23  25050074.209 7   -214547.603 7      2700.568 7        45.847               
G25  24685546.551 7    -85305.093 7      1058.168 7        46.588               
G31  20671616.826 9    -98683.642 9      1218.323 9        54.195               
G32  22222326.984 8    196761.380 8     -2487.142 8        50.983               
